trialIdx,primeName,primeAngleYaw,targetName,targetAngleYaw,targetSide,sameScenePrime,correctResponse,response,roll,pitch,yaw,rt,timestamp,condition,familiarityPrime,familiarityTarget,subject_id,session_format,explicit_acc_scenewise_prime,explicit_acc_scenewise_target,oc_acc_by_condition,oc_acc
1,PineBackHall,180,MooreLot,270,90,0,open,open,-1.883362,-2.12442,365.9468,1.336243,960.597,3,yes,yes,Q30,remote,1,1,0.967741935483871,0.927927927927928
3,Umplebys,-50,Umplebys,-140,-90,1,open,open,-0.7625122,-6.019104,-232.2905,1.238892,979.3643,1,yes,yes,Q30,remote,1,1,0.914893617021277,0.927927927927928
5,neutral,0,BakerBerryCharter,0,90,0,closed,closed,-4.366913,0.315542,103.5064,1.42041,987.7875,2,na,yes,Q30,remote,NaN,1,0.909090909090909,0.927927927927928
6,Hop2,-1,Hop2,-91,-90,1,closed,closed,0.944622,-5.057037,-185.9305,1.19751,993.3144,1,yes,yes,Q30,remote,1,1,0.914893617021277,0.927927927927928
8,RaunerFirst,0,RaunerFirst,90,90,1,open,open,-3.807007,-0.9588928,176.8584,1.280762,1005.761,1,yes,yes,Q30,remote,1,1,0.914893617021277,0.927927927927928
9,53Commons,0,53Commons,90,90,1,open,open,-3.948364,-2.331177,184.3517,1.015991,1008.503,1,yes,yes,Q30,remote,0.333333333333333,0.333333333333333,0.914893617021277,0.927927927927928
11,neutral,0,Hop4,87,90,0,closed,closed,-2.452606,-0.8628235,177.778,1.503662,1019.099,2,na,yes,Q30,remote,NaN,1,0.909090909090909,0.927927927927928
13,Umplebys,-50,Umplebys,-140,-90,1,open,open,-1.500641,-4.19458,-235.1082,1.030396,1027.939,1,yes,yes,Q30,remote,1,1,0.914893617021277,0.927927927927928
14,BakerBerry2nd,94,BakerBerry2nd,4,-90,1,closed,closed,0.7003819,-2.165375,-93.45413,1.016235,1031.796,1,yes,yes,Q30,remote,1,1,0.914893617021277,0.927927927927928
15,McLaughlinCluster,172,Maynard,-90,-90,0,open,open,2.05381,-4.080078,-178.2403,1.433716,1035.61,3,yes,yes,Q30,remote,1,1,0.967741935483871,0.927927927927928
16,Hop2,-1,Hop4,87,90,0,closed,closed,-2.344788,-1.734192,185.0095,1.100098,1040.414,3,yes,yes,Q30,remote,1,1,0.967741935483871,0.927927927927928
17,neutral,0,RaunerBackHall,-90,-90,0,closed,closed,1.131472,-2.736786,-180.294,0.9190674,1043.992,2,na,yes,Q30,remote,NaN,1,0.909090909090909,0.927927927927928
18,53Commons,0,Fairbanks,-90,-90,0,open,open,2.812717,-8.278046,-173.9808,1.601318,1047.876,3,yes,yes,Q30,remote,0.333333333333333,0.666666666666667,0.967741935483871,0.927927927927928
20,AllenSt,0,AllenSt,-90,-90,1,open,open,2.793735,-3.068329,-184.2686,1.072144,1057.371,1,yes,yes,Q30,remote,1,1,0.914893617021277,0.927927927927928
21,Hop4,-3,BakerBerry2nd,184,90,0,open,open,-4.945526,-0.3096313,277.1443,1.266968,1061.381,3,yes,yes,Q30,remote,1,1,0.967741935483871,0.927927927927928
22,BakerBerry2nd,94,BakerBerryHistoric2,270,90,0,open,open,-3.400757,1.974104,362.4198,2.241577,1065.251,3,yes,yes,Q30,remote,1,1,0.967741935483871,0.927927927927928
23,Hop4,-3,Hop4,-93,-90,1,open,open,3.015017,-1.906189,-180.9221,1.252808,1069.274,1,yes,yes,Q30,remote,1,1,0.914893617021277,0.927927927927928
24,MooreLot,180,53Commons,-90,-90,0,closed,closed,2.534691,-4.053162,-173.5344,1.002441,1072.045,3,yes,yes,Q30,remote,1,0.333333333333333,0.967741935483871,0.927927927927928
25,neutral,0,Zimmerman,-190,-90,0,closed,closed,0.8511625,-5.565613,-275.5941,0.9606934,1076.862,2,na,yes,Q30,remote,NaN,1,0.909090909090909,0.927927927927928
27,RollinsChapel3,177,Zimmerman,-190,-90,0,closed,closed,1.27992,-6.306335,-270.6792,1.461792,1086.357,3,yes,yes,Q30,remote,1,1,0.967741935483871,0.927927927927928
29,neutral,0,AllenSt,90,90,0,closed,closed,-2.977936,0.7956982,174.2057,0.9748535,1091.829,2,na,yes,Q30,remote,NaN,1,0.909090909090909,0.927927927927928
30,BakerBerryHistoric2,180,BakerBerryHistoric2,90,-90,1,closed,closed,3.897613,-0.6737671,8.16864,1.211304,1094.362,1,yes,yes,Q30,remote,1,1,0.914893617021277,0.927927927927928
32,RaunerBackHall,0,RaunerBackHall,90,90,1,open,open,-3.173096,4.615476,177.246,1.002563,1099.695,1,yes,yes,Q30,remote,1,1,0.914893617021277,0.927927927927928
33,BakerBerryCharter,-90,PineBackHall,270,90,0,closed,closed,-3.702637,3.043158,355.8339,1.016357,1102.061,3,yes,yes,Q30,remote,1,1,0.967741935483871,0.927927927927928
35,neutral,0,Hop2,89,90,0,open,open,-5.187195,1.326634,176.6134,1.141602,1124.81,2,na,yes,Q30,remote,NaN,1,0.909090909090909,0.927927927927928
37,AllenSt,0,AllenSt,-90,-90,1,open,open,1.147408,-0.5489807,-172.6676,0.9609375,1131.298,1,yes,yes,Q30,remote,1,1,0.914893617021277,0.927927927927928
38,Umplebys,-50,RaunerBackHall,-90,-90,0,closed,closed,1.378597,-2.827026,-172.2991,0.9466553,1134.459,3,yes,yes,Q30,remote,1,1,0.967741935483871,0.927927927927928
39,Hop4,-3,Hop4,-93,-90,1,open,open,2.909279,-0.2359314,-178.9017,0.9193115,1137.453,1,yes,yes,Q30,remote,1,1,0.914893617021277,0.927927927927928
40,McLaughlinCluster,172,McLaughlinCluster,262,90,1,open,open,-2.783508,8.068954,353.1381,1.434082,1140.835,1,yes,yes,Q30,remote,1,1,0.914893617021277,0.927927927927928
41,Zimmerman,-100,Zimmerman,-10,90,1,open,open,-6.664398,-1.302765,86.94819,1.684692,1144.316,1,yes,yes,Q30,remote,1,1,0.914893617021277,0.927927927927928
43,neutral,0,RollinsChapel3,87,-90,0,open,open,4.123322,-1.857544,6.516663,0.9746094,1163.765,2,na,yes,Q30,remote,NaN,1,0.909090909090909,0.927927927927928
44,BakerBerryHistoric2,180,BakerBerryHistoric2,90,-90,1,closed,closed,2.794821,-2.049561,17.33365,0.9605713,1166.188,1,yes,yes,Q30,remote,1,1,0.914893617021277,0.927927927927928
46,neutral,0,McLaughlinCluster,82,-90,0,closed,closed,1.44901,-7.205627,13.29803,1.141724,1172.313,2,na,yes,Q30,remote,NaN,1,0.909090909090909,0.927927927927928
47,RaunerFirst,0,PineEntrance,-90,-90,0,open,open,2.603063,0.8112708,-174.7613,1.447754,1175.126,3,yes,yes,Q30,remote,1,1,0.967741935483871,0.927927927927928
49,MooreLot,180,MooreLot,90,-90,1,closed,closed,2.145468,-0.9651489,8.82135,0.8912354,1180.249,1,yes,yes,Q30,remote,1,1,0.914893617021277,0.927927927927928
50,RaunerBackHall,0,RaunerBackHall,90,90,1,open,open,-8.984283,2.277804,174.5725,1.127808,1182.95,1,yes,yes,Q30,remote,1,1,0.914893617021277,0.927927927927928
52,PineBackHall,180,PineBackHall,90,-90,1,open,open,3.464215,4.195837,-3.842438,1.072144,1204.78,1,yes,yes,Q30,remote,1,1,0.914893617021277,0.927927927927928
54,Maynard,0,McLaughlinCluster,82,-90,0,closed,closed,1.329121,-4.181549,4.538544,1.19751,1210.836,3,yes,yes,Q30,remote,1,1,0.967741935483871,0.927927927927928
56,53Commons,0,53Commons,90,90,1,open,open,-5.505524,3.949095,175.4644,0.9885254,1216.001,1,yes,yes,Q30,remote,0.333333333333333,0.333333333333333,0.914893617021277,0.927927927927928
57,neutral,0,Umplebys,40,90,0,closed,closed,-5.824799,1.873916,126.8794,0.9744873,1218.327,2,na,yes,Q30,remote,NaN,1,0.909090909090909,0.927927927927928
58,neutral,0,PineEntrance,-90,-90,0,open,open,1.577489,1.217377,-164.9258,1.100098,1220.707,2,na,yes,Q30,remote,NaN,1,0.909090909090909,0.927927927927928
59,RaunerBackHall,0,Hop2,89,90,0,open,open,-6.987915,2.356493,166.0085,1.281006,1223.339,3,yes,yes,Q30,remote,1,1,0.967741935483871,0.927927927927928
60,MooreLot,180,MooreLot,90,-90,1,closed,closed,3.326417,-0.3777466,8.602539,1.266846,1226.026,1,yes,yes,Q30,remote,1,1,0.914893617021277,0.927927927927928
62,neutral,0,Maynard,-90,-90,0,open,open,8.609379,-3.020508,-167.3356,1.21106,1231.734,2,na,yes,Q30,remote,NaN,1,0.909090909090909,0.927927927927928
64,neutral,0,BakerBerryHistoric2,270,90,0,open,open,-4.270355,9.835249,351.9058,1.433716,1237.943,2,na,yes,Q30,remote,NaN,1,0.909090909090909,0.927927927927928
65,BakerBerry2nd,94,BakerBerry2nd,4,-90,1,closed,closed,-3.439453,3.990629,-84.2677,0.7518311,1240.059,1,yes,yes,Q30,remote,1,1,0.914893617021277,0.927927927927928
66,BakerBerryHistoric2,180,RollinsChapel3,87,-90,0,open,open,1.068111,1.018403,11.353,0.9608154,1242.259,3,yes,yes,Q30,remote,1,1,0.967741935483871,0.927927927927928
67,PineEntrance,0,PineEntrance,90,90,1,closed,closed,-9.601959,5.430597,161.4931,0.793457,1244.612,1,yes,yes,Q30,remote,1,1,0.914893617021277,0.927927927927928
68,neutral,0,53Commons,-90,-90,0,closed,closed,4.431884,0.8611988,-167.2838,0.9885254,1247.174,2,na,yes,Q30,remote,NaN,0.333333333333333,0.909090909090909,0.927927927927928
69,neutral,0,MooreLot,270,90,0,open,open,-17.82642,-7.722229,317.7339,1.057983,1249.554,2,na,yes,Q30,remote,NaN,1,0.909090909090909,0.927927927927928
71,neutral,0,BakerBerry2nd,184,90,0,open,open,-11.4184,5.976632,261.4051,0.9466553,1269.825,2,na,yes,Q30,remote,NaN,1,0.909090909090909,0.927927927927928
72,PineEntrance,0,AllenSt,90,90,0,closed,closed,-8.424133,4.198719,164.215,1.350586,1272.665,3,yes,yes,Q30,remote,1,1,0.967741935483871,0.927927927927928
74,AllenSt,0,Zimmerman,-10,90,0,open,open,-12.59308,0.2236487,61.94978,0.9746094,1277.9,3,yes,yes,Q30,remote,1,1,0.967741935483871,0.927927927927928
75,Hop4,-3,RollinsChapel3,267,90,0,closed,closed,-5.057281,6.859056,349.1686,1.266968,1280.476,3,yes,yes,Q30,remote,1,1,0.967741935483871,0.927927927927928
76,BakerBerryHistoric2,180,RaunerFirst,90,90,0,open,open,-4.733398,4.472066,168.311,1.100342,1282.94,3,yes,yes,Q30,remote,1,1,0.967741935483871,0.927927927927928
77,neutral,0,BakerBerryCharter,-180,-90,0,open,open,7.65897,3.745444,-251.3533,1.15564,1285.335,2,na,yes,Q30,remote,NaN,1,0.909090909090909,0.927927927927928
80,Maynard,0,Maynard,-90,-90,1,open,open,5.418974,1.477022,-169.3879,0.9887695,1292.839,1,yes,yes,Q30,remote,1,1,0.914893617021277,0.927927927927928
81,neutral,0,RollinsChapel3,267,90,0,closed,closed,-8.718719,5.78373,330.0799,0.9189453,1295.024,2,na,yes,Q30,remote,NaN,1,0.909090909090909,0.927927927927928
82,PineEntrance,0,BakerBerryCharter,-180,-90,0,open,open,6.173108,1.813065,-251.4934,1.36438,1297.6,3,yes,yes,Q30,remote,1,1,0.967741935483871,0.927927927927928
83,Umplebys,-50,AllenSt,-90,-90,0,open,open,3.813514,-0.3408203,-167.9016,1.461792,1302.027,3,yes,yes,Q30,remote,1,1,0.967741935483871,0.927927927927928
84,neutral,0,BakerBerryHistoric2,90,-90,0,closed,closed,4.930722,0.5928748,18.43475,1.308594,1305.536,2,na,yes,Q30,remote,NaN,1,0.909090909090909,0.927927927927928
85,53Commons,0,53Commons,-90,-90,1,closed,closed,4.928842,-1.174408,-161.1624,1.016235,1308.098,1,yes,yes,Q30,remote,0.333333333333333,0.333333333333333,0.914893617021277,0.927927927927928
86,MooreLot,180,Hop4,-93,-90,0,open,open,4.861398,0.9828158,-172.1214,0.8912354,1310.673,3,yes,yes,Q30,remote,1,1,0.967741935483871,0.927927927927928
87,Hop2,-1,Umplebys,-140,-90,0,open,open,3.712538,0.9750832,-217.2677,0.9884033,1313.778,3,yes,yes,Q30,remote,1,1,0.967741935483871,0.927927927927928
88,53Commons,0,McLaughlinCluster,262,90,0,open,open,-5.244904,4.069534,347.6461,1.211304,1316.131,3,yes,yes,Q30,remote,0.333333333333333,1,0.967741935483871,0.927927927927928
89,RaunerBackHall,0,RaunerBackHall,-90,-90,1,closed,closed,7.681093,1.044351,-174.0934,1.044434,1321.157,1,yes,yes,Q30,remote,1,1,0.914893617021277,0.927927927927928
90,Fairbanks,0,Fairbanks,-90,-90,1,open,open,5.862529,0.5557428,-163.9706,0.8076172,1323.134,1,yes,yes,Q30,remote,0.666666666666667,0.666666666666667,0.914893617021277,0.927927927927928
91,Zimmerman,-100,Zimmerman,-190,-90,1,closed,closed,4.112623,-1.505035,-264.9625,0.904541,1325.222,1,yes,yes,Q30,remote,1,1,0.914893617021277,0.927927927927928
92,Hop2,-1,Hop2,89,90,1,open,open,-11.3588,3.541594,159.3559,0.9049072,1327.338,1,yes,yes,Q30,remote,1,1,0.914893617021277,0.927927927927928
95,neutral,0,PineEntrance,90,90,0,closed,closed,-7.832672,7.526746,168.4106,2.074097,1337.641,2,na,yes,Q30,remote,NaN,1,0.909090909090909,0.927927927927928
96,PineBackHall,180,PineBackHall,270,90,1,closed,closed,-8.654633,7.373678,350.6105,1.364502,1340.509,1,yes,yes,Q30,remote,1,1,0.914893617021277,0.927927927927928
97,Zimmerman,-100,Zimmerman,-190,-90,1,closed,closed,4.523205,0.9313497,-257.558,1.08606,1343.071,1,yes,yes,Q30,remote,1,1,0.914893617021277,0.927927927927928
98,RollinsChapel3,177,Maynard,90,90,0,closed,closed,-7.904694,5.878169,163.0766,1.58728,1346.356,3,yes,yes,Q30,remote,1,1,0.967741935483871,0.927927927927928
100,RollinsChapel3,177,RollinsChapel3,87,-90,1,open,open,1.23306,-0.7858582,19.57239,1.15564,1352.134,1,yes,yes,Q30,remote,1,1,0.914893617021277,0.927927927927928
101,neutral,0,RaunerFirst,90,90,0,open,open,-6.471497,3.174759,167.8967,1.322632,1354.904,2,na,yes,Q30,remote,NaN,1,0.909090909090909,0.927927927927928
102,neutral,0,Fairbanks,90,90,0,closed,closed,-6.386353,2.515069,169.9265,1.503662,1357.911,2,na,yes,Q30,remote,NaN,0.666666666666667,0.909090909090909,0.927927927927928
103,neutral,0,53Commons,90,90,0,open,open,-3.134186,-0.3884583,167.4862,1.796143,1361.406,2,na,yes,Q30,remote,NaN,0.333333333333333,0.909090909090909,0.927927927927928
104,BakerBerryCharter,-90,BakerBerryCharter,0,90,1,closed,closed,-2.870453,2.199289,73.59798,0.8632813,1366.655,1,yes,yes,Q30,remote,1,1,0.914893617021277,0.927927927927928
108,neutral,0,BakerBerry2nd,4,-90,0,closed,closed,2.25455,3.49457,-81.24316,0.9748535,1392.342,2,na,yes,Q30,remote,NaN,1,0.909090909090909,0.927927927927928
110,BakerBerry2nd,94,PineBackHall,90,-90,0,open,open,6.759623,-3.176392,-3.617188,0.9050293,1399.135,3,yes,yes,Q30,remote,1,1,0.967741935483871,0.927927927927928
111,neutral,0,Hop4,-93,-90,0,open,open,4.512776,0.6437017,-170.8116,1.169312,1401.683,2,na,yes,Q30,remote,NaN,1,0.909090909090909,0.927927927927928
112,MooreLot,180,MooreLot,270,90,1,open,open,-5.398926,4.376683,346.0526,1.08606,1403.994,1,yes,yes,Q30,remote,1,1,0.914893617021277,0.927927927927928
114,neutral,0,Maynard,90,90,0,closed,closed,-6.805389,2.372212,165.309,1.224976,1409.897,2,na,yes,Q30,remote,NaN,1,0.909090909090909,0.927927927927928
116,neutral,0,RaunerBackHall,90,90,0,open,open,-2.681488,6.376196,174.174,1.18335,1415.021,2,na,yes,Q30,remote,NaN,1,0.909090909090909,0.927927927927928
117,Fairbanks,0,BakerBerry2nd,4,-90,0,closed,closed,2.691217,-0.8807373,-76.31396,0.8771973,1417.318,3,yes,yes,Q30,remote,0.666666666666667,1,0.967741935483871,0.927927927927928
118,Umplebys,-50,Umplebys,40,90,1,closed,closed,-5.925446,2.104344,124.0513,1.127686,1419.685,1,yes,yes,Q30,remote,1,1,0.914893617021277,0.927927927927928
119,neutral,0,MooreLot,90,-90,0,closed,closed,4.399588,2.352212,12.40881,0.8074951,1421.662,2,na,yes,Q30,remote,NaN,1,0.909090909090909,0.927927927927928
120,Maynard,0,PineEntrance,90,90,0,closed,closed,-5.340454,3.436734,179.3524,1.044189,1423.931,3,yes,yes,Q30,remote,1,1,0.967741935483871,0.927927927927928
122,RaunerFirst,0,RaunerFirst,-90,-90,1,closed,closed,5.177172,1.752106,-162.5811,0.9884033,1430.029,1,yes,yes,Q30,remote,1,1,0.914893617021277,0.927927927927928
123,RaunerBackHall,0,RaunerBackHall,-90,-90,1,closed,closed,3.30722,-3.11911,-152.8912,1.100098,1432.897,1,yes,yes,Q30,remote,1,1,0.914893617021277,0.927927927927928
124,Hop4,-3,Hop4,87,90,1,closed,closed,-12.00674,5.611124,162.9739,2.213623,1436.531,1,yes,yes,Q30,remote,1,1,0.914893617021277,0.927927927927928
125,neutral,0,Hop2,-91,-90,0,closed,closed,10.52295,1.674151,-168.2403,1.225464,1439.106,2,na,yes,Q30,remote,NaN,1,0.909090909090909,0.927927927927928
126,RaunerFirst,0,BakerBerryHistoric2,90,-90,0,closed,closed,5.755988,6.222055,13.38306,1.266724,1441.71,3,yes,yes,Q30,remote,1,1,0.967741935483871,0.927927927927928
127,AllenSt,0,AllenSt,90,90,1,closed,closed,-5.787537,3.971112,176.3052,1.322754,1444.3,1,yes,yes,Q30,remote,1,1,0.914893617021277,0.927927927927928
130,neutral,0,AllenSt,-90,-90,0,open,open,6.076472,-1.023193,-170.5876,1.11377,1452.374,2,na,yes,Q30,remote,NaN,1,0.909090909090909,0.927927927927928
131,BakerBerry2nd,94,BakerBerry2nd,184,90,1,open,open,-7.067719,1.00166,257.9589,1.920776,1456.133,1,yes,yes,Q30,remote,1,1,0.914893617021277,0.927927927927928
132,Maynard,0,Maynard,-90,-90,1,open,open,6.863613,1.558596,-167.4879,0.9326172,1458.333,1,yes,yes,Q30,remote,1,1,0.914893617021277,0.927927927927928
133,McLaughlinCluster,172,53Commons,90,90,0,open,open,-7.343933,1.504863,169.966,1.364136,1461.062,3,yes,yes,Q30,remote,1,0.333333333333333,0.967741935483871,0.927927927927928
136,neutral,0,Umplebys,-140,-90,0,open,open,6.633276,1.786688,-208.5493,0.779541,1468.51,2,na,yes,Q30,remote,NaN,1,0.909090909090909,0.927927927927928
140,Hop2,-1,Hop2,89,90,1,open,open,-4.271423,-1.841339,174.224,2.018677,1483.365,1,yes,yes,Q30,remote,1,1,0.914893617021277,0.927927927927928
141,Fairbanks,0,Fairbanks,-90,-90,1,open,open,5.002153,-2.845947,-168.876,1.099731,1486.832,1,yes,yes,Q30,remote,0.666666666666667,0.666666666666667,0.914893617021277,0.927927927927928
143,Umplebys,-50,Umplebys,40,90,1,closed,closed,-13.72495,-1.093018,109.6872,1.08606,1491.983,1,yes,yes,Q30,remote,1,1,0.914893617021277,0.927927927927928
144,Zimmerman,-100,RaunerBackHall,90,90,0,open,open,-12.26801,3.739861,174.5776,1.099854,1494.587,3,yes,yes,Q30,remote,1,1,0.967741935483871,0.927927927927928
1,PineBackHall,180,MooreLot,270,90,0,open,open,-6.081238,2.836564,337.1743,1.291931,689.5549,3,yes,yes,Q22,remote,1,1,0.875,0.868852459016393
2,PineEntrance,0,PineEntrance,90,90,1,closed,closed,-5.826263,4.066499,158.2936,1.083313,699.3743,1,yes,yes,Q22,remote,1,1,0.857142857142857,0.868852459016393
3,Umplebys,-50,Umplebys,-140,-90,1,open,open,2.666471,2.186405,-215.801,1.001831,703.6821,1,yes,yes,Q22,remote,1,1,0.857142857142857,0.868852459016393
4,Hop2,-1,Hop2,-91,-90,1,closed,closed,3.540097,1.512708,-166.6186,1.000244,707.2913,1,yes,yes,Q22,remote,1,1,0.857142857142857,0.868852459016393
5,neutral,0,BakerBerryCharter,0,90,0,closed,closed,-4.725739,4.251248,64.99646,1.194641,711.7635,2,na,yes,Q22,remote,NaN,1,0.882352941176471,0.868852459016393
6,Hop2,-1,Hop2,-91,-90,1,closed,closed,3.373735,3.198602,-168.6603,1.013794,715.0133,1,yes,yes,Q22,remote,1,1,0.857142857142857,0.868852459016393
8,RaunerFirst,0,RaunerFirst,90,90,1,open,open,-8.834808,2.42753,155.7844,1.403015,724.75,1,yes,yes,Q22,remote,1,1,0.857142857142857,0.868852459016393
9,53Commons,0,53Commons,90,90,1,open,open,-5.079376,2.83258,158.1048,1.027893,732.0414,1,yes,yes,Q22,remote,1,1,0.857142857142857,0.868852459016393
11,neutral,0,Hop4,87,90,0,closed,closed,-2.412476,7.647943,157.1891,0.777832,740.5416,2,na,yes,Q22,remote,NaN,1,0.882352941176471,0.868852459016393
12,neutral,0,RaunerFirst,-90,-90,0,closed,closed,0.9822742,7.615445,-168.2146,1.041565,743.1528,2,na,yes,Q22,remote,NaN,1,0.882352941176471,0.868852459016393
13,Umplebys,-50,Umplebys,-140,-90,1,open,open,-1.808655,6.066295,-215.7592,0.8334351,746.3333,1,yes,yes,Q22,remote,1,1,0.857142857142857,0.868852459016393
14,BakerBerry2nd,94,BakerBerry2nd,4,-90,1,closed,closed,0.4488862,7.678982,-72.76614,0.930542,751.7777,1,yes,yes,Q22,remote,1,1,0.857142857142857,0.868852459016393
15,McLaughlinCluster,172,Maynard,-90,-90,0,open,open,0.1703766,7.234174,-165.3671,0.9998779,754.75,3,unsure,yes,Q22,remote,1,1,0.875,0.868852459016393
16,Hop2,-1,Hop4,87,90,0,closed,closed,-2.59259,8.571143,152.0452,0.9031982,758.056,3,yes,yes,Q22,remote,1,1,0.875,0.868852459016393
17,neutral,0,RaunerBackHall,-90,-90,0,closed,closed,0.8231795,9.588686,-165.7595,1.138855,761.0419,2,na,yes,Q22,remote,NaN,1,0.882352941176471,0.868852459016393
20,AllenSt,0,AllenSt,-90,-90,1,open,open,3.66036,4.849523,-162.9165,1.180786,775.9172,1,yes,yes,Q22,remote,1,1,0.857142857142857,0.868852459016393
21,Hop4,-3,BakerBerry2nd,184,90,0,open,open,-7.960724,9.657431,249.7749,1.069519,779.0699,3,yes,yes,Q22,remote,1,1,0.875,0.868852459016393
22,BakerBerry2nd,94,BakerBerryHistoric2,270,90,0,open,open,-3.537079,13.33726,336.0353,1.166809,782.4449,3,yes,yes,Q22,remote,1,1,0.875,0.868852459016393
23,Hop4,-3,Hop4,-93,-90,1,open,open,5.213472,10.00243,-167.5681,0.9028931,789.9313,1,yes,yes,Q22,remote,1,1,0.857142857142857,0.868852459016393
26,AllenSt,0,RaunerFirst,-90,-90,0,closed,closed,3.575454,9.888012,-166.9358,0.9303589,800.5563,3,yes,yes,Q22,remote,1,1,0.875,0.868852459016393
30,BakerBerryHistoric2,180,BakerBerryHistoric2,90,-90,1,closed,closed,-0.5314636,10.45726,12.47522,0.819397,813.9871,1,yes,yes,Q22,remote,1,1,0.857142857142857,0.868852459016393
31,PineBackHall,180,PineBackHall,90,-90,1,open,open,2.110485,11.15293,11.97638,0.8334351,817.4733,1,yes,yes,Q22,remote,1,1,0.857142857142857,0.868852459016393
33,BakerBerryCharter,-90,PineBackHall,270,90,0,closed,closed,-15.5329,9.029037,334.0049,0.972229,826.8763,3,yes,yes,Q22,remote,1,1,0.875,0.868852459016393
34,neutral,0,Fairbanks,-90,-90,0,open,open,0.1608651,10.47542,-166.7278,0.9445801,831.7373,2,na,yes,Q22,remote,NaN,1,0.882352941176471,0.868852459016393
35,neutral,0,Hop2,89,90,0,open,open,-17.72748,5.815252,156.7736,1.11145,847.2377,2,na,yes,Q22,remote,NaN,1,0.882352941176471,0.868852459016393
37,AllenSt,0,AllenSt,-90,-90,1,open,open,8.791751,2.790727,-161.7133,1.222534,854.0156,1,yes,yes,Q22,remote,1,1,0.857142857142857,0.868852459016393
38,Umplebys,-50,RaunerBackHall,-90,-90,0,closed,closed,4.668804,7.654465,-162.4275,0.8473511,856.3627,3,yes,yes,Q22,remote,1,1,0.875,0.868852459016393
39,Hop4,-3,Hop4,-93,-90,1,open,open,1.83186,9.496897,-162.6756,0.791687,858.2932,1,yes,yes,Q22,remote,1,1,0.857142857142857,0.868852459016393
40,McLaughlinCluster,172,McLaughlinCluster,262,90,1,open,open,-12.29962,11.53859,329.5005,1.541382,861.2375,1,unsure,unsure,Q22,remote,1,1,0.857142857142857,0.868852459016393
42,BakerBerryCharter,-90,BakerBerryCharter,-180,-90,1,open,open,2.600331,8.401688,-255.0904,0.7078857,866.2794,1,yes,yes,Q22,remote,1,1,0.857142857142857,0.868852459016393
43,neutral,0,RollinsChapel3,87,-90,0,open,open,1.720346,9.744685,15.45966,0.9584351,869.0017,2,na,yes,Q22,remote,NaN,1,0.882352941176471,0.868852459016393
44,BakerBerryHistoric2,180,BakerBerryHistoric2,90,-90,1,closed,closed,0.8843448,10.54529,16.49628,0.8053589,871.4047,1,yes,yes,Q22,remote,1,1,0.857142857142857,0.868852459016393
46,neutral,0,McLaughlinCluster,82,-90,0,closed,closed,2.251233,8.386639,10.11594,1.277893,877.3768,2,na,unsure,Q22,remote,NaN,1,0.882352941176471,0.868852459016393
47,RaunerFirst,0,PineEntrance,-90,-90,0,open,open,6.786119,7.069993,-167.1687,1.152893,880.8075,3,yes,yes,Q22,remote,1,1,0.875,0.868852459016393
49,MooreLot,180,MooreLot,90,-90,1,closed,closed,4.295411,7.120635,14.04977,0.708313,889.6966,1,yes,yes,Q22,remote,1,1,0.857142857142857,0.868852459016393
50,RaunerBackHall,0,RaunerBackHall,90,90,1,open,open,-8.964905,4.636443,155.493,0.652771,891.6826,1,yes,yes,Q22,remote,1,1,0.857142857142857,0.868852459016393
52,PineBackHall,180,PineBackHall,90,-90,1,open,open,2.6573,10.07692,12.20441,0.777771,896.1132,1,yes,yes,Q22,remote,1,1,0.857142857142857,0.868852459016393
54,Maynard,0,McLaughlinCluster,82,-90,0,closed,closed,2.27206,9.070287,9.182251,1.124817,901.1965,3,yes,unsure,Q22,remote,1,1,0.875,0.868852459016393
55,RaunerFirst,0,RaunerFirst,90,90,1,open,open,-11.35074,13.98263,155.7821,0.8196411,903.2939,1,yes,yes,Q22,remote,1,1,0.857142857142857,0.868852459016393
56,53Commons,0,53Commons,90,90,1,open,open,-6.659637,12.55706,155.7268,0.8475342,905.3358,1,yes,yes,Q22,remote,1,1,0.857142857142857,0.868852459016393
57,neutral,0,Umplebys,40,90,0,closed,closed,-6.962402,12.89724,106.0131,0.8608398,907.4744,2,na,yes,Q22,remote,NaN,1,0.882352941176471,0.868852459016393
58,neutral,0,PineEntrance,-90,-90,0,open,open,3.713882,12.61851,-168.062,0.861145,909.5857,2,na,yes,Q22,remote,NaN,1,0.882352941176471,0.868852459016393
59,RaunerBackHall,0,Hop2,89,90,0,open,open,-0.1568298,15.09608,157.1474,0.694458,911.4328,3,yes,yes,Q22,remote,1,1,0.875,0.868852459016393
60,MooreLot,180,MooreLot,90,-90,1,closed,closed,-0.5945435,12.95223,16.10999,0.930603,917.8082,1,yes,yes,Q22,remote,1,1,0.857142857142857,0.868852459016393
62,neutral,0,Maynard,-90,-90,0,open,open,7.203277,6.480017,-164.7308,1.402832,924.4192,2,na,yes,Q22,remote,NaN,1,0.882352941176471,0.868852459016393
63,neutral,0,PineBackHall,270,90,0,closed,closed,-13.42661,6.135636,332.06,0.999939,928.4748,2,na,yes,Q22,remote,NaN,1,0.882352941176471,0.868852459016393
64,neutral,0,BakerBerryHistoric2,270,90,0,open,open,-18.06683,3.402648,336.6435,1.111511,931.0864,2,na,yes,Q22,remote,NaN,1,0.882352941176471,0.868852459016393
65,BakerBerry2nd,94,BakerBerry2nd,4,-90,1,closed,closed,9.584703,6.94633,-69.8978,1.027954,933.4888,1,yes,yes,Q22,remote,1,1,0.857142857142857,0.868852459016393
66,BakerBerryHistoric2,180,RollinsChapel3,87,-90,0,open,open,5.948703,2.703184,15.77557,1.388916,936.1279,3,yes,yes,Q22,remote,1,1,0.875,0.868852459016393
69,neutral,0,MooreLot,270,90,0,open,open,-11.30075,9.055457,331.2215,1.291504,950.0723,2,na,yes,Q22,remote,NaN,1,0.882352941176471,0.868852459016393
71,neutral,0,BakerBerry2nd,184,90,0,open,open,-14.68423,4.184954,245.5173,1.791992,969.2395,2,na,yes,Q22,remote,NaN,1,0.882352941176471,0.868852459016393
72,PineEntrance,0,AllenSt,90,90,0,closed,closed,-14.418,8.883874,151.0472,1.68042,972.7255,3,yes,yes,Q22,remote,1,1,0.875,0.868852459016393
74,AllenSt,0,Zimmerman,-10,90,0,open,open,-13.3826,9.330233,52.3825,1.06958,978.1838,3,yes,yes,Q22,remote,1,0.666666666666667,0.875,0.868852459016393
76,BakerBerryHistoric2,180,RaunerFirst,90,90,0,open,open,-11.64792,13.18519,151.1789,1.152954,983.0172,3,yes,yes,Q22,remote,1,1,0.875,0.868852459016393
77,neutral,0,BakerBerryCharter,-180,-90,0,open,open,10.37384,14.65543,-252.0993,0.9302368,985.5311,2,na,yes,Q22,remote,NaN,1,0.882352941176471,0.868852459016393
79,McLaughlinCluster,172,McLaughlinCluster,82,-90,1,closed,closed,7.159368,12.12067,11.83054,1.29187,993.0314,1,unsure,unsure,Q22,remote,1,1,0.857142857142857,0.868852459016393
80,Maynard,0,Maynard,-90,-90,1,open,open,7.999599,10.08642,-162.1549,1.138977,995.8369,1,yes,yes,Q22,remote,1,1,0.857142857142857,0.868852459016393
81,neutral,0,RollinsChapel3,267,90,0,closed,closed,-10.00348,18.06578,327.6348,1.194458,998.3372,2,na,yes,Q22,remote,NaN,1,0.882352941176471,0.868852459016393
82,PineEntrance,0,BakerBerryCharter,-180,-90,0,open,open,6.727625,17.69814,-253.3878,0.972229,1001.934,3,yes,yes,Q22,remote,1,1,0.875,0.868852459016393
83,Umplebys,-50,AllenSt,-90,-90,0,open,open,6.484052,11.62692,-163.0618,1.013916,1004.281,3,yes,yes,Q22,remote,1,1,0.875,0.868852459016393
84,neutral,0,BakerBerryHistoric2,90,-90,0,closed,closed,7.740885,11.3223,18.7016,0.97229,1006.573,2,na,yes,Q22,remote,NaN,1,0.882352941176471,0.868852459016393
86,MooreLot,180,Hop4,-93,-90,0,open,open,5.90833,11.87279,-163.9348,0.9030151,1010.934,3,yes,yes,Q22,remote,1,1,0.875,0.868852459016393
87,Hop2,-1,Umplebys,-140,-90,0,open,open,3.860017,13.51521,-212.9615,1.069763,1013.143,3,yes,yes,Q22,remote,1,1,0.875,0.868852459016393
88,53Commons,0,McLaughlinCluster,262,90,0,open,open,-9.414032,16.59253,326.1777,1.402954,1015.712,3,yes,unsure,Q22,remote,1,1,0.875,0.868852459016393
89,RaunerBackHall,0,RaunerBackHall,-90,-90,1,closed,closed,7.506437,13.9036,-162.8931,0.916748,1017.782,1,yes,yes,Q22,remote,1,1,0.857142857142857,0.868852459016393
90,Fairbanks,0,Fairbanks,-90,-90,1,open,open,7.02151,14.47645,-164.4569,0.8742676,1019.935,1,yes,yes,Q22,remote,1,1,0.857142857142857,0.868852459016393
92,Hop2,-1,Hop2,89,90,1,open,open,-12.54572,5.887119,153.0106,0.90271,1025.087,1,yes,yes,Q22,remote,1,1,0.857142857142857,0.868852459016393
95,neutral,0,PineEntrance,90,90,0,closed,closed,-17.42758,10.33989,151.4284,1.083252,1031.949,2,na,yes,Q22,remote,NaN,1,0.882352941176471,0.868852459016393
96,PineBackHall,180,PineBackHall,270,90,1,closed,closed,-10.59512,13.02205,328.245,0.8891602,1033.949,1,yes,yes,Q22,remote,1,1,0.857142857142857,0.868852459016393
98,RollinsChapel3,177,Maynard,90,90,0,closed,closed,-9.465546,16.77632,147.7406,1.319702,1038.338,3,yes,yes,Q22,remote,1,1,0.875,0.868852459016393
99,MooreLot,180,MooreLot,270,90,1,open,open,-8.443237,13.77023,327.9158,1.403076,1040.81,1,yes,yes,Q22,remote,1,1,0.857142857142857,0.868852459016393
100,RollinsChapel3,177,RollinsChapel3,87,-90,1,open,open,8.596463,12.27386,21.55731,0.8892822,1042.893,1,yes,yes,Q22,remote,1,1,0.857142857142857,0.868852459016393
103,neutral,0,53Commons,90,90,0,open,open,-13.23563,11.5342,150.5717,0.9299316,1051.616,2,na,yes,Q22,remote,NaN,1,0.882352941176471,0.868852459016393
104,BakerBerryCharter,-90,BakerBerryCharter,0,90,1,closed,closed,-8.514709,7.856769,55.04505,0.8334961,1053.671,1,yes,yes,Q22,remote,1,1,0.857142857142857,0.868852459016393
105,PineEntrance,0,PineEntrance,-90,-90,1,open,open,7.777584,12.37463,-166.5488,0.8195801,1055.852,1,yes,yes,Q22,remote,1,1,0.857142857142857,0.868852459016393
106,BakerBerryHistoric2,180,BakerBerryHistoric2,270,90,1,open,open,-9.211609,11.79302,328.7507,0.6943359,1060.463,1,yes,yes,Q22,remote,1,1,0.857142857142857,0.868852459016393
107,neutral,0,Zimmerman,-10,90,0,open,open,-13.48987,7.740871,54.84408,0.8056641,1071.213,2,na,yes,Q22,remote,NaN,0.666666666666667,0.882352941176471,0.868852459016393
108,neutral,0,BakerBerry2nd,4,-90,0,closed,closed,7.260138,5.985452,-67.08441,1,1073.324,2,na,yes,Q22,remote,NaN,1,0.882352941176471,0.868852459016393
111,neutral,0,Hop4,-93,-90,0,open,open,5.65675,9.009589,-166.6128,0.819458,1082.032,2,na,yes,Q22,remote,NaN,1,0.882352941176471,0.868852459016393
112,MooreLot,180,MooreLot,270,90,1,open,open,-11.16074,15.36221,328.3916,0.8751221,1084.019,1,yes,yes,Q22,remote,1,1,0.857142857142857,0.868852459016393
113,neutral,0,PineBackHall,90,-90,0,open,open,6.076972,13.53204,12.95831,0.9724121,1086.311,2,na,yes,Q22,remote,NaN,1,0.882352941176471,0.868852459016393
114,neutral,0,Maynard,90,90,0,closed,closed,-8.586761,12.90682,150.6234,0.9447021,1088.477,2,na,yes,Q22,remote,NaN,1,0.882352941176471,0.868852459016393
115,BakerBerryCharter,-90,MooreLot,90,-90,0,closed,closed,6.083921,14.39383,16.0072,0.9725342,1090.588,3,yes,yes,Q22,remote,1,1,0.875,0.868852459016393
116,neutral,0,RaunerBackHall,90,90,0,open,open,-6.348175,13.58147,150.9528,0.8197021,1092.477,2,na,yes,Q22,remote,NaN,1,0.882352941176471,0.868852459016393
117,Fairbanks,0,BakerBerry2nd,4,-90,0,closed,closed,5.049213,12.95979,-71.79459,0.9447021,1094.547,3,yes,yes,Q22,remote,1,1,0.875,0.868852459016393
118,Umplebys,-50,Umplebys,40,90,1,closed,closed,-7.167572,11.53818,99.96078,0.7640381,1096.394,1,yes,yes,Q22,remote,1,1,0.857142857142857,0.868852459016393
119,neutral,0,MooreLot,90,-90,0,closed,closed,6.602812,10.84845,20.65134,1.111206,1098.561,2,na,yes,Q22,remote,NaN,1,0.882352941176471,0.868852459016393
120,Maynard,0,PineEntrance,90,90,0,closed,closed,-11.13315,12.29814,149.401,0.9304199,1100.574,3,yes,yes,Q22,remote,1,1,0.875,0.868852459016393
123,RaunerBackHall,0,RaunerBackHall,-90,-90,1,closed,closed,2.728153,11.03627,-160.1182,0.916748,1108.561,1,yes,yes,Q22,remote,1,1,0.857142857142857,0.868852459016393
125,neutral,0,Hop2,-91,-90,0,closed,closed,9.796006,12.77577,-158.0648,0.9029541,1112.839,2,na,yes,Q22,remote,NaN,1,0.882352941176471,0.868852459016393
126,RaunerFirst,0,BakerBerryHistoric2,90,-90,0,closed,closed,3.408475,11.90435,23.51135,1.208618,1115.367,3,yes,yes,Q22,remote,1,1,0.875,0.868852459016393
127,AllenSt,0,AllenSt,90,90,1,closed,closed,-6.723114,9.487453,145.9856,0.930542,1117.547,1,yes,yes,Q22,remote,1,1,0.857142857142857,0.868852459016393
129,BakerBerryHistoric2,180,BakerBerryHistoric2,270,90,1,open,open,-11.38541,14.58765,325.5582,0.8612061,1121.547,1,yes,yes,Q22,remote,1,1,0.857142857142857,0.868852459016393
130,neutral,0,AllenSt,-90,-90,0,open,open,10.47583,7.533652,-157.3779,0.9584961,1124.228,2,na,yes,Q22,remote,NaN,1,0.882352941176471,0.868852459016393
131,BakerBerry2nd,94,BakerBerry2nd,184,90,1,open,open,-7.683472,13.24964,244.6443,0.888916,1126.408,1,yes,yes,Q22,remote,1,1,0.857142857142857,0.868852459016393
132,Maynard,0,Maynard,-90,-90,1,open,open,9.692991,9.86615,-165.4737,0.972168,1128.478,1,yes,yes,Q22,remote,1,1,0.857142857142857,0.868852459016393
133,McLaughlinCluster,172,53Commons,90,90,0,open,open,-11.41199,8.98982,153.6992,0.8612061,1130.589,3,unsure,yes,Q22,remote,1,1,0.875,0.868852459016393
135,PineBackHall,180,PineBackHall,270,90,1,closed,closed,-11.36215,6.423982,326.6532,0.7642822,1134.784,1,yes,yes,Q22,remote,1,1,0.857142857142857,0.868852459016393
136,neutral,0,Umplebys,-140,-90,0,open,open,5.698306,6.898918,-207.939,0.8751221,1136.825,2,na,yes,Q22,remote,NaN,1,0.882352941176471,0.868852459016393
138,RaunerBackHall,0,Hop2,-91,-90,0,closed,closed,10.32885,6.243096,-163.2465,1.083496,1141.77,3,yes,yes,Q22,remote,1,1,0.875,0.868852459016393
139,RollinsChapel3,177,RollinsChapel3,87,-90,1,open,open,7.647945,6.289206,20.2417,1.013672,1144.45,1,yes,yes,Q22,remote,1,1,0.857142857142857,0.868852459016393
140,Hop2,-1,Hop2,89,90,1,open,open,-12.98511,6.379731,143.5511,0.9858398,1146.658,1,yes,yes,Q22,remote,1,1,0.857142857142857,0.868852459016393
141,Fairbanks,0,Fairbanks,-90,-90,1,open,open,9.46512,3.315709,-162.2746,0.8051758,1148.978,1,yes,yes,Q22,remote,1,1,0.857142857142857,0.868852459016393
142,RaunerFirst,0,RaunerFirst,-90,-90,1,closed,closed,10.60008,4.358566,-154.4922,0.986084,1151.27,1,yes,yes,Q22,remote,1,1,0.857142857142857,0.868852459016393
143,Umplebys,-50,Umplebys,40,90,1,closed,closed,-15.68594,1.714095,94.66148,0.8890381,1153.52,1,yes,yes,Q22,remote,1,1,0.857142857142857,0.868852459016393
144,Zimmerman,-100,RaunerBackHall,90,90,0,open,open,-10.5563,8.419383,149.6569,0.9030762,1155.687,3,yes,yes,Q22,remote,0.666666666666667,1,0.875,0.868852459016393
2,PineEntrance,0,PineEntrance,90,90,1,closed,closed,-0.2698975,14.43944,181.5696,1.433716,705.6811,1,yes,yes,Q27,remote,1,1,0.901960784313726,0.857142857142857
4,Hop2,-1,Hop2,-91,-90,1,closed,closed,-2.63562,4.281591,-173.5678,1.294922,716.9305,1,yes,yes,Q27,remote,1,1,0.901960784313726,0.857142857142857
5,neutral,0,BakerBerryCharter,0,90,0,closed,closed,-1.315918,1.953597,93.09775,1.19751,719.9516,2,na,yes,Q27,remote,NaN,1,0.866666666666667,0.857142857142857
6,Hop2,-1,Hop2,-91,-90,1,closed,closed,-2.3862,0.2845545,-168.8832,1.183472,724.3789,1,yes,yes,Q27,remote,1,1,0.901960784313726,0.857142857142857
8,RaunerFirst,0,RaunerFirst,90,90,1,open,open,-2.53598,2.869438,174.0674,2.102234,733.8321,1,yes,yes,Q27,remote,1,1,0.901960784313726,0.857142857142857
9,53Commons,0,53Commons,90,90,1,open,open,0.5087107,2.745123,179.6347,1.127319,737.4239,1,yes,yes,Q27,remote,1,1,0.901960784313726,0.857142857142857
10,RollinsChapel3,177,RollinsChapel3,267,90,1,closed,closed,0.6462971,6.587302,362.6061,1.322632,741.0718,1,yes,yes,Q27,remote,1,1,0.901960784313726,0.857142857142857
11,neutral,0,Hop4,87,90,0,closed,closed,-1.233398,4.651152,184.2778,1.211548,744.8308,2,na,yes,Q27,remote,NaN,1,0.866666666666667,0.857142857142857
12,neutral,0,RaunerFirst,-90,-90,0,closed,closed,-3.398468,3.99746,-185.8446,1.19751,748.0746,2,na,yes,Q27,remote,NaN,1,0.866666666666667,0.857142857142857
13,Umplebys,-50,Umplebys,-140,-90,1,open,open,-4.104797,2.29537,-228.3396,1.434082,755.6066,1,yes,yes,Q27,remote,1,1,0.901960784313726,0.857142857142857
14,BakerBerry2nd,94,BakerBerry2nd,4,-90,1,closed,closed,-3.277283,0.1161495,-87.35367,1.754089,759.2819,1,yes,yes,Q27,remote,1,1,0.901960784313726,0.857142857142857
16,Hop2,-1,Hop4,87,90,0,closed,closed,-1.29306,3.082022,174.4025,1.392456,766.0762,3,yes,yes,Q27,remote,1,1,0.774193548387097,0.857142857142857
17,neutral,0,RaunerBackHall,-90,-90,0,closed,closed,-2.766327,2.103087,-179.2363,1.05719,769.0833,2,na,yes,Q27,remote,NaN,1,0.866666666666667,0.857142857142857
18,53Commons,0,Fairbanks,-90,-90,0,open,open,-1.942657,-2.456146,-172.8395,1.211182,771.7704,3,yes,yes,Q27,remote,1,1,0.774193548387097,0.857142857142857
19,Maynard,0,Maynard,90,90,1,closed,closed,-0.4924011,1.661858,179.8975,1.15564,774.2346,1,yes,yes,Q27,remote,1,1,0.901960784313726,0.857142857142857
20,AllenSt,0,AllenSt,-90,-90,1,open,open,-4.347992,-0.5683289,-181.2957,1.448059,777.1027,1,yes,yes,Q27,remote,1,1,0.901960784313726,0.857142857142857
21,Hop4,-3,BakerBerry2nd,184,90,0,open,open,-2.247803,2.209774,270.9896,1.461853,780.4022,3,yes,yes,Q27,remote,1,1,0.774193548387097,0.857142857142857
22,BakerBerry2nd,94,BakerBerryHistoric2,270,90,0,open,open,-0.3279724,10.81694,369.0984,1.670471,783.3257,3,yes,yes,Q27,remote,1,1,0.774193548387097,0.857142857142857
23,Hop4,-3,Hop4,-93,-90,1,open,open,-3.298676,3.283759,-179.3473,1.462036,786.4307,1,yes,yes,Q27,remote,1,1,0.901960784313726,0.857142857142857
26,AllenSt,0,RaunerFirst,-90,-90,0,closed,closed,-3.096252,0.2978944,-171.2656,1.197388,795.2155,3,yes,yes,Q27,remote,1,1,0.774193548387097,0.857142857142857
28,Maynard,0,Maynard,90,90,1,closed,closed,-1.114166,1.771736,180.6344,1.378418,800.9932,1,yes,yes,Q27,remote,1,1,0.901960784313726,0.857142857142857
29,neutral,0,AllenSt,90,90,0,closed,closed,-0.6209106,9.108889,182.645,1.253052,803.6525,2,na,yes,Q27,remote,NaN,1,0.866666666666667,0.857142857142857
30,BakerBerryHistoric2,180,BakerBerryHistoric2,90,-90,1,closed,closed,-2.995575,4.933519,-3.576599,1.447327,807.5645,1,yes,yes,Q27,remote,1,1,0.901960784313726,0.857142857142857
32,RaunerBackHall,0,RaunerBackHall,90,90,1,open,open,-2.13327,4.375779,179.5449,1.336792,813.621,1,yes,yes,Q27,remote,1,1,0.901960784313726,0.857142857142857
33,BakerBerryCharter,-90,PineBackHall,270,90,0,closed,closed,-2.072388,2.884552,358.5833,1.656982,816.6977,3,yes,yes,Q27,remote,1,1,0.774193548387097,0.857142857142857
34,neutral,0,Fairbanks,-90,-90,0,open,open,0.2757506,0.2445203,-179.8718,1.016602,818.9949,2,na,yes,Q27,remote,NaN,1,0.866666666666667,0.857142857142857
35,neutral,0,Hop2,89,90,0,open,open,-1.80545,2.61938,176.7831,1.295349,834.1846,2,na,yes,Q27,remote,NaN,1,0.866666666666667,0.857142857142857
36,Zimmerman,-100,Umplebys,40,90,0,closed,closed,0.06373721,7.955711,135.0716,1.183472,836.5646,3,yes,yes,Q27,remote,1,1,0.774193548387097,0.857142857142857
37,AllenSt,0,AllenSt,-90,-90,1,open,open,-4.852692,0.1811446,-172.3447,0.9188843,838.5278,1,yes,yes,Q27,remote,1,1,0.901960784313726,0.857142857142857
38,Umplebys,-50,RaunerBackHall,-90,-90,0,closed,closed,-4.597931,5.871545,-174.8733,0.8353882,842.0501,3,yes,yes,Q27,remote,1,1,0.774193548387097,0.857142857142857
40,McLaughlinCluster,172,McLaughlinCluster,262,90,1,open,open,0.6247815,6.625288,357.664,0.9187622,851.3222,1,yes,yes,Q27,remote,1,1,0.901960784313726,0.857142857142857
41,Zimmerman,-100,Zimmerman,-10,90,1,open,open,-0.3955994,8.711529,75.20309,0.9330444,853.8423,1,yes,yes,Q27,remote,1,1,0.901960784313726,0.857142857142857
43,neutral,0,RollinsChapel3,87,-90,0,open,open,-5.738495,3.491311,14.57007,1.336426,859.1049,2,na,yes,Q27,remote,NaN,1,0.866666666666667,0.857142857142857
48,Zimmerman,-100,Zimmerman,-10,90,1,open,open,-2.884857,4.923436,62.80389,1.210999,872.8322,1,yes,yes,Q27,remote,1,1,0.901960784313726,0.857142857142857
49,MooreLot,180,MooreLot,90,-90,1,closed,closed,-8.300476,2.535408,15.3334,0.9190063,875.0879,1,yes,yes,Q27,remote,1,1,0.901960784313726,0.857142857142857
50,RaunerBackHall,0,RaunerBackHall,90,90,1,open,open,-3.463593,6.892721,165.7924,1.141724,877.566,1,yes,yes,Q27,remote,1,1,0.901960784313726,0.857142857142857
52,PineBackHall,180,PineBackHall,90,-90,1,open,open,-9.968597,35.59317,-14.41852,1.893188,885.6128,1,yes,yes,Q27,remote,1,1,0.901960784313726,0.857142857142857
55,RaunerFirst,0,RaunerFirst,90,90,1,open,open,-1.208862,7.894456,168.6927,1.030518,896.4447,1,yes,yes,Q27,remote,1,1,0.901960784313726,0.857142857142857
56,53Commons,0,53Commons,90,90,1,open,open,-1.516113,7.501706,161.4952,0.8218384,898.5748,1,yes,yes,Q27,remote,1,1,0.901960784313726,0.857142857142857
57,neutral,0,Umplebys,40,90,0,closed,closed,-2.732574,8.655661,112.1159,0.9188232,900.8717,2,na,yes,Q27,remote,NaN,1,0.866666666666667,0.857142857142857
59,RaunerBackHall,0,Hop2,89,90,0,open,open,-3.565338,8.219843,163.9817,1.503357,906.2457,3,yes,yes,Q27,remote,1,1,0.774193548387097,0.857142857142857
60,MooreLot,180,MooreLot,90,-90,1,closed,closed,-6.718506,0.949827,21.29117,1.433899,909.0024,1,yes,yes,Q27,remote,1,1,0.901960784313726,0.857142857142857
62,neutral,0,Maynard,-90,-90,0,open,open,-3.004669,-0.01702881,-162.6781,1.573181,914.8497,2,na,yes,Q27,remote,NaN,1,0.866666666666667,0.857142857142857
63,neutral,0,PineBackHall,270,90,0,closed,closed,-2.72876,6.735084,344.3312,1.044495,917.342,2,na,yes,Q27,remote,NaN,1,0.866666666666667,0.857142857142857
65,BakerBerry2nd,94,BakerBerry2nd,4,-90,1,closed,closed,-4.598877,1.284043,-65.13354,1.183533,922.7437,1,yes,yes,Q27,remote,1,1,0.901960784313726,0.857142857142857
66,BakerBerryHistoric2,180,RollinsChapel3,87,-90,0,open,open,-7.01123,1.282019,20.80872,1.392395,925.3334,3,yes,yes,Q27,remote,1,1,0.774193548387097,0.857142857142857
67,PineEntrance,0,PineEntrance,90,90,1,closed,closed,-1.115295,11.97216,160.3143,0.8355103,929.1064,1,yes,yes,Q27,remote,1,1,0.901960784313726,0.857142857142857
69,neutral,0,MooreLot,270,90,0,open,open,-3.498199,6.375172,340.0607,0.8349609,935.2601,2,na,yes,Q27,remote,NaN,1,0.866666666666667,0.857142857142857
71,neutral,0,BakerBerry2nd,184,90,0,open,open,-0.1784973,11.92672,268.2859,1.350586,1006.104,2,na,yes,Q27,remote,NaN,1,0.866666666666667,0.857142857142857
72,PineEntrance,0,AllenSt,90,90,0,closed,closed,-1.768005,5.248464,170.3855,1.68457,1011.395,3,yes,yes,Q27,remote,1,1,0.774193548387097,0.857142857142857
74,AllenSt,0,Zimmerman,-10,90,0,open,open,-1.515259,5.215645,72.75153,1.002258,1016.699,3,yes,yes,Q27,remote,1,1,0.774193548387097,0.857142857142857
76,BakerBerryHistoric2,180,RaunerFirst,90,90,0,open,open,-2.409119,8.931217,154.6961,0.9883423,1021.628,3,yes,yes,Q27,remote,1,1,0.774193548387097,0.857142857142857
81,neutral,0,RollinsChapel3,267,90,0,closed,closed,-3.081604,10.75274,346.6702,0.8771973,1034.659,2,na,yes,Q27,remote,NaN,1,0.866666666666667,0.857142857142857
82,PineEntrance,0,BakerBerryCharter,-180,-90,0,open,open,-6.262421,6.936952,-277.4589,0.9188232,1037.429,3,yes,yes,Q27,remote,1,1,0.774193548387097,0.857142857142857
84,neutral,0,BakerBerryHistoric2,90,-90,0,closed,closed,-5.963684,3.519839,22.00085,0.9467773,1042.219,2,na,yes,Q27,remote,NaN,1,0.866666666666667,0.857142857142857
86,MooreLot,180,Hop4,-93,-90,0,open,open,-6.00116,3.873373,-158.3524,0.8908691,1046.576,3,yes,yes,Q27,remote,1,1,0.774193548387097,0.857142857142857
87,Hop2,-1,Umplebys,-140,-90,0,open,open,-6.537201,0.9487114,-215.3833,1.002686,1048.721,3,yes,yes,Q27,remote,1,1,0.774193548387097,0.857142857142857
88,53Commons,0,McLaughlinCluster,262,90,0,open,open,-4.957184,12.23736,321.7688,1.1698,1051.213,3,yes,yes,Q27,remote,1,1,0.774193548387097,0.857142857142857
89,RaunerBackHall,0,RaunerBackHall,-90,-90,1,closed,closed,-4.663818,1.195393,-163.0486,1.085815,1053.802,1,yes,yes,Q27,remote,1,1,0.901960784313726,0.857142857142857
90,Fairbanks,0,Fairbanks,-90,-90,1,open,open,-6.010132,-0.6132813,-158.8876,0.7797852,1056.03,1,yes,yes,Q27,remote,1,1,0.901960784313726,0.857142857142857
92,Hop2,-1,Hop2,89,90,1,open,open,-3.785645,7.522532,153.7692,0.9885254,1060.582,1,yes,yes,Q27,remote,1,1,0.901960784313726,0.857142857142857
96,PineBackHall,180,PineBackHall,270,90,1,closed,closed,-3.151611,6.736569,350.2781,0.9747314,1074.003,1,yes,yes,Q27,remote,1,1,0.901960784313726,0.857142857142857
98,RollinsChapel3,177,Maynard,90,90,0,closed,closed,-0.6836548,5.686865,161.7357,1.364624,1088.009,3,yes,yes,Q27,remote,1,1,0.774193548387097,0.857142857142857
100,RollinsChapel3,177,RollinsChapel3,87,-90,1,open,open,-10.21533,2.003464,18.32977,0.7241211,1096.098,1,yes,yes,Q27,remote,1,1,0.901960784313726,0.857142857142857
101,neutral,0,RaunerFirst,90,90,0,open,open,-2.216888,3.392995,152.4214,1.099854,1098.854,2,na,yes,Q27,remote,NaN,1,0.866666666666667,0.857142857142857
103,neutral,0,53Commons,90,90,0,open,open,-5.10968,6.98864,162.3493,1.044312,1103.491,2,na,yes,Q27,remote,NaN,1,0.866666666666667,0.857142857142857
104,BakerBerryCharter,-90,BakerBerryCharter,0,90,1,closed,closed,-2.549011,5.096289,68.19362,0.7382813,1105.663,1,yes,yes,Q27,remote,1,1,0.901960784313726,0.857142857142857
106,BakerBerryHistoric2,180,BakerBerryHistoric2,270,90,1,open,open,-1.120331,10.58773,337.2687,0.8771973,1110.689,1,yes,yes,Q27,remote,1,1,0.901960784313726,0.857142857142857
107,neutral,0,Zimmerman,-10,90,0,open,open,-2.163635,4.039487,69.35158,0.9051514,1122.453,2,na,yes,Q27,remote,NaN,1,0.866666666666667,0.857142857142857
110,BakerBerry2nd,94,PineBackHall,90,-90,0,open,open,-4.594086,5.479442,-6.576416,1.656738,1131.516,3,yes,yes,Q27,remote,1,1,0.774193548387097,0.857142857142857
111,neutral,0,Hop4,-93,-90,0,open,open,-4.607574,1.283475,-169.3631,1.37793,1135.568,2,na,yes,Q27,remote,NaN,1,0.866666666666667,0.857142857142857
112,MooreLot,180,MooreLot,270,90,1,open,open,0.5953333,8.677925,340.5318,1.22522,1137.726,1,yes,yes,Q27,remote,1,1,0.901960784313726,0.857142857142857
113,neutral,0,PineBackHall,90,-90,0,open,open,-6.384338,8.914445,18.49261,1.044067,1139.898,2,na,yes,Q27,remote,NaN,1,0.866666666666667,0.857142857142857
114,neutral,0,Maynard,90,90,0,closed,closed,-3.465546,7.998471,160.2343,1.11377,1142.181,2,na,yes,Q27,remote,NaN,1,0.866666666666667,0.857142857142857
116,neutral,0,RaunerBackHall,90,90,0,open,open,-1.147278,11.13124,161.3838,1.099976,1147.471,2,na,yes,Q27,remote,NaN,1,0.866666666666667,0.857142857142857
117,Fairbanks,0,BakerBerry2nd,4,-90,0,closed,closed,-7.016876,1.351749,-68.97345,1.322266,1150.089,3,yes,yes,Q27,remote,1,1,0.774193548387097,0.857142857142857
118,Umplebys,-50,Umplebys,40,90,1,closed,closed,-0.9668884,10.4948,109.2738,0.9329834,1152.288,1,yes,yes,Q27,remote,1,1,0.901960784313726,0.857142857142857
119,neutral,0,MooreLot,90,-90,0,closed,closed,-6.615295,7.514679,14.53638,1.030029,1154.516,2,na,yes,Q27,remote,NaN,1,0.866666666666667,0.857142857142857
120,Maynard,0,PineEntrance,90,90,0,closed,closed,-1.222717,8.285168,149.1955,0.9743652,1156.744,3,yes,yes,Q27,remote,1,1,0.774193548387097,0.857142857142857
122,RaunerFirst,0,RaunerFirst,-90,-90,1,closed,closed,-6.938721,4.754552,-163.5409,1.19751,1161.63,1,yes,yes,Q27,remote,1,1,0.901960784313726,0.857142857142857
123,RaunerBackHall,0,RaunerBackHall,-90,-90,1,closed,closed,-4.592743,3.421818,-171.6592,1.531616,1164.484,1,yes,yes,Q27,remote,1,1,0.901960784313726,0.857142857142857
124,Hop4,-3,Hop4,87,90,1,closed,closed,0.1016331,12.11856,154.3776,1.322632,1167.116,1,yes,yes,Q27,remote,1,1,0.901960784313726,0.857142857142857
125,neutral,0,Hop2,-91,-90,0,closed,closed,-6.229645,2.431508,-161.9275,1.782104,1170.248,2,na,yes,Q27,remote,NaN,1,0.866666666666667,0.857142857142857
127,AllenSt,0,AllenSt,90,90,1,closed,closed,-6.975677,8.274111,152.8969,1.489746,1175.761,1,yes,yes,Q27,remote,1,1,0.901960784313726,0.857142857142857
128,Hop4,-3,Hop4,87,90,1,closed,closed,-4.24826,7.416512,151.3903,1.11377,1178.17,1,yes,yes,Q27,remote,1,1,0.901960784313726,0.857142857142857
129,BakerBerryHistoric2,180,BakerBerryHistoric2,270,90,1,open,open,-4.01709,11.50902,338.8435,1.322876,1180.843,1,yes,yes,Q27,remote,1,1,0.901960784313726,0.857142857142857
130,neutral,0,AllenSt,-90,-90,0,open,open,-4.56601,3.00391,-162.6605,1.503784,1183.474,2,na,yes,Q27,remote,NaN,1,0.866666666666667,0.857142857142857
131,BakerBerry2nd,94,BakerBerry2nd,184,90,1,open,open,-1.356659,6.747653,248.8109,1.002563,1185.925,1,yes,yes,Q27,remote,1,1,0.901960784313726,0.857142857142857
133,McLaughlinCluster,172,53Commons,90,90,0,open,open,-2.024567,9.353734,162.6151,1.127686,1190.268,3,yes,yes,Q27,remote,1,1,0.774193548387097,0.857142857142857
135,PineBackHall,180,PineBackHall,270,90,1,closed,closed,-5.226013,9.073983,339.9443,1.183228,1195.169,1,yes,yes,Q27,remote,1,1,0.901960784313726,0.857142857142857
136,neutral,0,Umplebys,-140,-90,0,open,open,-4.672516,1.638623,-211.0043,1.030273,1197.633,2,na,yes,Q27,remote,NaN,1,0.866666666666667,0.857142857142857
138,RaunerBackHall,0,Hop2,-91,-90,0,closed,closed,-6.110535,2.754623,-161.5438,1.211304,1203.369,3,yes,yes,Q27,remote,1,1,0.774193548387097,0.857142857142857
139,RollinsChapel3,177,RollinsChapel3,87,-90,1,open,open,-8.995514,2.753097,20.50467,1.684692,1206.224,1,yes,yes,Q27,remote,1,1,0.901960784313726,0.857142857142857
140,Hop2,-1,Hop2,89,90,1,open,open,-3.722565,4.888359,151.641,1.44812,1208.897,1,yes,yes,Q27,remote,1,1,0.901960784313726,0.857142857142857
141,Fairbanks,0,Fairbanks,-90,-90,1,open,open,-4.207703,1.039316,-168.7307,1.043945,1210.859,1,yes,yes,Q27,remote,1,1,0.901960784313726,0.857142857142857
144,Zimmerman,-100,RaunerBackHall,90,90,0,open,open,-4.111664,3.762643,160.2177,1.294556,1220.271,3,yes,yes,Q27,remote,1,1,0.774193548387097,0.857142857142857
2,PineEntrance,0,PineEntrance,90,90,1,closed,closed,-7.116791,8.360669,165.9457,1.43457,695.3655,1,yes,yes,Q19,remote,1,1,0.902439024390244,0.875
3,Umplebys,-50,Umplebys,-140,-90,1,open,open,0.2613983,-5.68457,-213.3231,1.05835,698.8598,1,no,no,Q19,remote,1,1,0.902439024390244,0.875
6,Hop2,-1,Hop2,-91,-90,1,closed,closed,-0.4673462,-2.687836,-157.7117,1.378357,709.4127,1,yes,yes,Q19,remote,1,1,0.902439024390244,0.875
7,Fairbanks,0,BakerBerryCharter,0,90,0,closed,closed,-8.743988,5.997968,67.08073,1.141602,712.1276,3,yes,yes,Q19,remote,0.333333333333333,0.333333333333333,0.846153846153846,0.875
9,53Commons,0,53Commons,90,90,1,open,open,-5.523834,4.490436,163.2597,1.12793,719.6042,1,yes,yes,Q19,remote,1,1,0.902439024390244,0.875
11,neutral,0,Hop4,87,90,0,closed,closed,-6.538452,11.54666,155.9042,1.461975,729.1407,2,na,yes,Q19,remote,NaN,1,0.862068965517241,0.875
12,neutral,0,RaunerFirst,-90,-90,0,closed,closed,-0.7550354,5.434444,-171.3977,1.280701,732.301,2,na,yes,Q19,remote,NaN,1,0.862068965517241,0.875
15,McLaughlinCluster,172,Maynard,-90,-90,0,open,open,-0.0826416,0.2029962,-166.8014,1.267212,741.1836,3,yes,yes,Q19,remote,1,1,0.846153846153846,0.875
16,Hop2,-1,Hop4,87,90,0,closed,closed,-10.51236,0.6445013,155.6086,1.11438,743.8431,3,yes,yes,Q19,remote,1,1,0.846153846153846,0.875
17,neutral,0,RaunerBackHall,-90,-90,0,closed,closed,2.263717,0.9558529,-160.0322,1.030273,746.293,2,na,yes,Q19,remote,NaN,1,0.862068965517241,0.875
18,53Commons,0,Fairbanks,-90,-90,0,open,open,2.607936,-6.826202,-162.5961,0.9893799,748.8416,3,yes,yes,Q19,remote,1,0.333333333333333,0.846153846153846,0.875
20,AllenSt,0,AllenSt,-90,-90,1,open,open,1.324,-4.679657,-168.8849,0.9886475,754.6602,1,yes,yes,Q19,remote,1,1,0.902439024390244,0.875
21,Hop4,-3,BakerBerry2nd,184,90,0,open,open,-7.979828,4.601819,260.4327,1.239136,757.2778,3,yes,yes,Q19,remote,1,1,0.846153846153846,0.875
23,Hop4,-3,Hop4,-93,-90,1,open,open,2.515811,1.140651,-171.0939,1.072144,762.6238,1,yes,yes,Q19,remote,1,1,0.902439024390244,0.875
26,AllenSt,0,RaunerFirst,-90,-90,0,closed,closed,2.292618,2.141212,-167.0923,0.876709,772.7735,3,yes,yes,Q19,remote,1,1,0.846153846153846,0.875
29,neutral,0,AllenSt,90,90,0,closed,closed,-7.090759,3.157239,166.9069,1.183655,781.3913,2,na,yes,Q19,remote,NaN,1,0.862068965517241,0.875
30,BakerBerryHistoric2,180,BakerBerryHistoric2,90,-90,1,closed,closed,5.675887,-1.824799,23.73831,1.155396,785.15,1,no,no,Q19,remote,0.666666666666667,0.666666666666667,0.902439024390244,0.875
31,PineBackHall,180,PineBackHall,90,-90,1,open,open,4.171198,6.471905,12.85181,1.197388,788.0461,1,no,no,Q19,remote,1,1,0.902439024390244,0.875
32,RaunerBackHall,0,RaunerBackHall,90,90,1,open,open,-7.550323,3.222467,162.4772,1.475525,791.0947,1,yes,yes,Q19,remote,1,1,0.902439024390244,0.875
34,neutral,0,Fairbanks,-90,-90,0,open,open,2.442887,-5.184326,-167.3152,0.8768921,803.4021,2,na,yes,Q19,remote,NaN,0.333333333333333,0.862068965517241,0.875
35,neutral,0,Hop2,89,90,0,open,open,-10.74805,-4.70874,162.9426,1.267151,848.4395,2,na,yes,Q19,remote,NaN,1,0.862068965517241,0.875
37,AllenSt,0,AllenSt,-90,-90,1,open,open,3.441475,-1.935089,-162.0977,0.8911133,853.6184,1,yes,yes,Q19,remote,1,1,0.902439024390244,0.875
39,Hop4,-3,Hop4,-93,-90,1,open,open,4.358907,-2.895111,-161.6486,0.9047852,858.7695,1,yes,yes,Q19,remote,1,1,0.902439024390244,0.875
41,Zimmerman,-100,Zimmerman,-10,90,1,open,open,-9.502747,4.219515,67.9225,1.029968,864.3245,1,yes,yes,Q19,remote,1,1,0.902439024390244,0.875
42,BakerBerryCharter,-90,BakerBerryCharter,-180,-90,1,open,open,3.940284,0.4747175,-253.7694,1.058228,866.942,1,yes,yes,Q19,remote,0.333333333333333,0.333333333333333,0.902439024390244,0.875
44,BakerBerryHistoric2,180,BakerBerryHistoric2,90,-90,1,closed,closed,0.9429955,1.914173,36.00955,1.002441,871.4117,1,no,no,Q19,remote,0.666666666666667,0.666666666666667,0.902439024390244,0.875
47,RaunerFirst,0,PineEntrance,-90,-90,0,open,open,2.986932,7.073769,-170.6796,1.350708,879.5557,3,yes,yes,Q19,remote,1,1,0.846153846153846,0.875
48,Zimmerman,-100,Zimmerman,-10,90,1,open,open,-10.49655,-2.800537,60.29778,1.141907,882.187,1,yes,yes,Q19,remote,1,1,0.902439024390244,0.875
50,RaunerBackHall,0,RaunerBackHall,90,90,1,open,open,-13.36288,-1.429352,163.1644,1.489929,887.9926,1,yes,yes,Q19,remote,1,1,0.902439024390244,0.875
52,PineBackHall,180,PineBackHall,90,-90,1,open,open,2.425254,7.703872,9.715759,1.099915,893.2552,1,no,no,Q19,remote,1,1,0.902439024390244,0.875
54,Maynard,0,McLaughlinCluster,82,-90,0,closed,closed,0.4637225,6.333319,9.636047,1.378479,898.8382,3,yes,yes,Q19,remote,1,1,0.846153846153846,0.875
57,neutral,0,Umplebys,40,90,0,closed,closed,-13.28738,3.836365,124.7606,1.072388,908.375,2,na,no,Q19,remote,NaN,1,0.862068965517241,0.875
58,neutral,0,PineEntrance,-90,-90,0,open,open,3.703708,4.559011,-168.4648,1.002441,910.9922,2,na,yes,Q19,remote,NaN,1,0.862068965517241,0.875
59,RaunerBackHall,0,Hop2,89,90,0,open,open,-14.56921,-0.3505859,164.3825,1.086121,913.9161,3,yes,yes,Q19,remote,1,1,0.846153846153846,0.875
60,MooreLot,180,MooreLot,90,-90,1,closed,closed,4.402568,1.265955,18.79541,0.8772583,916.3244,1,no,no,Q19,remote,1,1,0.902439024390244,0.875
61,BakerBerryCharter,-90,BakerBerryCharter,-180,-90,1,open,open,6.200802,1.480591,-254.3459,0.9458008,919.4708,1,yes,yes,Q19,remote,0.333333333333333,0.333333333333333,0.902439024390244,0.875
62,neutral,0,Maynard,-90,-90,0,open,open,-0.1253052,-12.96484,-114.8295,1.51709,922.4222,2,na,yes,Q19,remote,NaN,1,0.862068965517241,0.875
64,neutral,0,BakerBerryHistoric2,270,90,0,open,open,-10.02896,10.62498,341.744,1.016724,927.6575,2,na,no,Q19,remote,NaN,0.666666666666667,0.862068965517241,0.875
65,BakerBerry2nd,94,BakerBerry2nd,4,-90,1,closed,closed,2.688508,-6.980408,-36.3436,1.280823,930.2329,1,yes,yes,Q19,remote,1,1,0.902439024390244,0.875
66,BakerBerryHistoric2,180,RollinsChapel3,87,-90,0,open,open,5.087934,-4.267822,19.12457,0.9189453,932.5021,3,no,yes,Q19,remote,0.666666666666667,1,0.846153846153846,0.875
68,neutral,0,53Commons,-90,-90,0,closed,closed,4.579745,-1.758331,-152.6046,1.447693,939.2264,2,na,yes,Q19,remote,NaN,1,0.862068965517241,0.875
69,neutral,0,MooreLot,270,90,0,open,open,-12.29572,2.913878,337.3939,1.058289,942.1086,2,na,no,Q19,remote,NaN,1,0.862068965517241,0.875
71,neutral,0,BakerBerry2nd,184,90,0,open,open,-6.062256,-12.78046,198.0051,1.267151,965.5678,2,na,yes,Q19,remote,NaN,1,0.862068965517241,0.875
72,PineEntrance,0,AllenSt,90,90,0,closed,closed,-8.329407,-5.377441,139.7137,1.392456,968.2548,3,yes,yes,Q19,remote,1,1,0.846153846153846,0.875
76,BakerBerryHistoric2,180,RaunerFirst,90,90,0,open,open,-11.04364,-0.1072083,158.202,1.016357,978.8357,3,no,yes,Q19,remote,0.666666666666667,1,0.846153846153846,0.875
78,PineEntrance,0,PineEntrance,-90,-90,1,open,open,5.727209,-2.009552,-167.6338,1.141418,983.8199,1,yes,yes,Q19,remote,1,1,0.902439024390244,0.875
79,McLaughlinCluster,172,McLaughlinCluster,82,-90,1,closed,closed,0.5896143,-6.014465,42.14954,1.503662,986.9523,1,yes,yes,Q19,remote,1,1,0.902439024390244,0.875
80,Maynard,0,Maynard,-90,-90,1,open,open,8.972113,-8.057983,-160.1049,0.8908691,989.5696,1,yes,yes,Q19,remote,1,1,0.902439024390244,0.875
82,PineEntrance,0,BakerBerryCharter,-180,-90,0,open,open,10.13491,-2.644226,-260.1688,0.8493042,995.0273,3,yes,yes,Q19,remote,1,0.333333333333333,0.846153846153846,0.875
83,Umplebys,-50,AllenSt,-90,-90,0,open,open,2.329829,-6.239349,-156.0069,0.9471436,997.4221,3,no,yes,Q19,remote,1,1,0.846153846153846,0.875
84,neutral,0,BakerBerryHistoric2,90,-90,0,closed,closed,3.870708,-3.308258,37.33975,0.9882202,1000.164,2,na,no,Q19,remote,NaN,0.666666666666667,0.862068965517241,0.875
86,MooreLot,180,Hop4,-93,-90,0,open,open,5.529066,-4.900879,-154.3858,0.8770752,1005.469,3,no,yes,Q19,remote,1,1,0.846153846153846,0.875
88,53Commons,0,McLaughlinCluster,262,90,0,open,open,-11.47739,-1.238556,318.8297,1.113586,1010.606,3,yes,yes,Q19,remote,1,1,0.846153846153846,0.875
89,RaunerBackHall,0,RaunerBackHall,-90,-90,1,closed,closed,6.223578,-1.854614,-157.2244,0.9048462,1012.987,1,yes,yes,Q19,remote,1,1,0.902439024390244,0.875
90,Fairbanks,0,Fairbanks,-90,-90,1,open,open,4.743426,-7.228394,-149.4362,0.890686,1015.214,1,yes,yes,Q19,remote,0.333333333333333,0.333333333333333,0.902439024390244,0.875
95,neutral,0,PineEntrance,90,90,0,closed,closed,-13.09149,-5.371307,157.4857,1.057983,1029.026,2,na,yes,Q19,remote,NaN,1,0.862068965517241,0.875
98,RollinsChapel3,177,Maynard,90,90,0,closed,closed,-9.931488,20.14466,157.7418,1.962891,1038.506,3,yes,yes,Q19,remote,1,1,0.846153846153846,0.875
99,MooreLot,180,MooreLot,270,90,1,open,open,-11.82495,-0.2008972,338.7744,1.113525,1041.541,1,no,no,Q19,remote,1,1,0.902439024390244,0.875
103,neutral,0,53Commons,90,90,0,open,open,-10.88406,-1.589355,159.8886,0.6960449,1051.427,2,na,yes,Q19,remote,NaN,1,0.862068965517241,0.875
104,BakerBerryCharter,-90,BakerBerryCharter,0,90,1,closed,closed,-14.29544,-3.254791,64.65742,1.016479,1053.779,1,yes,yes,Q19,remote,0.333333333333333,0.333333333333333,0.902439024390244,0.875
106,BakerBerryHistoric2,180,BakerBerryHistoric2,270,90,1,open,open,-11.75027,1.368359,337.9932,0.9886475,1059.432,1,no,no,Q19,remote,0.666666666666667,0.666666666666667,0.902439024390244,0.875
107,neutral,0,Zimmerman,-10,90,0,open,open,-9.203827,-9.599396,57.73633,0.7518311,1083.518,2,na,yes,Q19,remote,NaN,1,0.862068965517241,0.875
109,McLaughlinCluster,172,McLaughlinCluster,82,-90,1,closed,closed,1.527473,-8.84491,43.26208,1.461792,1089.505,1,yes,yes,Q19,remote,1,1,0.902439024390244,0.875
111,neutral,0,Hop4,-93,-90,0,open,open,2.961538,-3.258148,-149.4915,0.8912354,1094.183,2,na,yes,Q19,remote,NaN,1,0.862068965517241,0.875
112,MooreLot,180,MooreLot,270,90,1,open,open,-6.887054,-5.622192,315.3759,1.016357,1096.883,1,no,no,Q19,remote,1,1,0.902439024390244,0.875
113,neutral,0,PineBackHall,90,-90,0,open,open,4.20913,2.76471,21.94574,0.9606934,1099.334,2,na,no,Q19,remote,NaN,1,0.862068965517241,0.875
114,neutral,0,Maynard,90,90,0,closed,closed,-9.590546,12.10242,156.2818,1.308472,1101.951,2,na,yes,Q19,remote,NaN,1,0.862068965517241,0.875
116,neutral,0,RaunerBackHall,90,90,0,open,open,-8.859467,3.155011,157.1267,0.9188232,1107.172,2,na,yes,Q19,remote,NaN,1,0.862068965517241,0.875
117,Fairbanks,0,BakerBerry2nd,4,-90,0,closed,closed,4.171151,-4.279602,-47.15952,1.05835,1109.526,3,yes,yes,Q19,remote,0.333333333333333,1,0.846153846153846,0.875
119,neutral,0,MooreLot,90,-90,0,closed,closed,2.643511,1.368407,31.30536,1.058472,1114.788,2,na,no,Q19,remote,NaN,1,0.862068965517241,0.875
120,Maynard,0,PineEntrance,90,90,0,closed,closed,-11.13702,1.622831,149.4181,1.030396,1117.029,3,yes,yes,Q19,remote,1,1,0.846153846153846,0.875
121,neutral,0,McLaughlinCluster,262,90,0,open,open,-11.13229,2.794086,324.2629,1.140991,1119.674,2,na,yes,Q19,remote,NaN,1,0.862068965517241,0.875
122,RaunerFirst,0,RaunerFirst,-90,-90,1,closed,closed,2.622689,-1.018341,-149.305,0.8912354,1121.749,1,yes,yes,Q19,remote,1,1,0.902439024390244,0.875
125,neutral,0,Hop2,-91,-90,0,closed,closed,1.632574,0.4707747,-158.7383,0.8771973,1129.531,2,na,yes,Q19,remote,NaN,1,0.862068965517241,0.875
126,RaunerFirst,0,BakerBerryHistoric2,90,-90,0,closed,closed,2.773598,1.522261,26.43384,1.030151,1131.759,3,yes,no,Q19,remote,1,0.666666666666667,0.846153846153846,0.875
129,BakerBerryHistoric2,180,BakerBerryHistoric2,270,90,1,open,open,-13.15927,5.808538,330.1605,1.043945,1138.72,1,no,no,Q19,remote,0.666666666666667,0.666666666666667,0.902439024390244,0.875
130,neutral,0,AllenSt,-90,-90,0,open,open,2.211603,-2.887451,-152.2501,0.9884033,1140.92,2,na,yes,Q19,remote,NaN,1,0.862068965517241,0.875
131,BakerBerry2nd,94,BakerBerry2nd,184,90,1,open,open,-11.24429,0.0938541,242.6438,0.9189453,1142.98,1,yes,yes,Q19,remote,1,1,0.902439024390244,0.875
132,Maynard,0,Maynard,-90,-90,1,open,open,4.170971,-5.787109,-156.7101,0.7799072,1144.971,1,yes,yes,Q19,remote,1,1,0.902439024390244,0.875
