trialIdx,primeName,primeAngleYaw,targetName,targetAngleYaw,targetSide,arrowDirection,condition,correctResponse,response,roll,pitch,yaw,rt,timestamp,familiarityTarget,familiarityPrime,subject_id,session_format,explicit_acc_scenewise_prime,explicit_acc_scenewise_target,oc_acc_by_condition,oc_acc,arrowValidity,primeCondition
3,Hop2,-1,Hop2,89,90,left,3,open,open,-11.26392,1.617453,156.4467,1.36361782352945,758.3948,missing,missing,member007_new,remote,NaN,NaN,0.933333333333333,0.905027932960894,invalid,Same-scene
4,NeutralFairbanks,0,Fairbanks,90,90,left,4,closed,closed,-8.877289,-0.3921509,157.5734,1.41966482352934,762.6259,missing,missing,member007_new,remote,NaN,NaN,0.9,0.905027932960894,invalid,Neutral
5,NeutralBakerBerryHistoric2,0,BakerBerryHistoric2,90,-90,right,4,closed,closed,6.89099,5.620238,19.90668,1.24865424752476,766.9391,missing,missing,member007_new,remote,NaN,NaN,0.9,0.905027932960894,invalid,Neutral
6,PineEntrance,0,PineEntrance,-90,-90,left,1,open,open,7.48248,3.303928,-160.9646,1.18335,770.8094,missing,missing,member007_new,remote,NaN,NaN,0.885057471264368,0.905027932960894,valid,Same-scene
7,AllenSt,0,AllenSt,90,90,right,1,closed,closed,-11.92468,4.140247,155.2552,1.22522,775.1951,missing,missing,member007_new,remote,NaN,NaN,0.885057471264368,0.905027932960894,valid,Same-scene
8,RaunerFirst,0,RaunerFirst,90,90,right,1,open,open,-11.90707,1.21155,154.9261,1.837952,779.8035,missing,missing,member007_new,remote,NaN,NaN,0.885057471264368,0.905027932960894,valid,Same-scene
9,MooreLot,180,MooreLot,90,-90,left,1,closed,closed,5.689636,5.841635,22.39108,0.9467773,783.4927,missing,missing,member007_new,remote,NaN,NaN,0.885057471264368,0.905027932960894,valid,Same-scene
10,Neutral53Commons,0,53Commons,90,90,right,2,open,open,-12.42944,1.510511,160.3088,1.601074,787.8727,missing,missing,member007_new,remote,NaN,NaN,0.9375,0.905027932960894,valid,Neutral
11,NeutralBakerBerryCharter,0,BakerBerryCharter,0,90,right,2,closed,closed,-12.60187,3.023383,71.00166,1.127747,791.8411,missing,missing,member007_new,remote,NaN,NaN,0.9375,0.905027932960894,valid,Neutral
12,McLaughlinCluster,172,McLaughlinCluster,82,-90,left,1,closed,closed,4.286453,2.697351,19.52518,0.9326782,795.5585,missing,missing,member007_new,remote,NaN,NaN,0.885057471264368,0.905027932960894,valid,Same-scene
13,RaunerBackHall,0,RaunerBackHall,-90,-90,left,1,closed,closed,7.767882,3.012307,-155.2847,1.197388,799.3873,missing,missing,member007_new,remote,NaN,NaN,0.885057471264368,0.905027932960894,valid,Same-scene
15,BakerBerry2nd,94,BakerBerry2nd,4,-90,left,1,closed,closed,10.01658,1.215316,-64.82446,1.26709,808.6735,missing,missing,member007_new,remote,NaN,NaN,0.885057471264368,0.905027932960894,valid,Same-scene
16,PineEntrance,0,PineEntrance,-90,-90,left,1,open,open,8.85551,1.398354,-160.0003,1.420166,812.8222,missing,missing,member007_new,remote,NaN,NaN,0.885057471264368,0.905027932960894,valid,Same-scene
18,53Commons,0,53Commons,90,90,right,1,open,open,-15.33228,0.5542439,159.3079,1.308533,820.9667,missing,missing,member007_new,remote,NaN,NaN,0.885057471264368,0.905027932960894,valid,Same-scene
19,Hop4,-3,Hop4,-93,-90,right,3,open,open,8.125257,2.663418,-161.6483,1.37336524752474,825.1992,missing,missing,member007_new,remote,NaN,NaN,0.933333333333333,0.905027932960894,invalid,Same-scene
20,MooreLot,180,MooreLot,270,90,right,1,open,open,-10.763,4.610382,341.4764,1.740234,829.7795,missing,missing,member007_new,remote,NaN,NaN,0.885057471264368,0.905027932960894,valid,Same-scene
22,AllenSt,0,AllenSt,-90,-90,right,3,open,open,8.002278,2.424171,-159.7045,1.391663,838.0634,missing,missing,member007_new,remote,NaN,NaN,0.933333333333333,0.905027932960894,invalid,Same-scene
23,Hop4,-3,Hop4,87,90,right,1,closed,closed,-13.24207,1.271821,156.2323,1.267151,842.087,missing,missing,member007_new,remote,NaN,NaN,0.885057471264368,0.905027932960894,valid,Same-scene
25,RollinsChapel3,177,RollinsChapel3,267,90,right,1,closed,closed,-13.45941,4.536753,336.6431,1.378479,850.5101,missing,missing,member007_new,remote,NaN,NaN,0.885057471264368,0.905027932960894,valid,Same-scene
26,Umplebys,-50,Umplebys,40,90,right,1,closed,closed,-13.44794,3.42924,110.4014,1.211426,854.5335,missing,missing,member007_new,remote,NaN,NaN,0.885057471264368,0.905027932960894,valid,Same-scene
27,NeutralBakerBerry2nd,0,BakerBerry2nd,184,90,right,2,open,open,-13.19672,2.911541,257.1157,1.406067,858.7515,missing,missing,member007_new,remote,NaN,NaN,0.9375,0.905027932960894,valid,Neutral
28,McLaughlinCluster,172,McLaughlinCluster,82,-90,right,3,closed,closed,8.98773,-2.394867,17.96204,1.058228,862.4967,missing,missing,member007_new,remote,NaN,NaN,0.933333333333333,0.905027932960894,invalid,Same-scene
29,NeutralZimmerman,0,Zimmerman,-190,-90,left,2,closed,closed,9.434346,0.9396696,-257.4814,1.169373,866.6367,missing,missing,member007_new,remote,NaN,NaN,0.9375,0.905027932960894,valid,Neutral
31,BakerBerryCharter,-90,BakerBerryCharter,-180,-90,left,1,open,open,8.036995,2.248256,-248.6819,1.40625,874.3776,missing,missing,member007_new,remote,NaN,NaN,0.885057471264368,0.905027932960894,valid,Same-scene
32,Umplebys,-50,Umplebys,40,90,right,1,closed,closed,-13.11685,1.227417,111.1723,1.559448,878.4429,missing,missing,member007_new,remote,NaN,NaN,0.885057471264368,0.905027932960894,valid,Same-scene
33,NeutralBakerBerryCharter,0,BakerBerryCharter,-180,-90,left,2,open,open,8.912041,4.133025,-246.1327,1.531494,882.4802,missing,missing,member007_new,remote,NaN,NaN,0.9375,0.905027932960894,valid,Neutral
34,AllenSt,0,AllenSt,-90,-90,left,1,open,open,7.903934,3.898181,-157.6813,1.44812,886.4622,missing,missing,member007_new,remote,NaN,NaN,0.885057471264368,0.905027932960894,valid,Same-scene
35,RaunerFirst,0,RaunerFirst,90,90,left,3,open,open,-14.07306,3.189465,156.0876,1.322632,890.2906,missing,missing,member007_new,remote,NaN,NaN,0.933333333333333,0.905027932960894,invalid,Same-scene
36,BakerBerry2nd,94,BakerBerry2nd,4,-90,left,1,closed,closed,9.494591,2.005148,-60.24167,1.336548,894.2028,missing,missing,member007_new,remote,NaN,NaN,0.885057471264368,0.905027932960894,valid,Same-scene
37,McLaughlinCluster,172,McLaughlinCluster,82,-90,left,1,closed,closed,10.93294,-0.4685364,23.53729,1.239319,898.0176,missing,missing,member007_new,remote,NaN,NaN,0.885057471264368,0.905027932960894,valid,Same-scene
45,53Commons,0,53Commons,90,90,left,3,open,open,-11.1087,-0.1834412,143.7896,1.573364,929.3332,missing,missing,member007_new,remote,NaN,NaN,0.933333333333333,0.905027932960894,invalid,Same-scene
48,NeutralMaynard,0,Maynard,90,90,right,2,closed,closed,-13.19678,0.3660037,151.489,1.531555,943.3036,missing,missing,member007_new,remote,NaN,NaN,0.9375,0.905027932960894,valid,Neutral
49,BakerBerryHistoric2,180,BakerBerryHistoric2,270,90,left,3,open,open,-11.83331,1.085241,330.6941,1.503723,947.912,missing,missing,member007_new,remote,NaN,NaN,0.933333333333333,0.905027932960894,invalid,Same-scene
50,Hop2,-1,Hop2,-91,-90,left,1,closed,closed,9.987375,-3.648956,-145.6109,0.75177,951.337,missing,missing,member007_new,remote,NaN,NaN,0.885057471264368,0.905027932960894,valid,Same-scene
51,NeutralPineBackHall,0,PineBackHall,270,90,right,2,closed,closed,-13.23251,2.830093,333.6417,1.406311,955.2957,missing,missing,member007_new,remote,NaN,NaN,0.9375,0.905027932960894,valid,Neutral
52,BakerBerryCharter,-90,BakerBerryCharter,-180,-90,left,1,open,open,9.881428,0.860605,-234.5002,1.392334,959.3608,missing,missing,member007_new,remote,NaN,NaN,0.885057471264368,0.905027932960894,valid,Same-scene
53,53Commons,0,53Commons,-90,-90,left,1,closed,closed,10.97776,-1.783142,-150.2999,1.197388,978.3787,missing,missing,member007_new,remote,NaN,NaN,0.885057471264368,0.905027932960894,valid,Same-scene
54,BakerBerry2nd,94,BakerBerry2nd,184,90,right,1,open,open,-14.31296,1.535443,248.8213,0.7936401,981.7061,missing,missing,member007_new,remote,NaN,NaN,0.885057471264368,0.905027932960894,valid,Same-scene
55,Hop4,-3,Hop4,-93,-90,left,1,open,open,8.989942,1.323727,-154.0183,0.8492432,985.1031,missing,missing,member007_new,remote,NaN,NaN,0.885057471264368,0.905027932960894,valid,Same-scene
56,MooreLot,180,MooreLot,270,90,right,1,open,open,-1.294128,-0.1555176,323.6614,1.545532,989.2521,missing,missing,member007_new,remote,NaN,NaN,0.885057471264368,0.905027932960894,valid,Same-scene
57,Hop4,-3,Hop4,-93,-90,left,1,open,open,5.096106,-1.246735,-148.807,1.127686,993.1642,missing,missing,member007_new,remote,NaN,NaN,0.885057471264368,0.905027932960894,valid,Same-scene
60,NeutralAllenSt,0,AllenSt,-90,-90,right,4,open,open,8.277587,-0.648407,-152.6446,1.4152032475247,1006.102,missing,missing,member007_new,remote,NaN,NaN,0.9,0.905027932960894,invalid,Neutral
61,NeutralBakerBerry2nd,0,BakerBerry2nd,4,-90,left,2,closed,closed,6.772978,1.539901,-60.63657,1.211304,1010.07,missing,missing,member007_new,remote,NaN,NaN,0.9375,0.905027932960894,valid,Neutral
62,NeutralPineBackHall,0,PineBackHall,270,90,left,4,closed,closed,-7.793732,-0.6456299,339.556,1.37722082352948,1014.678,missing,missing,member007_new,remote,NaN,NaN,0.9,0.905027932960894,invalid,Neutral
63,RollinsChapel3,177,RollinsChapel3,87,-90,left,1,open,open,7.098593,-0.4710693,28.56653,1.085999,1018.381,missing,missing,member007_new,remote,NaN,NaN,0.885057471264368,0.905027932960894,valid,Same-scene
64,NeutralRaunerFirst,0,RaunerFirst,90,90,left,4,open,open,-7.596954,0.2251157,154.828,1.253235,1022.512,missing,missing,member007_new,remote,NaN,NaN,0.9,0.905027932960894,invalid,Neutral
65,53Commons,0,53Commons,-90,-90,left,1,closed,closed,7.336223,-2.668579,-149.7063,1.099976,1026.16,missing,missing,member007_new,remote,NaN,NaN,0.885057471264368,0.905027932960894,valid,Same-scene
66,Umplebys,-50,Umplebys,40,90,right,1,closed,closed,-8.409698,-1.448486,108.7063,1.183228,1030.127,missing,missing,member007_new,remote,NaN,NaN,0.885057471264368,0.905027932960894,valid,Same-scene
68,NeutralMooreLot,0,MooreLot,270,90,right,2,open,open,-8.931793,0.2497992,332.3625,1.796143,1038.127,missing,missing,member007_new,remote,NaN,NaN,0.9375,0.905027932960894,valid,Neutral
69,BakerBerry2nd,94,BakerBerry2nd,184,90,right,1,open,open,-11.71716,1.555879,245.9575,1.225098,1042.234,missing,missing,member007_new,remote,NaN,NaN,0.885057471264368,0.905027932960894,valid,Same-scene
71,NeutralFairbanks,0,Fairbanks,90,90,right,2,closed,closed,-10.52841,1.055,153.9535,1.308472,1053.4,missing,missing,member007_new,remote,NaN,NaN,0.9375,0.905027932960894,valid,Neutral
72,NeutralPineEntrance,0,PineEntrance,90,90,left,4,closed,closed,-10.87723,2.308576,157.0231,1.935303,1057.967,missing,missing,member007_new,remote,NaN,NaN,0.9,0.905027932960894,invalid,Neutral
73,NeutralRaunerBackHall,0,RaunerBackHall,90,90,left,4,open,open,-9.648926,2.11713,155.6936,1.378418,1061.982,missing,missing,member007_new,remote,NaN,NaN,0.9,0.905027932960894,invalid,Neutral
74,Hop2,-1,Hop2,89,90,right,1,open,open,-11.31378,-0.2355652,150.154,1.350464,1066.005,missing,missing,member007_new,remote,NaN,NaN,0.885057471264368,0.905027932960894,valid,Same-scene
76,BakerBerryHistoric2,180,BakerBerryHistoric2,270,90,right,1,open,open,-10.59225,4.211153,335.2001,1.573486,1074.916,missing,missing,member007_new,remote,NaN,NaN,0.885057471264368,0.905027932960894,valid,Same-scene
77,NeutralMcLaughlinCluster,0,McLaughlinCluster,82,-90,left,2,closed,closed,6.612358,-2.271362,28.63846,1.53186,1079.12,missing,missing,member007_new,remote,NaN,NaN,0.9375,0.905027932960894,valid,Neutral
78,53Commons,0,53Commons,-90,-90,left,1,closed,closed,6.423173,-2.512329,-146.8361,1.350464,1083.241,missing,missing,member007_new,remote,NaN,NaN,0.885057471264368,0.905027932960894,valid,Same-scene
79,NeutralRollinsChapel3,0,RollinsChapel3,267,90,right,2,closed,closed,-10.34042,4.947213,333.1516,1.308716,1087.177,missing,missing,member007_new,remote,NaN,NaN,0.9375,0.905027932960894,valid,Neutral
80,NeutralHop2,0,Hop2,89,90,right,2,open,open,-9.695313,0.8046539,151.8477,1.267212,1091.205,missing,missing,member007_new,remote,NaN,NaN,0.9375,0.905027932960894,valid,Neutral
81,Zimmerman,-100,Zimmerman,-10,90,left,3,open,open,-7.868256,0.2403775,49.44249,1.781982,1095.73,missing,missing,member007_new,remote,NaN,NaN,0.933333333333333,0.905027932960894,invalid,Same-scene
82,Hop2,-1,Hop2,89,90,right,1,open,open,-8.74942,0.7010867,145.4762,1.197266,1099.558,missing,missing,member007_new,remote,NaN,NaN,0.885057471264368,0.905027932960894,valid,Same-scene
85,Zimmerman,-100,Zimmerman,-190,-90,left,1,closed,closed,8.960169,0.1073275,-248.4946,1.434082,1111.991,missing,missing,member007_new,remote,NaN,NaN,0.885057471264368,0.905027932960894,valid,Same-scene
86,53Commons,0,53Commons,90,90,right,1,open,open,-9.14917,2.192674,155.3874,1.266968,1116.028,missing,missing,member007_new,remote,NaN,NaN,0.885057471264368,0.905027932960894,valid,Same-scene
87,NeutralRollinsChapel3,0,RollinsChapel3,87,-90,right,4,open,open,5.962934,0.01454254,25.02225,1.49874424752504,1121.082,missing,missing,member007_new,remote,NaN,NaN,0.9,0.905027932960894,invalid,Neutral
88,AllenSt,0,AllenSt,90,90,right,1,closed,closed,-10.64493,0.7867758,150.9176,1.517578,1125.134,missing,missing,member007_new,remote,NaN,NaN,0.885057471264368,0.905027932960894,valid,Same-scene
90,NeutralAllenSt,0,AllenSt,90,90,right,2,closed,closed,-7.589233,1.149708,142.5547,1.016602,1132.373,missing,missing,member007_new,remote,NaN,NaN,0.9375,0.905027932960894,valid,Neutral
92,Maynard,0,Maynard,90,90,right,1,closed,closed,-9.602509,-1.670776,147.7027,1.072266,1139.78,missing,missing,member007_new,remote,NaN,NaN,0.885057471264368,0.905027932960894,valid,Same-scene
93,AllenSt,0,AllenSt,-90,-90,left,1,open,open,6.535601,-0.8474426,-147.6428,1.141846,1143.469,missing,missing,member007_new,remote,NaN,NaN,0.885057471264368,0.905027932960894,valid,Same-scene
94,BakerBerry2nd,94,BakerBerry2nd,4,-90,left,1,closed,closed,7.378363,-0.7448425,-49.04678,1.364502,1147.395,missing,missing,member007_new,remote,NaN,NaN,0.885057471264368,0.905027932960894,valid,Same-scene
95,NeutralBakerBerryHistoric2,0,BakerBerryHistoric2,270,90,left,4,open,open,-8.667664,0.1061233,340.1415,1.30800482352919,1152.296,missing,missing,member007_new,remote,NaN,NaN,0.9,0.905027932960894,invalid,Neutral
97,PineBackHall,180,PineBackHall,90,-90,left,1,open,open,8.946644,1.594198,34.18204,1.2948,1160.106,missing,missing,member007_new,remote,NaN,NaN,0.885057471264368,0.905027932960894,valid,Same-scene
98,BakerBerry2nd,94,BakerBerry2nd,184,90,right,1,open,open,-10.21472,0.6610485,242.2296,1.169556,1164.13,missing,missing,member007_new,remote,NaN,NaN,0.885057471264368,0.905027932960894,valid,Same-scene
100,NeutralHop2,0,Hop2,-91,-90,right,4,closed,closed,7.68811,2.298715,-151.7231,1.378418,1171.885,missing,missing,member007_new,remote,NaN,NaN,0.9,0.905027932960894,invalid,Neutral
101,MooreLot,180,MooreLot,270,90,left,3,open,open,-8.864044,1.720952,332.3779,1.921509,1176.549,missing,missing,member007_new,remote,NaN,NaN,0.933333333333333,0.905027932960894,invalid,Same-scene
102,RaunerFirst,0,RaunerFirst,-90,-90,left,1,closed,closed,7.12569,2.116271,-151.2706,1.420044,1180.461,missing,missing,member007_new,remote,NaN,NaN,0.885057471264368,0.905027932960894,valid,Same-scene
103,PineBackHall,180,PineBackHall,270,90,left,3,closed,closed,-10.86301,0.442345,330.3095,1.364136,1184.568,missing,missing,member007_new,remote,NaN,NaN,0.933333333333333,0.905027932960894,invalid,Same-scene
104,Hop4,-3,Hop4,87,90,left,3,closed,closed,-10.70007,3.024825,149.4885,1.643066,1188.94,missing,missing,member007_new,remote,NaN,NaN,0.933333333333333,0.905027932960894,invalid,Same-scene
105,NeutralBakerBerry2nd,0,BakerBerry2nd,184,90,left,4,open,open,-8.986816,1.118975,244.3793,1.183472,1192.615,missing,missing,member007_new,remote,NaN,NaN,0.9,0.905027932960894,invalid,Neutral
106,NeutralBakerBerryHistoric2,0,BakerBerryHistoric2,270,90,right,2,open,open,-11.76755,4.725287,328.2167,1.392212,1196.485,missing,missing,member007_new,remote,NaN,NaN,0.9375,0.905027932960894,valid,Neutral
107,NeutralHop4,0,Hop4,-93,-90,right,4,open,open,7.854107,1.284603,-151.9676,1.434082,1227.619,missing,missing,member007_new,remote,NaN,NaN,0.9,0.905027932960894,invalid,Neutral
108,Maynard,0,Maynard,90,90,right,1,closed,closed,-11.12131,1.708623,155.3448,0.9327393,1231.323,missing,missing,member007_new,remote,NaN,NaN,0.885057471264368,0.905027932960894,valid,Same-scene
110,RollinsChapel3,177,RollinsChapel3,267,90,right,1,closed,closed,-9.366974,-0.8928528,323.4872,1.489746,1243.366,missing,missing,member007_new,remote,NaN,NaN,0.885057471264368,0.905027932960894,valid,Same-scene
112,BakerBerryCharter,-90,BakerBerryCharter,0,90,left,3,closed,closed,-9.75592,-5.64151,53.52311,1.504028,1250.814,missing,missing,member007_new,remote,NaN,NaN,0.933333333333333,0.905027932960894,invalid,Same-scene
113,RaunerBackHall,0,RaunerBackHall,90,90,right,1,open,open,-9.791107,-1.333954,148.0956,1.141724,1254.503,missing,missing,member007_new,remote,NaN,NaN,0.885057471264368,0.905027932960894,valid,Same-scene
115,AllenSt,0,AllenSt,-90,-90,left,1,open,open,5.822821,-1.127869,-144.8556,1.002319,1261.632,missing,missing,member007_new,remote,NaN,NaN,0.885057471264368,0.905027932960894,valid,Same-scene
116,Fairbanks,0,Fairbanks,90,90,right,1,closed,closed,-9.625488,0.6537429,143.8946,1.545288,1265.544,missing,missing,member007_new,remote,NaN,NaN,0.885057471264368,0.905027932960894,valid,Same-scene
117,NeutralBakerBerryCharter,0,BakerBerryCharter,0,90,left,4,closed,closed,-11.13062,-0.7824097,63.251,1.281006,1269.261,missing,missing,member007_new,remote,NaN,NaN,0.9,0.905027932960894,invalid,Neutral
118,NeutralAllenSt,0,AllenSt,90,90,left,4,closed,closed,-8.098907,-1.374115,144.5507,1.183472,1273.062,missing,missing,member007_new,remote,NaN,NaN,0.9,0.905027932960894,invalid,Neutral
119,Zimmerman,-100,Zimmerman,-190,-90,left,1,closed,closed,6.470367,-1.274994,-243.0493,1.50354,1277.072,missing,missing,member007_new,remote,NaN,NaN,0.885057471264368,0.905027932960894,valid,Same-scene
120,PineEntrance,0,PineEntrance,90,90,right,1,closed,closed,-10.53552,-0.2104492,151.6552,1.266968,1280.914,missing,missing,member007_new,remote,NaN,NaN,0.885057471264368,0.905027932960894,valid,Same-scene
121,NeutralRaunerBackHall,0,RaunerBackHall,-90,-90,left,2,closed,closed,6.514868,-1.373657,-145.8033,1.05835,1284.715,missing,missing,member007_new,remote,NaN,NaN,0.9375,0.905027932960894,valid,Neutral
123,Maynard,0,Maynard,-90,-90,left,1,open,open,8.304054,1.021916,-147.9731,1.781982,1292.442,missing,missing,member007_new,remote,NaN,NaN,0.885057471264368,0.905027932960894,valid,Same-scene
125,PineBackHall,180,PineBackHall,270,90,right,1,closed,closed,-15.92679,2.998556,327.6404,1.337158,1299.779,missing,missing,member007_new,remote,NaN,NaN,0.885057471264368,0.905027932960894,valid,Same-scene
129,NeutralMaynard,0,Maynard,-90,-90,right,4,open,open,8.644867,1.560779,-150.7859,1.684692,1314.244,missing,missing,member007_new,remote,NaN,NaN,0.9,0.905027932960894,invalid,Neutral
130,NeutralRollinsChapel3,0,RollinsChapel3,87,-90,left,2,open,open,6.921524,-0.8193054,30.68143,1.712402,1318.379,missing,missing,member007_new,remote,NaN,NaN,0.9375,0.905027932960894,valid,Neutral
131,BakerBerryCharter,-90,BakerBerryCharter,0,90,right,1,closed,closed,-11.13922,0.9649199,56.37275,1.002563,1321.874,missing,missing,member007_new,remote,NaN,NaN,0.885057471264368,0.905027932960894,valid,Same-scene
132,NeutralAllenSt,0,AllenSt,-90,-90,left,2,open,open,7.399359,0.8871039,-151.7229,1.336548,1325.674,missing,missing,member007_new,remote,NaN,NaN,0.9375,0.905027932960894,valid,Neutral
134,NeutralHop2,0,Hop2,89,90,left,4,open,open,-12.95193,1.13179,147.3356,1.141357,1332.802,missing,missing,member007_new,remote,NaN,NaN,0.9,0.905027932960894,invalid,Neutral
135,BakerBerry2nd,94,BakerBerry2nd,184,90,left,3,open,open,-10.62839,0.1739998,244.2163,1.211304,1336.492,missing,missing,member007_new,remote,NaN,NaN,0.933333333333333,0.905027932960894,invalid,Same-scene
136,NeutralZimmerman,0,Zimmerman,-190,-90,right,4,closed,closed,8.566843,0.7578707,-248.299,1.23431124752504,1340.682,missing,missing,member007_new,remote,NaN,NaN,0.9,0.905027932960894,invalid,Neutral
137,Maynard,0,Maynard,-90,-90,left,1,open,open,7.010276,-3.321106,-152.283,1.462036,1344.609,missing,missing,member007_new,remote,NaN,NaN,0.885057471264368,0.905027932960894,valid,Same-scene
138,NeutralBakerBerryHistoric2,0,BakerBerryHistoric2,90,-90,left,2,closed,closed,4.873117,-0.9737854,35.96152,1.113892,1348.145,missing,missing,member007_new,remote,NaN,NaN,0.9375,0.905027932960894,valid,Neutral
139,RollinsChapel3,177,RollinsChapel3,267,90,right,1,closed,closed,-9.390747,-0.2640686,319.4281,1.48938,1352.154,missing,missing,member007_new,remote,NaN,NaN,0.885057471264368,0.905027932960894,valid,Same-scene
140,Fairbanks,0,Fairbanks,90,90,right,1,closed,closed,-11.93307,-1.837158,156.312,1.127808,1355.774,missing,missing,member007_new,remote,NaN,NaN,0.885057471264368,0.905027932960894,valid,Same-scene
144,PineEntrance,0,PineEntrance,90,90,right,1,closed,closed,-9.656677,2.005044,147.5802,0.9746094,1371.186,missing,missing,member007_new,remote,NaN,NaN,0.885057471264368,0.905027932960894,valid,Same-scene
145,NeutralPineBackHall,0,PineBackHall,90,-90,right,4,open,open,6.344401,3.603228,25.52927,1.531616,1375.21,missing,missing,member007_new,remote,NaN,NaN,0.9,0.905027932960894,invalid,Neutral
146,NeutralHop2,0,Hop2,-91,-90,left,2,closed,closed,4.504697,-2.984955,-149.9058,1.489624,1379.136,missing,missing,member007_new,remote,NaN,NaN,0.9375,0.905027932960894,valid,Neutral
147,PineBackHall,180,PineBackHall,270,90,right,1,closed,closed,-11.86343,0.05093572,326.848,1.08606,1382.798,missing,missing,member007_new,remote,NaN,NaN,0.885057471264368,0.905027932960894,valid,Same-scene
148,Umplebys,-50,Umplebys,40,90,left,3,closed,closed,-9.811981,-0.3460083,101.5171,1.40625,1386.877,missing,missing,member007_new,remote,NaN,NaN,0.933333333333333,0.905027932960894,invalid,Same-scene
150,Neutral53Commons,0,53Commons,-90,-90,left,2,closed,closed,8.092937,-0.3766785,-150.7168,1.517578,1395.021,missing,missing,member007_new,remote,NaN,NaN,0.9375,0.905027932960894,valid,Neutral
151,Hop2,-1,Hop2,-91,-90,left,1,closed,closed,5.037489,-1.732544,-144.9542,1.26709,1398.78,missing,missing,member007_new,remote,NaN,NaN,0.885057471264368,0.905027932960894,valid,Same-scene
152,Hop4,-3,Hop4,-93,-90,left,1,open,open,4.8959,-2.47995,-152.6541,1.141602,1402.442,missing,missing,member007_new,remote,NaN,NaN,0.885057471264368,0.905027932960894,valid,Same-scene
153,Zimmerman,-100,Zimmerman,-190,-90,left,1,closed,closed,6.639283,0.6680326,-250.3569,1.253052,1406.354,missing,missing,member007_new,remote,NaN,NaN,0.885057471264368,0.905027932960894,valid,Same-scene
154,NeutralMaynard,0,Maynard,-90,-90,left,2,open,open,7.070202,-1.076691,-150.3382,1.099976,1410.071,missing,missing,member007_new,remote,NaN,NaN,0.9375,0.905027932960894,valid,Neutral
155,BakerBerryCharter,-90,BakerBerryCharter,-180,-90,left,1,open,open,7.56042,-0.6763,-232.2564,1.587891,1414.165,missing,missing,member007_new,remote,NaN,NaN,0.885057471264368,0.905027932960894,valid,Same-scene
156,NeutralPineEntrance,0,PineEntrance,-90,-90,right,4,open,open,7.919033,0.7606478,-150.9184,1.322632,1420.235,missing,missing,member007_new,remote,NaN,NaN,0.9,0.905027932960894,invalid,Neutral
158,RaunerFirst,0,RaunerFirst,-90,-90,left,1,closed,closed,7.994799,0.787806,-146.994,1.489868,1429.284,missing,missing,member007_new,remote,NaN,NaN,0.885057471264368,0.905027932960894,valid,Same-scene
159,RaunerBackHall,0,RaunerBackHall,90,90,right,1,open,open,-9.973969,-1.387939,142.8788,1.127686,1433.015,missing,missing,member007_new,remote,NaN,NaN,0.885057471264368,0.905027932960894,valid,Same-scene
160,Maynard,0,Maynard,-90,-90,right,3,open,open,8.597235,1.841034,-149.7034,1.698486,1437.317,missing,missing,member007_new,remote,NaN,NaN,0.933333333333333,0.905027932960894,invalid,Same-scene
162,NeutralZimmerman,0,Zimmerman,-10,90,left,4,open,open,-8.347351,-0.04888916,59.03159,1.573364,1483.4,missing,missing,member007_new,remote,NaN,NaN,0.9,0.905027932960894,invalid,Neutral
163,Fairbanks,0,Fairbanks,90,90,right,1,closed,closed,-8.488953,-1.039459,161.6896,1.461914,1487.535,missing,missing,member007_new,remote,NaN,NaN,0.885057471264368,0.905027932960894,valid,Same-scene
164,BakerBerryHistoric2,180,BakerBerryHistoric2,270,90,right,1,open,open,-8.808899,1.266635,334.6946,0.9885254,1491.391,missing,missing,member007_new,remote,NaN,NaN,0.885057471264368,0.905027932960894,valid,Same-scene
165,NeutralRaunerFirst,0,RaunerFirst,-90,-90,left,2,closed,closed,6.893865,7.665388,-148.3384,1.308838,1495.485,missing,missing,member007_new,remote,NaN,NaN,0.9375,0.905027932960894,valid,Neutral
166,PineEntrance,0,PineEntrance,90,90,right,1,closed,closed,-16.63083,4.858594,147.1004,0.9886475,1499.077,missing,missing,member007_new,remote,NaN,NaN,0.885057471264368,0.905027932960894,valid,Same-scene
167,NeutralZimmerman,0,Zimmerman,-10,90,right,2,open,open,-11.69458,1.572235,51.19993,1.253052,1502.766,missing,missing,member007_new,remote,NaN,NaN,0.9375,0.905027932960894,valid,Neutral
168,BakerBerryCharter,-90,BakerBerryCharter,-180,-90,right,3,open,open,8.920292,1.048182,-233.1305,1.461914,1506.776,missing,missing,member007_new,remote,NaN,NaN,0.933333333333333,0.905027932960894,invalid,Same-scene
169,53Commons,0,53Commons,-90,-90,right,3,closed,closed,10.53569,-1.68399,-143.5671,1.26709,1510.646,missing,missing,member007_new,remote,NaN,NaN,0.933333333333333,0.905027932960894,invalid,Same-scene
170,NeutralPineEntrance,0,PineEntrance,-90,-90,left,2,open,open,1.816595,13.07327,-143.5417,0.9746094,1514.252,missing,missing,member007_new,remote,NaN,NaN,0.9375,0.905027932960894,valid,Neutral
171,NeutralHop4,0,Hop4,-93,-90,left,2,open,open,5.694708,4.008653,-151.6637,1.057983,1519.194,missing,missing,member007_new,remote,NaN,NaN,0.9375,0.905027932960894,valid,Neutral
172,PineBackHall,180,PineBackHall,90,-90,right,3,open,open,6.274641,8.878193,27.20081,1.420166,1523.135,missing,missing,member007_new,remote,NaN,NaN,0.933333333333333,0.905027932960894,invalid,Same-scene
173,PineEntrance,0,PineEntrance,-90,-90,right,3,open,open,5.695882,1.479646,-147.5486,1.058228,1526.782,missing,missing,member007_new,remote,NaN,NaN,0.933333333333333,0.905027932960894,invalid,Same-scene
174,NeutralRaunerFirst,0,RaunerFirst,90,90,right,2,open,open,-8.69162,2.368589,153.4449,1.447998,1530.764,missing,missing,member007_new,remote,NaN,NaN,0.9375,0.905027932960894,valid,Neutral
175,MooreLot,180,MooreLot,90,-90,left,1,closed,closed,5.785903,4.628684,34.05716,1.11377,1534.314,missing,missing,member007_new,remote,NaN,NaN,0.885057471264368,0.905027932960894,valid,Same-scene
176,RaunerFirst,0,RaunerFirst,-90,-90,right,3,closed,closed,7.261706,2.451412,-147.1163,1.239014,1538.059,missing,missing,member007_new,remote,NaN,NaN,0.933333333333333,0.905027932960894,invalid,Same-scene
178,Maynard,0,Maynard,-90,-90,left,1,open,open,4.977706,-0.3966675,-144.1444,1.072266,1544.965,missing,missing,member007_new,remote,NaN,NaN,0.885057471264368,0.905027932960894,valid,Same-scene
179,Zimmerman,-100,Zimmerman,-10,90,right,1,open,open,-7.419586,-0.04495239,52.78872,1.54541,1549.072,missing,missing,member007_new,remote,NaN,NaN,0.885057471264368,0.905027932960894,valid,Same-scene
181,Maynard,0,Maynard,90,90,left,3,closed,closed,-8.313324,-0.6785278,153.0475,1.503784,1557.801,missing,missing,member007_new,remote,NaN,NaN,0.933333333333333,0.905027932960894,invalid,Same-scene
182,BakerBerryHistoric2,180,BakerBerryHistoric2,90,-90,right,3,closed,closed,8.578665,-2.374878,37.4241,1.211304,1561.546,missing,missing,member007_new,remote,NaN,NaN,0.933333333333333,0.905027932960894,invalid,Same-scene
183,BakerBerry2nd,94,BakerBerry2nd,4,-90,right,3,closed,closed,6.459514,4.149403,-53.83408,1.754272,1565.82,missing,missing,member007_new,remote,NaN,NaN,0.933333333333333,0.905027932960894,invalid,Same-scene
184,PineEntrance,0,PineEntrance,-90,-90,left,1,open,open,8.379517,2.316592,-145.4105,1.169556,1569.468,missing,missing,member007_new,remote,NaN,NaN,0.885057471264368,0.905027932960894,valid,Same-scene
185,Neutral53Commons,0,53Commons,90,90,left,4,open,open,-8.791809,1.487951,156.2568,1.559326,1573.422,missing,missing,member007_new,remote,NaN,NaN,0.9,0.905027932960894,invalid,Neutral
186,NeutralUmplebys,0,Umplebys,40,90,left,4,closed,closed,-5.662933,0.340332,96.55998,1.211792,1577.139,missing,missing,member007_new,remote,NaN,NaN,0.9,0.905027932960894,invalid,Neutral
188,Zimmerman,-100,Zimmerman,-10,90,right,1,open,open,-9.337524,2.787385,51.93736,1.476074,1585.061,missing,missing,member007_new,remote,NaN,NaN,0.885057471264368,0.905027932960894,valid,Same-scene
189,NeutralPineBackHall,0,PineBackHall,90,-90,left,2,open,open,9.138809,2.494831,33.05554,1.406128,1589.419,missing,missing,member007_new,remote,NaN,NaN,0.9375,0.905027932960894,valid,Neutral
190,NeutralMaynard,0,Maynard,90,90,left,4,closed,closed,-6.983185,0.5393425,150.7415,1.308472,1593.748,missing,missing,member007_new,remote,NaN,NaN,0.9,0.905027932960894,invalid,Neutral
191,NeutralBakerBerry2nd,0,BakerBerry2nd,4,-90,right,4,closed,closed,9.199127,0.5116578,-49.6701,1.46167,1597.995,missing,missing,member007_new,remote,NaN,NaN,0.9,0.905027932960894,invalid,Neutral
193,Umplebys,-50,Umplebys,-140,-90,left,1,open,open,8.235913,3.447808,-197.8507,1.294678,1605.763,missing,missing,member007_new,remote,NaN,NaN,0.885057471264368,0.905027932960894,valid,Same-scene
194,NeutralRaunerFirst,0,RaunerFirst,-90,-90,right,4,closed,closed,8.792574,2.870647,-144.4034,1.211548,1609.509,missing,missing,member007_new,remote,NaN,NaN,0.9,0.905027932960894,invalid,Neutral
195,BakerBerryHistoric2,180,BakerBerryHistoric2,270,90,right,1,open,open,-10.75388,5.210042,329.1549,1.267334,1613.268,missing,missing,member007_new,remote,NaN,NaN,0.885057471264368,0.905027932960894,valid,Same-scene
196,NeutralHop4,0,Hop4,87,90,left,4,closed,closed,-8.517517,4.463031,143.5784,1.169434,1616.776,missing,missing,member007_new,remote,NaN,NaN,0.9,0.905027932960894,invalid,Neutral
199,Fairbanks,0,Fairbanks,90,90,left,3,closed,closed,-11.94421,3.757601,149.715,1.26709,1627.97,missing,missing,member007_new,remote,NaN,NaN,0.933333333333333,0.905027932960894,invalid,Same-scene
200,NeutralRollinsChapel3,0,RollinsChapel3,267,90,left,4,closed,closed,-9.407745,2.800558,321.6902,1.322388,1631.728,missing,missing,member007_new,remote,NaN,NaN,0.9,0.905027932960894,invalid,Neutral
202,Fairbanks,0,Fairbanks,-90,-90,left,1,open,open,10.88427,3.368178,-143.6859,2.060669,1639.817,missing,missing,member007_new,remote,NaN,NaN,0.885057471264368,0.905027932960894,valid,Same-scene
203,NeutralMooreLot,0,MooreLot,90,-90,left,2,closed,closed,8.832176,3.875839,29.39224,1.54541,1643.896,missing,missing,member007_new,remote,NaN,NaN,0.9375,0.905027932960894,valid,Neutral
204,Hop2,-1,Hop2,-91,-90,right,3,closed,closed,8.597855,3.521535,-146.695,1.18335,1647.697,missing,missing,member007_new,remote,NaN,NaN,0.933333333333333,0.905027932960894,invalid,Same-scene
205,PineBackHall,180,PineBackHall,90,-90,left,1,open,open,7.48478,2.90329,32.36874,1.61499,1652.152,missing,missing,member007_new,remote,NaN,NaN,0.885057471264368,0.905027932960894,valid,Same-scene
209,NeutralUmplebys,0,Umplebys,40,90,right,2,closed,closed,-10.57489,5.312823,99.69984,1.545288,1667.565,missing,missing,member007_new,remote,NaN,NaN,0.9375,0.905027932960894,valid,Neutral
210,RollinsChapel3,177,RollinsChapel3,267,90,left,3,closed,closed,-8.917572,2.455418,325.2798,1.25293,1671.421,missing,missing,member007_new,remote,NaN,NaN,0.933333333333333,0.905027932960894,invalid,Same-scene
213,RollinsChapel3,177,RollinsChapel3,87,-90,right,3,open,open,3.050914,1.641389,31.90582,1.183228,1682.754,missing,missing,member007_new,remote,NaN,NaN,0.933333333333333,0.905027932960894,invalid,Same-scene
214,BakerBerryCharter,-90,BakerBerryCharter,0,90,right,1,closed,closed,-7.225891,0.4139195,61.45226,1.002563,1686.332,missing,missing,member007_new,remote,NaN,NaN,0.885057471264368,0.905027932960894,valid,Same-scene
215,53Commons,0,53Commons,90,90,right,1,open,open,-6.734375,-0.2536926,143.1407,1.266968,1690.049,missing,missing,member007_new,remote,NaN,NaN,0.885057471264368,0.905027932960894,valid,Same-scene
216,RaunerBackHall,0,RaunerBackHall,90,90,left,3,open,open,-6.522675,1.620676,149.362,1.197632,1693.739,missing,missing,member007_new,remote,NaN,NaN,0.933333333333333,0.905027932960894,invalid,Same-scene
1,RaunerFirst,0,RaunerFirst,90,90,right,1,open,open,-12.20529,1.137803,157.1513,0.9608154,552.5089,missing,missing,member008_new,remote,NaN,NaN,0.98019801980198,0.931372549019608,valid,Same-scene
5,NeutralBakerBerryHistoric2,0,BakerBerryHistoric2,90,-90,right,4,closed,closed,2.104574,-3.772034,23.00986,0.8493042,566.2115,missing,missing,member008_new,remote,NaN,NaN,0.857142857142857,0.931372549019608,invalid,Neutral
6,PineEntrance,0,PineEntrance,-90,-90,left,1,open,open,0.6167542,1.65325,-176.2109,1.308716,569.6785,missing,missing,member008_new,remote,NaN,NaN,0.98019801980198,0.931372549019608,valid,Same-scene
7,AllenSt,0,AllenSt,90,90,right,1,closed,closed,-7.293427,2.773239,173.9673,0.8633423,573.3962,missing,missing,member008_new,remote,NaN,NaN,0.98019801980198,0.931372549019608,valid,Same-scene
8,RaunerFirst,0,RaunerFirst,90,90,right,1,open,open,-7.667633,2.604289,165.0705,0.8355713,576.515,missing,missing,member008_new,remote,NaN,NaN,0.98019801980198,0.931372549019608,valid,Same-scene
9,MooreLot,180,MooreLot,90,-90,left,1,closed,closed,0.6103764,-1.079926,7.698303,0.62854,579.3573,missing,missing,member008_new,remote,NaN,NaN,0.98019801980198,0.931372549019608,valid,Same-scene
10,Neutral53Commons,0,53Commons,90,90,right,2,open,open,-5.452759,4.24522,179.1026,0.8772583,582.406,missing,missing,member008_new,remote,NaN,NaN,0.857142857142857,0.931372549019608,valid,Neutral
11,NeutralBakerBerryCharter,0,BakerBerryCharter,0,90,right,2,closed,closed,-6.049957,3.097543,84.65836,0.8213501,585.4071,missing,missing,member008_new,remote,NaN,NaN,0.857142857142857,0.931372549019608,valid,Neutral
12,McLaughlinCluster,172,McLaughlinCluster,82,-90,left,1,closed,closed,-1.151062,-6.052368,12.55167,0.9328613,588.5958,missing,missing,member008_new,remote,NaN,NaN,0.98019801980198,0.931372549019608,valid,Same-scene
13,RaunerBackHall,0,RaunerBackHall,-90,-90,left,1,closed,closed,1.832631,-1.363342,-164.6735,0.6821899,591.464,missing,missing,member008_new,remote,NaN,NaN,0.98019801980198,0.931372549019608,valid,Same-scene
14,PineEntrance,0,PineEntrance,90,90,left,3,closed,closed,-6.276642,1.283231,157.7494,0.617308830423438,594.7639,missing,missing,member008_new,remote,NaN,NaN,0.939393939393939,0.931372549019608,invalid,Same-scene
15,BakerBerry2nd,94,BakerBerry2nd,4,-90,left,1,closed,closed,3.487904,0.2574954,-74.41626,0.7797241,597.813,missing,missing,member008_new,remote,NaN,NaN,0.98019801980198,0.931372549019608,valid,Same-scene
16,PineEntrance,0,PineEntrance,-90,-90,left,1,open,open,3.572136,2.533029,-168.9463,0.8215942,601.0573,missing,missing,member008_new,remote,NaN,NaN,0.98019801980198,0.931372549019608,valid,Same-scene
17,McLaughlinCluster,172,McLaughlinCluster,262,90,right,1,open,open,-5.493561,5.686239,343.6338,1.016479,604.2458,missing,missing,member008_new,remote,NaN,NaN,0.98019801980198,0.931372549019608,valid,Same-scene
18,53Commons,0,53Commons,90,90,right,1,open,open,-5.722168,3.209263,170.5201,0.8911743,607.3089,missing,missing,member008_new,remote,NaN,NaN,0.98019801980198,0.931372549019608,valid,Same-scene
19,Hop4,-3,Hop4,-93,-90,right,3,open,open,1.158337,4.749758,-172.701,0.733982540399928,610.6227,missing,missing,member008_new,remote,NaN,NaN,0.939393939393939,0.931372549019608,invalid,Same-scene
20,MooreLot,180,MooreLot,270,90,right,1,open,open,-4.642578,5.574396,329.5072,0.8215332,613.8112,missing,missing,member008_new,remote,NaN,NaN,0.98019801980198,0.931372549019608,valid,Same-scene
21,McLaughlinCluster,172,McLaughlinCluster,262,90,right,1,open,open,-5.982452,4.708783,351.2266,0.7659302,616.9717,missing,missing,member008_new,remote,NaN,NaN,0.98019801980198,0.931372549019608,valid,Same-scene
22,AllenSt,0,AllenSt,-90,-90,right,3,open,open,1.687197,4.342379,-169.5417,0.747783340397544,620.216,missing,missing,member008_new,remote,NaN,NaN,0.939393939393939,0.931372549019608,invalid,Same-scene
23,Hop4,-3,Hop4,87,90,right,1,closed,closed,-5.380524,5.376164,135.381,0.696167,623.2234,missing,missing,member008_new,remote,NaN,NaN,0.98019801980198,0.931372549019608,valid,Same-scene
24,BakerBerryHistoric2,180,BakerBerryHistoric2,90,-90,left,1,closed,closed,2.213526,1.153299,14.65839,0.5709229,626.1195,missing,missing,member008_new,remote,NaN,NaN,0.98019801980198,0.931372549019608,valid,Same-scene
26,Umplebys,-50,Umplebys,40,90,right,1,closed,closed,-5.842529,4.543439,115.8207,0.9328613,632.594,missing,missing,member008_new,remote,NaN,NaN,0.98019801980198,0.931372549019608,valid,Same-scene
27,NeutralBakerBerry2nd,0,BakerBerry2nd,184,90,right,2,open,open,-6.736298,5.186908,257.9544,0.8771973,635.8475,missing,missing,member008_new,remote,NaN,NaN,0.857142857142857,0.931372549019608,valid,Neutral
28,McLaughlinCluster,172,McLaughlinCluster,82,-90,right,3,closed,closed,1.554927,0.3543881,12.61871,0.705841040412445,638.9664,missing,missing,member008_new,remote,NaN,NaN,0.939393939393939,0.931372549019608,invalid,Same-scene
29,NeutralZimmerman,0,Zimmerman,-190,-90,left,2,closed,closed,4.318513,-0.8485718,-239.6073,1.085754,642.399,missing,missing,member008_new,remote,NaN,NaN,0.857142857142857,0.931372549019608,valid,Neutral
30,RaunerBackHall,0,RaunerBackHall,-90,-90,left,1,closed,closed,2.897929,0.8553607,-153.8749,0.626709,645.2953,missing,missing,member008_new,remote,NaN,NaN,0.98019801980198,0.931372549019608,valid,Same-scene
31,BakerBerryCharter,-90,BakerBerryCharter,-180,-90,left,1,open,open,4.562307,0.4198192,-251.8772,0.7102661,648.3586,missing,missing,member008_new,remote,NaN,NaN,0.98019801980198,0.931372549019608,valid,Same-scene
32,Umplebys,-50,Umplebys,40,90,right,1,closed,closed,-7.569885,5.477287,119.8673,0.8217773,651.5472,missing,missing,member008_new,remote,NaN,NaN,0.98019801980198,0.931372549019608,valid,Same-scene
34,AllenSt,0,AllenSt,-90,-90,left,1,open,open,1.372292,3.299979,-167.2658,0.9191284,657.9518,missing,missing,member008_new,remote,NaN,NaN,0.98019801980198,0.931372549019608,valid,Same-scene
35,RaunerFirst,0,RaunerFirst,90,90,left,3,open,open,-7.63324,4.862698,172.5884,0.659122030427015,661.238,missing,missing,member008_new,remote,NaN,NaN,0.939393939393939,0.931372549019608,invalid,Same-scene
36,BakerBerry2nd,94,BakerBerry2nd,4,-90,left,1,closed,closed,3.871602,2.778698,-70.17868,0.7658691,664.3566,missing,missing,member008_new,remote,NaN,NaN,0.98019801980198,0.931372549019608,valid,Same-scene
37,McLaughlinCluster,172,McLaughlinCluster,82,-90,left,1,closed,closed,2.251416,-1.705414,18.56171,0.7936401,667.4614,missing,missing,member008_new,remote,NaN,NaN,0.98019801980198,0.931372549019608,valid,Same-scene
38,Hop2,-1,Hop2,-91,-90,left,1,closed,closed,1.806276,1.8793,-165.8491,0.6962891,670.5526,missing,missing,member008_new,remote,NaN,NaN,0.98019801980198,0.931372549019608,valid,Same-scene
39,Umplebys,-50,Umplebys,-140,-90,left,1,open,open,1.982467,3.183771,-213.6171,0.7800293,673.5461,missing,missing,member008_new,remote,NaN,NaN,0.98019801980198,0.931372549019608,valid,Same-scene
40,BakerBerryHistoric2,180,BakerBerryHistoric2,90,-90,left,1,closed,closed,2.333969,1.240451,17.50732,0.6125488,676.3585,missing,missing,member008_new,remote,NaN,NaN,0.98019801980198,0.931372549019608,valid,Same-scene
41,NeutralUmplebys,0,Umplebys,-140,-90,right,4,open,open,0.9616607,4.598602,-209.8478,1.044434,679.5615,missing,missing,member008_new,remote,NaN,NaN,0.857142857142857,0.931372549019608,invalid,Neutral
42,RaunerBackHall,0,RaunerBackHall,90,90,right,1,open,open,-6.291779,4.427026,160.5399,0.756640630426419,682.9032,missing,missing,member008_new,remote,NaN,NaN,0.98019801980198,0.931372549019608,valid,Same-scene
43,BakerBerryCharter,-90,BakerBerryCharter,0,90,right,1,closed,closed,-6.406036,6.222696,74.35833,0.840211630429995,686.1612,missing,missing,member008_new,remote,NaN,NaN,0.98019801980198,0.931372549019608,valid,Same-scene
44,NeutralPineEntrance,0,PineEntrance,90,90,right,2,closed,closed,-6.918732,4.776886,155.9566,0.9194336,689.3842,missing,missing,member008_new,remote,NaN,NaN,0.857142857142857,0.931372549019608,valid,Neutral
45,53Commons,0,53Commons,90,90,left,3,open,open,-8.199585,2.811512,160.233,0.9190674,692.614,missing,missing,member008_new,remote,NaN,NaN,0.939393939393939,0.931372549019608,invalid,Same-scene
46,NeutralMcLaughlinCluster,0,McLaughlinCluster,262,90,right,2,open,open,-8.648254,2.190267,340.8125,0.8913574,695.8451,missing,missing,member008_new,remote,NaN,NaN,0.857142857142857,0.931372549019608,valid,Neutral
47,Fairbanks,0,Fairbanks,-90,-90,right,3,open,open,4.679461,0.8796891,-164.3748,1.002625,699.1588,missing,missing,member008_new,remote,NaN,NaN,0.939393939393939,0.931372549019608,invalid,Same-scene
49,BakerBerryHistoric2,180,BakerBerryHistoric2,270,90,left,3,open,open,-7.741791,7.596962,350.0326,0.8912354,705.7363,missing,missing,member008_new,remote,NaN,NaN,0.939393939393939,0.931372549019608,invalid,Same-scene
50,Hop2,-1,Hop2,-91,-90,left,1,closed,closed,2.911839,-0.05026245,-165.9492,0.7797852,708.7437,missing,missing,member008_new,remote,NaN,NaN,0.98019801980198,0.931372549019608,valid,Same-scene
51,NeutralPineBackHall,0,PineBackHall,270,90,right,2,closed,closed,-8.059296,2.849321,343.0681,0.9468994,712.0427,missing,missing,member008_new,remote,NaN,NaN,0.857142857142857,0.931372549019608,valid,Neutral
52,BakerBerryCharter,-90,BakerBerryCharter,-180,-90,left,1,open,open,5.814663,0.6145942,-251.9415,0.682373,715.1059,missing,missing,member008_new,remote,NaN,NaN,0.98019801980198,0.931372549019608,valid,Same-scene
53,53Commons,0,53Commons,-90,-90,left,1,closed,closed,4.216186,-0.2750549,-165.6659,1.016418,724.4485,missing,missing,member008_new,remote,NaN,NaN,0.98019801980198,0.931372549019608,valid,Same-scene
54,BakerBerry2nd,94,BakerBerry2nd,184,90,right,1,open,open,-9.27243,1.395575,260.2208,0.8075562,727.428,missing,missing,member008_new,remote,NaN,NaN,0.98019801980198,0.931372549019608,valid,Same-scene
55,Hop4,-3,Hop4,-93,-90,left,1,open,open,5.616997,1.028847,-159.1011,0.9468994,730.6445,missing,missing,member008_new,remote,NaN,NaN,0.98019801980198,0.931372549019608,valid,Same-scene
56,MooreLot,180,MooreLot,270,90,right,1,open,open,-14.71472,4.576564,338.1055,0.7382202,733.6659,missing,missing,member008_new,remote,NaN,NaN,0.98019801980198,0.931372549019608,valid,Same-scene
57,Hop4,-3,Hop4,-93,-90,left,1,open,open,6.407297,1.801745,-167.5062,0.6127319,736.5202,missing,missing,member008_new,remote,NaN,NaN,0.98019801980198,0.931372549019608,valid,Same-scene
58,Fairbanks,0,Fairbanks,-90,-90,left,1,open,open,6.16221,-1.450714,-164.3701,0.9329834,739.7643,missing,missing,member008_new,remote,NaN,NaN,0.98019801980198,0.931372549019608,valid,Same-scene
59,Zimmerman,-100,Zimmerman,-10,90,right,1,open,open,-14.81934,0.7713613,65.09753,0.8493652,743.0224,missing,missing,member008_new,remote,NaN,NaN,0.98019801980198,0.931372549019608,valid,Same-scene
60,NeutralAllenSt,0,AllenSt,-90,-90,right,4,open,open,6.58202,2.899907,-163.6891,1.044312,746.4468,missing,missing,member008_new,remote,NaN,NaN,0.857142857142857,0.931372549019608,invalid,Neutral
61,NeutralBakerBerry2nd,0,BakerBerry2nd,4,-90,left,2,closed,closed,4.987728,-1.239746,-70.89661,0.7797241,749.6076,missing,missing,member008_new,remote,NaN,NaN,0.857142857142857,0.931372549019608,valid,Neutral
63,RollinsChapel3,177,RollinsChapel3,87,-90,left,1,open,open,5.042776,1.067562,19.72964,0.7936401,756.0402,missing,missing,member008_new,remote,NaN,NaN,0.98019801980198,0.931372549019608,valid,Same-scene
65,53Commons,0,53Commons,-90,-90,left,1,closed,closed,5.809042,0.6490814,-160.6558,0.7103882,761.9946,missing,missing,member008_new,remote,NaN,NaN,0.98019801980198,0.931372549019608,valid,Same-scene
66,Umplebys,-50,Umplebys,40,90,right,1,closed,closed,-10.4791,5.933031,118.4902,0.7659302,765.0021,missing,missing,member008_new,remote,NaN,NaN,0.98019801980198,0.931372549019608,valid,Same-scene
67,RaunerBackHall,0,RaunerBackHall,-90,-90,right,3,closed,closed,5.373557,3.899727,-157.9746,0.8764038,768.0931,missing,missing,member008_new,remote,NaN,NaN,0.939393939393939,0.931372549019608,invalid,Same-scene
68,NeutralMooreLot,0,MooreLot,270,90,right,2,open,open,-5.167755,7.071633,334.5312,0.8354492,771.3192,missing,missing,member008_new,remote,NaN,NaN,0.857142857142857,0.931372549019608,valid,Neutral
69,BakerBerry2nd,94,BakerBerry2nd,184,90,right,1,open,open,-5.436127,3.545521,253.7881,0.7936401,774.438,missing,missing,member008_new,remote,NaN,NaN,0.98019801980198,0.931372549019608,valid,Same-scene
70,NeutralMcLaughlinCluster,0,McLaughlinCluster,262,90,left,4,open,open,-8.666077,4.820273,334.3351,0.9608765,777.7797,missing,missing,member008_new,remote,NaN,NaN,0.857142857142857,0.931372549019608,invalid,Neutral
72,NeutralPineEntrance,0,PineEntrance,90,90,left,4,closed,closed,-9.004425,-0.2677307,147.506,1.211487,784.8806,missing,missing,member008_new,remote,NaN,NaN,0.857142857142857,0.931372549019608,invalid,Neutral
73,NeutralRaunerBackHall,0,RaunerBackHall,90,90,left,4,open,open,-8.110535,6.151721,166.0096,1.016418,788.2042,missing,missing,member008_new,remote,NaN,NaN,0.857142857142857,0.931372549019608,invalid,Neutral
74,Hop2,-1,Hop2,89,90,right,1,open,open,-5.209656,4.624185,165.1958,0.668457,791.1979,missing,missing,member008_new,remote,NaN,NaN,0.98019801980198,0.931372549019608,valid,Same-scene
76,BakerBerryHistoric2,180,BakerBerryHistoric2,270,90,right,1,open,open,-5.331604,9.383932,336.3743,0.7380981,797.686,missing,missing,member008_new,remote,NaN,NaN,0.98019801980198,0.931372549019608,valid,Same-scene
77,NeutralMcLaughlinCluster,0,McLaughlinCluster,82,-90,left,2,closed,closed,-1.698669,-5.742401,21.95081,1.05835,801.1391,missing,missing,member008_new,remote,NaN,NaN,0.857142857142857,0.931372549019608,valid,Neutral
78,53Commons,0,53Commons,-90,-90,left,1,closed,closed,4.660613,-2.392822,-159.6403,0.8632813,804.4251,missing,missing,member008_new,remote,NaN,NaN,0.98019801980198,0.931372549019608,valid,Same-scene
79,NeutralRollinsChapel3,0,RollinsChapel3,267,90,right,2,closed,closed,-8.369354,2.139968,316.6061,1.030518,807.6089,missing,missing,member008_new,remote,NaN,NaN,0.857142857142857,0.931372549019608,valid,Neutral
80,NeutralHop2,0,Hop2,89,90,right,2,open,open,-8.235931,3.564116,159.4735,0.8215332,810.6425,missing,missing,member008_new,remote,NaN,NaN,0.857142857142857,0.931372549019608,valid,Neutral
81,Zimmerman,-100,Zimmerman,-10,90,left,3,open,open,-12.4155,4.707346,65.11271,1.04861863044251,814.3598,missing,missing,member008_new,remote,NaN,NaN,0.939393939393939,0.931372549019608,invalid,Same-scene
82,Hop2,-1,Hop2,89,90,right,1,open,open,-11.909,2.516842,172.443,0.710022,817.4509,missing,missing,member008_new,remote,NaN,NaN,0.98019801980198,0.931372549019608,valid,Same-scene
83,Umplebys,-50,Umplebys,-140,-90,left,1,open,open,5.989792,0.7346503,-209.5752,0.8075562,820.6672,missing,missing,member008_new,remote,NaN,NaN,0.98019801980198,0.931372549019608,valid,Same-scene
84,MooreLot,180,MooreLot,270,90,right,1,open,open,-8.215149,3.138588,341.8582,0.8770142,823.9252,missing,missing,member008_new,remote,NaN,NaN,0.98019801980198,0.931372549019608,valid,Same-scene
85,Zimmerman,-100,Zimmerman,-190,-90,left,1,closed,closed,10.3215,-0.3562622,-263.7055,0.8912354,827.1834,missing,missing,member008_new,remote,NaN,NaN,0.98019801980198,0.931372549019608,valid,Same-scene
86,53Commons,0,53Commons,90,90,right,1,open,open,-9.588837,5.522031,162.7266,0.7796021,830.3579,missing,missing,member008_new,remote,NaN,NaN,0.98019801980198,0.931372549019608,valid,Same-scene
87,NeutralRollinsChapel3,0,RollinsChapel3,87,-90,right,4,open,open,2.034461,1.098009,19.24152,0.817367040416022,833.7692,missing,missing,member008_new,remote,NaN,NaN,0.857142857142857,0.931372549019608,invalid,Neutral
88,AllenSt,0,AllenSt,90,90,right,1,closed,closed,-9.253876,4.338949,154.3959,0.9608765,837.0135,missing,missing,member008_new,remote,NaN,NaN,0.98019801980198,0.931372549019608,valid,Same-scene
89,RaunerBackHall,0,RaunerBackHall,-90,-90,left,1,closed,closed,3.616544,-4.139343,-154.5508,0.668335,839.9791,missing,missing,member008_new,remote,NaN,NaN,0.98019801980198,0.931372549019608,valid,Same-scene
90,NeutralAllenSt,0,AllenSt,90,90,right,2,closed,closed,-8.449066,2.866692,156.483,0.7521973,843.1121,missing,missing,member008_new,remote,NaN,NaN,0.857142857142857,0.931372549019608,valid,Neutral
91,NeutralMcLaughlinCluster,0,McLaughlinCluster,82,-90,right,4,closed,closed,-0.4630432,-4.097504,10.14886,1.350403,846.7596,missing,missing,member008_new,remote,NaN,NaN,0.857142857142857,0.931372549019608,invalid,Neutral
93,AllenSt,0,AllenSt,-90,-90,left,1,open,open,2.459944,1.243792,-166.2274,0.7796021,854.1114,missing,missing,member008_new,remote,NaN,NaN,0.98019801980198,0.931372549019608,valid,Same-scene
94,BakerBerry2nd,94,BakerBerry2nd,4,-90,left,1,closed,closed,4.261546,1.695947,-75.08212,1.058289,857.5504,missing,missing,member008_new,remote,NaN,NaN,0.98019801980198,0.931372549019608,valid,Same-scene
95,NeutralBakerBerryHistoric2,0,BakerBerryHistoric2,270,90,left,4,open,open,-6.953644,6.734598,345.5336,0.825554630433571,860.7389,missing,missing,member008_new,remote,NaN,NaN,0.857142857142857,0.931372549019608,invalid,Neutral
96,Umplebys,-50,Umplebys,-140,-90,right,3,open,open,2.219934,4.054654,-218.6487,1.030273,863.9272,missing,missing,member008_new,remote,NaN,NaN,0.939393939393939,0.931372549019608,invalid,Same-scene
97,PineBackHall,180,PineBackHall,90,-90,left,1,open,open,3.24387,2.533626,12.27899,0.9191284,867.0462,missing,missing,member008_new,remote,NaN,NaN,0.98019801980198,0.931372549019608,valid,Same-scene
98,BakerBerry2nd,94,BakerBerry2nd,184,90,right,1,open,open,-5.691345,2.475015,260.6261,1.016479,870.4157,missing,missing,member008_new,remote,NaN,NaN,0.98019801980198,0.931372549019608,valid,Same-scene
99,McLaughlinCluster,172,McLaughlinCluster,82,-90,left,1,closed,closed,0.2169713,-5.225739,12.79889,1.002441,873.7712,missing,missing,member008_new,remote,NaN,NaN,0.98019801980198,0.931372549019608,valid,Same-scene
100,NeutralHop2,0,Hop2,-91,-90,right,4,closed,closed,3.523033,0.6503383,-170.0249,1.086304,877.0154,missing,missing,member008_new,remote,NaN,NaN,0.857142857142857,0.931372549019608,invalid,Neutral
101,MooreLot,180,MooreLot,270,90,left,3,open,open,-6.090668,3.64484,347.1783,0.9189453,880.357,missing,missing,member008_new,remote,NaN,NaN,0.939393939393939,0.931372549019608,invalid,Same-scene
102,RaunerFirst,0,RaunerFirst,-90,-90,left,1,closed,closed,2.570457,-0.4586792,-163.1624,0.7099609,883.4618,missing,missing,member008_new,remote,NaN,NaN,0.98019801980198,0.931372549019608,valid,Same-scene
103,PineBackHall,180,PineBackHall,270,90,left,3,closed,closed,-8.986725,1.671401,343.0381,1.225342,887.11,missing,missing,member008_new,remote,NaN,NaN,0.939393939393939,0.931372549019608,invalid,Same-scene
104,Hop4,-3,Hop4,87,90,left,3,closed,closed,-6.688477,4.004437,147.6824,0.7797852,890.2705,missing,missing,member008_new,remote,NaN,NaN,0.939393939393939,0.931372549019608,invalid,Same-scene
107,NeutralHop4,0,Hop4,-93,-90,right,4,open,open,12.14185,4.623819,-160.2206,1.197388,905.8093,missing,missing,member008_new,remote,NaN,NaN,0.857142857142857,0.931372549019608,invalid,Neutral
108,Maynard,0,Maynard,90,90,right,1,closed,closed,-11.95914,0.3591623,146.3427,1.294922,909.4851,missing,missing,member008_new,remote,NaN,NaN,0.98019801980198,0.931372549019608,valid,Same-scene
109,Neutral53Commons,0,53Commons,-90,-90,right,4,closed,closed,8.655973,4.434514,-154.1613,0.9885254,912.8266,missing,missing,member008_new,remote,NaN,NaN,0.857142857142857,0.931372549019608,invalid,Neutral
110,RollinsChapel3,177,RollinsChapel3,267,90,right,1,closed,closed,-15.9968,2.40977,331.02,1.058044,916.2657,missing,missing,member008_new,remote,NaN,NaN,0.98019801980198,0.931372549019608,valid,Same-scene
111,NeutralUmplebys,0,Umplebys,-140,-90,left,2,open,open,14.59925,0.5083977,-204.9467,0.8909912,919.4681,missing,missing,member008_new,remote,NaN,NaN,0.857142857142857,0.931372549019608,valid,Neutral
114,McLaughlinCluster,172,McLaughlinCluster,262,90,right,1,open,open,-9.42749,3.251457,321.4594,0.8493652,929.145,missing,missing,member008_new,remote,NaN,NaN,0.98019801980198,0.931372549019608,valid,Same-scene
115,AllenSt,0,AllenSt,-90,-90,left,1,open,open,9.16518,0.2705346,-157.9895,0.8772583,932.3892,missing,missing,member008_new,remote,NaN,NaN,0.98019801980198,0.931372549019608,valid,Same-scene
116,Fairbanks,0,Fairbanks,90,90,right,1,closed,closed,-8.007721,-1.334869,136.856,0.7520142,935.4523,missing,missing,member008_new,remote,NaN,NaN,0.98019801980198,0.931372549019608,valid,Same-scene
117,NeutralBakerBerryCharter,0,BakerBerryCharter,0,90,left,4,closed,closed,-9.725494,1.292691,54.68813,0.742794130432379,938.7938,missing,missing,member008_new,remote,NaN,NaN,0.857142857142857,0.931372549019608,invalid,Neutral
118,NeutralAllenSt,0,AllenSt,90,90,left,4,closed,closed,-9.639557,2.041853,148.0901,0.8075562,941.8013,missing,missing,member008_new,remote,NaN,NaN,0.857142857142857,0.931372549019608,invalid,Neutral
119,Zimmerman,-100,Zimmerman,-190,-90,left,1,closed,closed,8.399639,-2.230713,-259.6367,0.8911133,944.9759,missing,missing,member008_new,remote,NaN,NaN,0.98019801980198,0.931372549019608,valid,Same-scene
121,NeutralRaunerBackHall,0,RaunerBackHall,-90,-90,left,2,closed,closed,10.74613,-1.304443,-136.526,1.155884,951.4504,missing,missing,member008_new,remote,NaN,NaN,0.857142857142857,0.931372549019608,valid,Neutral
123,Maynard,0,Maynard,-90,-90,left,1,open,open,7.942539,1.624638,-166.1637,1.058411,957.8552,missing,missing,member008_new,remote,NaN,NaN,0.98019801980198,0.931372549019608,valid,Same-scene
124,AllenSt,0,AllenSt,90,90,left,3,closed,closed,-9.137848,3.910256,156.7294,0.9329834,960.96,missing,missing,member008_new,remote,NaN,NaN,0.939393939393939,0.931372549019608,invalid,Same-scene
125,PineBackHall,180,PineBackHall,270,90,right,1,closed,closed,-6.740021,2.947665,322.3099,0.5430298,963.9536,missing,missing,member008_new,remote,NaN,NaN,0.98019801980198,0.931372549019608,valid,Same-scene
126,Hop2,-1,Hop2,89,90,right,1,open,open,-7.898956,-0.3074036,152.0772,0.6824951,967.0167,missing,missing,member008_new,remote,NaN,NaN,0.98019801980198,0.931372549019608,valid,Same-scene
128,AllenSt,0,AllenSt,90,90,right,1,closed,closed,-8.184723,1.63307,162.619,0.6682739,973.324,missing,missing,member008_new,remote,NaN,NaN,0.98019801980198,0.931372549019608,valid,Same-scene
129,NeutralMaynard,0,Maynard,-90,-90,right,4,open,open,7.571365,1.973554,-157.8846,0.8634033,976.429,missing,missing,member008_new,remote,NaN,NaN,0.857142857142857,0.931372549019608,invalid,Neutral
130,NeutralRollinsChapel3,0,RollinsChapel3,87,-90,left,2,open,open,7.689507,0.0845708,17.83789,0.8078003,979.6733,missing,missing,member008_new,remote,NaN,NaN,0.857142857142857,0.931372549019608,valid,Neutral
131,BakerBerryCharter,-90,BakerBerryCharter,0,90,right,1,closed,closed,-9.387787,2.346016,50.77574,0.5432739,982.5414,missing,missing,member008_new,remote,NaN,NaN,0.98019801980198,0.931372549019608,valid,Same-scene
132,NeutralAllenSt,0,AllenSt,-90,-90,left,2,open,open,8.437677,0.3207884,-157.8616,0.8771973,985.7715,missing,missing,member008_new,remote,NaN,NaN,0.857142857142857,0.931372549019608,valid,Neutral
133,BakerBerryHistoric2,180,BakerBerryHistoric2,90,-90,left,1,closed,closed,6.638752,2.736541,22.04611,1.058105,989.1689,missing,missing,member008_new,remote,NaN,NaN,0.98019801980198,0.931372549019608,valid,Same-scene
135,BakerBerry2nd,94,BakerBerry2nd,184,90,left,3,open,open,-7.756012,-0.05722046,231.8383,1.002441,995.866,missing,missing,member008_new,remote,NaN,NaN,0.939393939393939,0.931372549019608,invalid,Same-scene
136,NeutralZimmerman,0,Zimmerman,-190,-90,right,4,closed,closed,7.780507,0.7629886,-258.2014,1.071899,999.3609,missing,missing,member008_new,remote,NaN,NaN,0.857142857142857,0.931372549019608,invalid,Neutral
137,Maynard,0,Maynard,-90,-90,left,1,open,open,7.522853,0.8697438,-162.5151,1.016357,1002.73,missing,missing,member008_new,remote,NaN,NaN,0.98019801980198,0.931372549019608,valid,Same-scene
138,NeutralBakerBerryHistoric2,0,BakerBerryHistoric2,90,-90,left,2,closed,closed,5.516121,-1.551025,26.76105,0.8912964,1005.961,missing,missing,member008_new,remote,NaN,NaN,0.857142857142857,0.931372549019608,valid,Neutral
139,RollinsChapel3,177,RollinsChapel3,267,90,right,1,closed,closed,-15.00925,0.5136465,325.4718,1.169556,1009.455,missing,missing,member008_new,remote,NaN,NaN,0.98019801980198,0.931372549019608,valid,Same-scene
140,Fairbanks,0,Fairbanks,90,90,right,1,closed,closed,-12.08124,0.9490346,163.0569,1.072144,1012.922,missing,missing,member008_new,remote,NaN,NaN,0.98019801980198,0.931372549019608,valid,Same-scene
141,RollinsChapel3,177,RollinsChapel3,87,-90,left,1,open,open,4.73441,0.8259834,23.30789,0.8215942,1016.083,missing,missing,member008_new,remote,NaN,NaN,0.98019801980198,0.931372549019608,valid,Same-scene
142,NeutralRaunerBackHall,0,RaunerBackHall,90,90,right,2,open,open,-8.715302,-2.296844,149.8951,0.9745483,1019.397,missing,missing,member008_new,remote,NaN,NaN,0.857142857142857,0.931372549019608,valid,Neutral
144,PineEntrance,0,PineEntrance,90,90,right,1,closed,closed,-9.595703,-0.5644531,144.6174,0.6126709,1025.76,missing,missing,member008_new,remote,NaN,NaN,0.98019801980198,0.931372549019608,valid,Same-scene
145,NeutralPineBackHall,0,PineBackHall,90,-90,right,4,open,open,7.151309,1.381238,23.81403,1.002808,1029.171,missing,missing,member008_new,remote,NaN,NaN,0.857142857142857,0.931372549019608,invalid,Neutral
146,NeutralHop2,0,Hop2,-91,-90,left,2,closed,closed,8.491218,1.621675,-160.8979,1.044067,1032.499,missing,missing,member008_new,remote,NaN,NaN,0.857142857142857,0.931372549019608,valid,Neutral
147,PineBackHall,180,PineBackHall,270,90,right,1,closed,closed,-9.136353,-0.9772949,318.3523,0.8220215,1035.729,missing,missing,member008_new,remote,NaN,NaN,0.98019801980198,0.931372549019608,valid,Same-scene
149,McLaughlinCluster,172,McLaughlinCluster,262,90,left,3,open,open,-15.44077,-0.07388306,317.1245,1.016479,1042.148,missing,missing,member008_new,remote,NaN,NaN,0.939393939393939,0.931372549019608,invalid,Same-scene
150,Neutral53Commons,0,53Commons,-90,-90,left,2,closed,closed,8.999325,0.3193028,-152.6488,1.058228,1045.364,missing,missing,member008_new,remote,NaN,NaN,0.857142857142857,0.931372549019608,valid,Neutral
151,Hop2,-1,Hop2,-91,-90,left,1,closed,closed,9.68755,1.994398,-155.7538,0.8771973,1048.552,missing,missing,member008_new,remote,NaN,NaN,0.98019801980198,0.931372549019608,valid,Same-scene
152,Hop4,-3,Hop4,-93,-90,left,1,open,open,8.185068,0.5871274,-148.0691,0.668457,1051.602,missing,missing,member008_new,remote,NaN,NaN,0.98019801980198,0.931372549019608,valid,Same-scene
153,Zimmerman,-100,Zimmerman,-190,-90,left,1,closed,closed,7.183781,-2.542328,-250.2993,0.7935791,1054.804,missing,missing,member008_new,remote,NaN,NaN,0.98019801980198,0.931372549019608,valid,Same-scene
154,NeutralMaynard,0,Maynard,-90,-90,left,2,open,open,13.49563,-1.768494,-160.2596,0.8632813,1058.076,missing,missing,member008_new,remote,NaN,NaN,0.857142857142857,0.931372549019608,valid,Neutral
155,BakerBerryCharter,-90,BakerBerryCharter,-180,-90,left,1,open,open,7.89615,0.1213034,-249.9067,0.6826172,1061.181,missing,missing,member008_new,remote,NaN,NaN,0.98019801980198,0.931372549019608,valid,Same-scene
156,NeutralPineEntrance,0,PineEntrance,-90,-90,right,4,open,open,9.78981,1.726288,-156.7147,1.016602,1064.523,missing,missing,member008_new,remote,NaN,NaN,0.857142857142857,0.931372549019608,invalid,Neutral
