trialIdx,primeName,primeAngleYaw,targetName,targetAngleYaw,targetSide,sameScenePrime,correctResponse,response,roll,pitch,yaw,rt,timestamp,condition,familiarityPrime,familiarityTarget,subject_id,session_format,explicit_acc_scenewise_prime,explicit_acc_scenewise_target,oc_acc_by_condition,oc_acc
1,neutral,0,RaunerFirst,-90,-90,0,closed,closed,1.414978,-0.2219543,-187.3963,0.9468384,724.3716,2,na,yes,Q16,remote,NaN,NaN,1,0.956043956043956
2,Zimmerman,-100,Zimmerman,170,90,2,closed,closed,-11.44229,-4.707153,257.0741,1.768127,734.6185,3,no,no,Q16,remote,0.666666666666667,0.666666666666667,0.863636363636364,0.956043956043956
4,BakerBerryHistoric2,180,BakerBerryHistoric2,270,90,1,open,open,-11.7739,14.4016,362.0316,1.43396,742.0531,1,yes,yes,Q16,remote,1,1,0.978723404255319,0.956043956043956
5,BakerBerryCharter,-90,BakerBerryCharter,-180,-90,1,open,open,3.083186,5.020244,-271.7015,1.00238,745.5474,1,yes,yes,Q16,remote,1,1,0.978723404255319,0.956043956043956
7,BakerBerry2nd,94,BakerBerry2nd,184,90,1,open,open,-12.54803,-1.385223,264.3889,1.32312,760.1662,1,yes,yes,Q16,remote,1,1,0.978723404255319,0.956043956043956
8,RaunerBackHall,0,RaunerBackHall,90,90,1,open,open,-14.32071,-1.624298,177.7953,1.308838,764.4959,1,no,no,Q16,remote,1,1,0.978723404255319,0.956043956043956
9,Hop2,-1,Hop2,269,90,2,closed,closed,-11.91489,-0.7725525,350.8019,1.378662,767.6424,3,yes,yes,Q16,remote,1,1,0.863636363636364,0.956043956043956
10,BakerBerryHistoric2,180,BakerBerryHistoric2,270,-90,2,open,open,4.123346,15.13754,187.3008,1.392456,771.0811,3,yes,yes,Q16,remote,1,1,0.863636363636364,0.956043956043956
11,neutral,0,McLaughlinCluster,262,90,0,open,open,-6.234589,2.410638,356.8547,1.364319,776.2043,2,na,yes,Q16,remote,NaN,0.666666666666667,1,0.956043956043956
12,Zimmerman,-100,Zimmerman,-190,-90,1,closed,closed,3.70374,-9.364044,-285.695,1.378418,779.6573,1,no,no,Q16,remote,0.666666666666667,0.666666666666667,0.978723404255319,0.956043956043956
13,Hop2,-1,Hop2,-91,-90,1,closed,closed,6.024675,3.709375,-181.36,1.155457,782.4276,1,yes,yes,Q16,remote,1,1,0.978723404255319,0.956043956043956
15,neutral,0,AllenSt,90,90,0,closed,closed,-9.334778,3.390309,171.3308,1.684814,793.8998,2,na,yes,Q16,remote,NaN,1,1,0.956043956043956
16,53Commons,0,53Commons,90,-90,2,open,open,7.31067,1.225857,1.216278,1.322815,797.2552,3,yes,yes,Q16,remote,0,0,0.863636363636364,0.956043956043956
17,BakerBerryHistoric2,180,BakerBerryHistoric2,270,90,1,open,open,-14.21442,12.58186,355.3601,1.252808,800.1509,1,yes,yes,Q16,remote,1,1,0.978723404255319,0.956043956043956
18,Zimmerman,-100,Zimmerman,-190,-90,1,closed,closed,7.248615,-2.501678,-275.1448,0.9331665,804.3416,1,no,no,Q16,remote,0.666666666666667,0.666666666666667,0.978723404255319,0.956043956043956
20,Maynard,0,Maynard,90,90,1,closed,closed,-11.89627,1.555205,171.8643,1.322388,810.8431,1,yes,yes,Q16,remote,1,1,0.978723404255319,0.956043956043956
21,RaunerFirst,0,RaunerFirst,90,-90,2,open,open,4.912951,1.501303,-2.533112,2.004639,815.8133,3,yes,yes,Q16,remote,NaN,NaN,0.863636363636364,0.956043956043956
23,PineEntrance,0,PineEntrance,270,90,2,open,open,-12.88062,-1.29007,348.5332,1.378113,824.0552,3,yes,yes,Q16,remote,1,1,0.863636363636364,0.956043956043956
25,neutral,0,Umplebys,-140,-90,0,open,open,4.573685,2.28316,-231.7521,1.002136,832.5339,2,na,yes,Q16,remote,NaN,1,1,0.956043956043956
27,neutral,0,PineEntrance,90,90,0,closed,closed,-10.92642,-1.049469,179.5479,1.044373,838.3118,2,na,yes,Q16,remote,NaN,1,1,0.956043956043956
29,neutral,0,MooreLot,270,90,0,open,open,-10.47531,-1.414154,354.956,1.143005,844.8983,2,na,yes,Q16,remote,NaN,1,1,0.956043956043956
33,Hop4,-3,Hop4,87,-90,2,closed,closed,5.402773,4.48346,13.69547,1.128784,858.9319,3,yes,yes,Q16,remote,1,1,0.863636363636364,0.956043956043956
34,neutral,0,PineBackHall,270,90,0,closed,closed,-15.83417,-1.622162,352.1955,1.002502,861.2698,2,na,yes,Q16,remote,NaN,1,1,0.956043956043956
35,neutral,0,Hop2,89,90,0,open,open,-9.729767,-3.149078,172.7179,0.9190063,890.0333,2,na,yes,Q16,remote,NaN,1,1,0.956043956043956
36,Fairbanks,0,Fairbanks,-90,-90,1,open,open,6.214404,-1.84494,-171.3168,0.9191895,892.4141,1,yes,yes,Q16,remote,0.666666666666667,0.666666666666667,0.978723404255319,0.956043956043956
39,PineEntrance,0,PineEntrance,-90,-90,1,open,open,4.206971,0.3485047,-178.8249,1.253418,903.2596,1,yes,yes,Q16,remote,1,1,0.978723404255319,0.956043956043956
40,AllenSt,0,AllenSt,-90,-90,1,open,open,3.990974,-0.9825134,-171.4447,1.406311,906.0718,1,yes,yes,Q16,remote,1,1,0.978723404255319,0.956043956043956
41,53Commons,0,53Commons,90,90,1,open,open,-11.32642,-5.148895,170.4586,1.406311,909.0649,1,yes,yes,Q16,remote,0,0,0.978723404255319,0.956043956043956
43,AllenSt,0,AllenSt,-90,-90,1,open,open,4.894402,-1.205933,-172.728,1.211182,915.2045,1,yes,yes,Q16,remote,1,1,0.978723404255319,0.956043956043956
47,neutral,0,Maynard,-90,-90,0,open,open,2.628215,-1.067017,-173.5255,1.281006,929.5863,2,na,yes,Q16,remote,NaN,1,1,0.956043956043956
48,53Commons,0,53Commons,90,90,1,open,open,-8.738617,-2.882813,178.4559,1.239014,932.8721,1,yes,yes,Q16,remote,0,0,0.978723404255319,0.956043956043956
49,Fairbanks,0,Fairbanks,-90,-90,1,open,open,5.771326,-3.215912,-173.0254,0.7935181,934.988,1,yes,yes,Q16,remote,0.666666666666667,0.666666666666667,0.978723404255319,0.956043956043956
52,RaunerBackHall,0,RaunerBackHall,90,90,1,open,open,-12.68829,-4.893097,177.6671,1.475525,945.6944,1,no,no,Q16,remote,1,1,0.978723404255319,0.956043956043956
53,BakerBerry2nd,94,BakerBerry2nd,184,-90,2,open,open,5.122408,1.353809,94.37653,1.224854,948.3537,3,yes,yes,Q16,remote,1,1,0.863636363636364,0.956043956043956
54,BakerBerryCharter,-90,BakerBerryCharter,180,90,2,open,open,-11.46448,-2.021393,258.2021,1.462036,951.2775,3,yes,yes,Q16,remote,1,1,0.863636363636364,0.956043956043956
56,Maynard,0,Maynard,90,90,1,closed,closed,-12.31638,-0.5328369,168.4685,1.197327,956.5679,1,yes,yes,Q16,remote,1,1,0.978723404255319,0.956043956043956
60,RaunerFirst,0,RaunerFirst,90,90,1,open,open,-12.08676,-3.852081,171.521,1.127502,967.9977,1,yes,yes,Q16,remote,NaN,NaN,0.978723404255319,0.956043956043956
62,MooreLot,180,MooreLot,90,-90,1,closed,closed,0.8460553,-2.336975,5.114349,1.016357,973.2328,1,yes,yes,Q16,remote,1,1,0.978723404255319,0.956043956043956
64,McLaughlinCluster,172,McLaughlinCluster,82,-90,1,closed,closed,1.458485,-7.280823,30.20865,1.309082,978.2866,1,yes,yes,Q16,remote,0.666666666666667,0.666666666666667,0.978723404255319,0.956043956043956
66,RaunerFirst,0,RaunerFirst,90,90,1,open,open,-10.38919,-2.920013,138.8629,0.8633423,983.6048,1,yes,yes,Q16,remote,NaN,NaN,0.978723404255319,0.956043956043956
67,PineEntrance,0,PineEntrance,-90,-90,1,open,open,5.186212,-3.187927,-149.8468,1.169495,986.3615,1,yes,yes,Q16,remote,1,1,0.978723404255319,0.956043956043956
68,neutral,0,RaunerBackHall,-90,-90,0,closed,closed,4.689673,-8.051483,-137.2388,1.211304,988.965,2,na,no,Q16,remote,NaN,1,1,0.956043956043956
71,RollinsChapel3,177,RollinsChapel3,267,90,1,closed,closed,-5.601257,1.350852,325.4046,1.308594,1060.443,1,yes,yes,Q16,remote,1,1,0.978723404255319,0.956043956043956
72,Hop2,-1,Hop2,-91,-90,1,closed,closed,4.710012,-0.7198792,-171.2111,0.807373,1066.387,1,yes,yes,Q16,remote,1,1,0.978723404255319,0.956043956043956
73,neutral,0,BakerBerryHistoric2,270,90,0,open,open,-10.55051,-3.688568,324.9789,0.8770752,1068.726,2,na,yes,Q16,remote,NaN,1,1,0.956043956043956
75,BakerBerryHistoric2,180,BakerBerryHistoric2,90,90,2,closed,closed,-10.29916,-1.810181,149.2836,1.11377,1076.049,3,yes,yes,Q16,remote,1,1,0.863636363636364,0.956043956043956
76,neutral,0,Zimmerman,-190,-90,0,closed,closed,4.734799,-5.14328,-270.2848,1.253174,1079.098,2,na,no,Q16,remote,NaN,0.666666666666667,1,0.956043956043956
77,AllenSt,0,AllenSt,90,90,1,closed,closed,-7.466064,-2.653595,157.1692,0.9327393,1081.368,1,yes,yes,Q16,remote,1,1,0.978723404255319,0.956043956043956
78,PineEntrance,0,PineEntrance,90,-90,2,closed,closed,1.412546,-2.338104,46.84088,1.2948,1085.043,3,yes,yes,Q16,remote,1,1,0.863636363636364,0.956043956043956
81,Hop2,-1,Hop2,89,90,1,open,open,-10.84976,-5.271851,160.2384,0.9470215,1093.007,1,yes,yes,Q16,remote,1,1,0.978723404255319,0.956043956043956
82,MooreLot,180,MooreLot,270,90,1,open,open,-10.30609,-4.127502,342.8871,1.03125,1095.486,1,yes,yes,Q16,remote,1,1,0.978723404255319,0.956043956043956
83,53Commons,0,53Commons,-90,-90,1,closed,closed,3.731616,-5.188385,-160.3512,1.22522,1098.186,1,yes,yes,Q16,remote,0,0,0.978723404255319,0.956043956043956
88,AllenSt,0,AllenSt,90,-90,2,closed,closed,3.17935,-1.771942,8.58374,1.086182,1117.44,3,yes,yes,Q16,remote,1,1,0.863636363636364,0.956043956043956
89,neutral,0,Fairbanks,-90,-90,0,open,open,2.702283,-4.722198,-171.1199,1.155762,1119.946,2,na,yes,Q16,remote,NaN,0.666666666666667,1,0.956043956043956
90,neutral,0,PineEntrance,-90,-90,0,open,open,4.157996,-1.658844,-178.8427,1.099854,1122.077,2,na,yes,Q16,remote,NaN,1,1,0.956043956043956
91,Umplebys,-50,Umplebys,-140,-90,1,open,open,1.014715,-0.9423828,-224.9122,0.8771973,1126.741,1,yes,yes,Q16,remote,1,1,0.978723404255319,0.956043956043956
92,BakerBerry2nd,94,BakerBerry2nd,4,-90,1,closed,closed,7.210412,-0.3673401,-78.32983,0.765625,1130.04,1,yes,yes,Q16,remote,1,1,0.978723404255319,0.956043956043956
94,Maynard,0,Maynard,-90,-90,1,open,open,5.050686,-3.175385,-163.0839,0.6260986,1134.857,1,yes,yes,Q16,remote,1,1,0.978723404255319,0.956043956043956
95,Umplebys,-50,Umplebys,-140,-90,1,open,open,4.226121,-2.885651,-213.2087,0.765625,1136.917,1,yes,yes,Q16,remote,1,1,0.978723404255319,0.956043956043956
99,neutral,0,PineBackHall,90,-90,0,open,open,4.934732,0.5519068,8.648071,1.099976,1148.473,2,na,yes,Q16,remote,NaN,1,1,0.956043956043956
102,neutral,0,53Commons,90,90,0,open,open,-10.70615,-5.357178,175.3079,1.23938,1157.453,2,na,yes,Q16,remote,NaN,0,1,0.956043956043956
104,MooreLot,180,MooreLot,270,-90,2,open,open,7.1495,-2.703918,187.9494,1.336304,1164.219,3,yes,yes,Q16,remote,1,1,0.863636363636364,0.956043956043956
105,BakerBerryCharter,-90,BakerBerryCharter,0,-90,2,closed,closed,5.116168,-3.095306,-76.34601,1.40564,1167.06,3,yes,yes,Q16,remote,1,1,0.863636363636364,0.956043956043956
106,RaunerBackHall,0,RaunerBackHall,-90,-90,1,closed,closed,5.438301,-3.744537,-153.0587,1.002563,1169.579,1,no,no,Q16,remote,1,1,0.978723404255319,0.956043956043956
107,Zimmerman,-100,Zimmerman,350,-90,2,open,open,3.818562,-1.054352,254.0569,0.9743652,1200.807,3,no,no,Q16,remote,0.666666666666667,0.666666666666667,0.863636363636364,0.956043956043956
109,53Commons,0,53Commons,-90,-90,1,closed,closed,4.966707,-1.523254,-177.1795,0.9047852,1205.011,1,yes,yes,Q16,remote,0,0,0.978723404255319,0.956043956043956
110,RaunerFirst,0,RaunerFirst,-90,-90,1,closed,closed,3.847191,-2.850159,-159.5016,1.030273,1207.016,1,yes,yes,Q16,remote,NaN,NaN,0.978723404255319,0.956043956043956
113,PineBackHall,180,PineBackHall,270,-90,2,closed,closed,4.618138,-0.9778748,185.5681,0.9188232,1214.827,3,yes,yes,Q16,remote,1,1,0.863636363636364,0.956043956043956
114,Fairbanks,0,Fairbanks,90,-90,2,closed,closed,2.764831,-4.09552,9.548126,1.23938,1217.444,3,yes,yes,Q16,remote,0.666666666666667,0.666666666666667,0.863636363636364,0.956043956043956
115,RaunerFirst,0,RaunerFirst,270,90,2,closed,closed,-10.61432,-3.423004,347.145,1.420288,1220.159,3,yes,yes,Q16,remote,NaN,NaN,0.863636363636364,0.956043956043956
117,Hop2,-1,Hop2,89,90,1,open,open,-9.57309,-5.167389,163.5634,1.211426,1226.16,1,yes,yes,Q16,remote,1,1,0.978723404255319,0.956043956043956
118,RaunerFirst,0,RaunerFirst,-90,-90,1,closed,closed,3.537391,-0.1255188,-171.0567,0.6821289,1228.053,1,yes,yes,Q16,remote,NaN,NaN,0.978723404255319,0.956043956043956
119,neutral,0,Hop2,-91,-90,0,closed,closed,2.674937,-2.582428,-166.5146,1.141846,1230.406,2,na,yes,Q16,remote,NaN,1,1,0.956043956043956
120,PineEntrance,0,PineEntrance,90,90,1,closed,closed,-10.70987,-0.8944092,165.9362,0.8215332,1232.397,1,yes,yes,Q16,remote,1,1,0.978723404255319,0.956043956043956
123,neutral,0,Umplebys,40,90,0,closed,closed,-8.320068,-4.680542,130.0834,0.9885254,1239.427,2,na,yes,Q16,remote,NaN,1,1,0.956043956043956
125,53Commons,0,53Commons,270,90,2,closed,closed,-8.938599,-4.271362,351.6412,1.266968,1245.136,3,yes,yes,Q16,remote,0,0,0.863636363636364,0.956043956043956
127,PineBackHall,180,PineBackHall,270,90,1,closed,closed,-11.40656,-3.67746,353.4174,0.8493652,1250.9,1,yes,yes,Q16,remote,1,1,0.978723404255319,0.956043956043956
128,neutral,0,RaunerBackHall,90,90,0,open,open,-8.512482,-2.520538,165.6069,1.002319,1253.211,2,na,no,Q16,remote,NaN,1,1,0.956043956043956
130,Fairbanks,0,Fairbanks,90,90,1,closed,closed,-9.321991,-6.774841,165.8401,1.016479,1257.694,1,yes,yes,Q16,remote,0.666666666666667,0.666666666666667,0.978723404255319,0.956043956043956
131,Maynard,0,Maynard,-90,-90,1,open,open,5.894572,-3.289886,-171.1713,1.28125,1260.172,1,yes,yes,Q16,remote,1,1,0.978723404255319,0.956043956043956
133,Hop4,-3,Hop4,-93,-90,1,open,open,3.392962,-2.101379,-166.7059,0.9466553,1265.337,1,yes,yes,Q16,remote,1,1,0.978723404255319,0.956043956043956
137,BakerBerryCharter,-90,BakerBerryCharter,0,90,1,closed,closed,-11.97113,-3.140533,74.88518,0.9604492,1275.514,1,yes,yes,Q16,remote,1,1,0.978723404255319,0.956043956043956
139,Zimmerman,-100,Zimmerman,-10,90,1,open,open,-12.06348,-7.223785,65.64005,1.517578,1282.378,1,no,no,Q16,remote,0.666666666666667,0.666666666666667,0.978723404255319,0.956043956043956
140,neutral,0,Maynard,90,90,0,closed,closed,-10.07608,-5.062408,163.4829,1.113647,1285.274,2,na,yes,Q16,remote,NaN,1,1,0.956043956043956
142,neutral,0,McLaughlinCluster,82,-90,0,closed,closed,1.131496,-6.329742,-0.5236816,1.197388,1290.996,2,na,yes,Q16,remote,NaN,0.666666666666667,1,0.956043956043956
143,neutral,0,Hop4,87,90,0,closed,closed,-9.26062,-6.023346,159.8812,1.141968,1293.474,2,na,yes,Q16,remote,NaN,1,1,0.956043956043956
144,PineEntrance,0,PineEntrance,90,90,1,closed,closed,-9.514496,-3.774872,162.406,0.8493652,1295.688,1,yes,yes,Q16,remote,1,1,0.978723404255319,0.956043956043956
3,neutral,0,Hop4,-93,-90,0,open,open,5.350112,3.875157,-185.1636,1.267029,657.6268,2,na,yes,Q26,remote,NaN,1,0.791666666666667,0.855670103092783
8,RaunerBackHall,0,RaunerBackHall,90,90,1,open,open,0.8700861,7.608517,186.0355,1.795959,673.4424,1,yes,yes,Q26,remote,0.666666666666667,0.666666666666667,0.877551020408163,0.855670103092783
9,Hop2,-1,Hop2,269,90,2,closed,closed,1.204904,10.96088,389.6235,1.545715,676.1302,3,yes,yes,Q26,remote,1,1,0.875,0.855670103092783
11,neutral,0,McLaughlinCluster,262,90,0,open,open,1.53007,7.621492,346.0314,0.8768311,681.2527,2,na,yes,Q26,remote,NaN,0,0.791666666666667,0.855670103092783
12,Zimmerman,-100,Zimmerman,-190,-90,1,closed,closed,6.376297,-4.470734,-294.7226,2.325073,684.6918,1,no,no,Q26,remote,0.666666666666667,0.666666666666667,0.877551020408163,0.855670103092783
13,Hop2,-1,Hop2,-91,-90,1,closed,closed,4.754014,8.334844,-186.4664,1.698242,687.9774,1,yes,yes,Q26,remote,1,1,0.877551020408163,0.855670103092783
14,Hop4,-3,Hop4,87,90,1,closed,closed,-2.005402,12.33535,184.4174,1.531616,692.9341,1,yes,yes,Q26,remote,1,1,0.877551020408163,0.855670103092783
16,53Commons,0,53Commons,90,-90,2,open,open,4.981524,3.410805,-7.069916,1.517334,698.9898,3,yes,yes,Q26,remote,0.333333333333333,0.333333333333333,0.875,0.855670103092783
17,BakerBerryHistoric2,180,BakerBerryHistoric2,270,90,1,open,open,1.062037,18.92343,371.4663,1.837402,702.0389,1,yes,yes,Q26,remote,0.333333333333333,0.333333333333333,0.877551020408163,0.855670103092783
19,Fairbanks,0,Fairbanks,270,90,2,open,open,-1.19696,5.316039,362.2883,1.54541,708.8886,3,yes,yes,Q26,remote,0.333333333333333,0.333333333333333,0.875,0.855670103092783
21,RaunerFirst,0,RaunerFirst,90,-90,2,open,open,3.681102,15.19453,-14.29315,2.186279,716.9639,3,yes,yes,Q26,remote,0.666666666666667,0.666666666666667,0.875,0.855670103092783
23,PineEntrance,0,PineEntrance,270,90,2,open,open,-2.28183,8.037072,351.3889,1.197449,723.9109,3,yes,yes,Q26,remote,1,1,0.875,0.855670103092783
24,neutral,0,Fairbanks,90,90,0,closed,closed,-1.75708,1.935567,166.3732,2.394836,727.4056,2,na,yes,Q26,remote,NaN,0.333333333333333,0.791666666666667,0.855670103092783
25,neutral,0,Umplebys,-140,-90,0,open,open,1.703287,5.12774,-229.7463,1.462219,730.0092,2,na,no,Q26,remote,NaN,0.666666666666667,0.791666666666667,0.855670103092783
27,neutral,0,PineEntrance,90,90,0,closed,closed,1.068592,16.70778,179.9521,1.447937,735.4107,2,na,yes,Q26,remote,NaN,1,0.791666666666667,0.855670103092783
29,neutral,0,MooreLot,270,90,0,open,open,0.570803,2.921066,358.3365,1.322693,740.3672,2,na,yes,Q26,remote,NaN,0.333333333333333,0.791666666666667,0.855670103092783
30,Maynard,0,Maynard,90,-90,2,closed,closed,4.669078,5.955117,9.601898,1.907471,743.5414,3,yes,yes,Q26,remote,0.666666666666667,0.666666666666667,0.875,0.855670103092783
32,Umplebys,-50,Umplebys,40,90,1,closed,closed,0.8361815,6.330029,132.9957,1.322632,750.1962,1,no,no,Q26,remote,0.666666666666667,0.666666666666667,0.877551020408163,0.855670103092783
33,Hop4,-3,Hop4,87,-90,2,closed,closed,2.873376,12.56476,-8.385101,1.337036,752.7164,3,yes,yes,Q26,remote,1,1,0.875,0.855670103092783
34,neutral,0,PineBackHall,270,90,0,closed,closed,-0.1749573,12.48501,350.7114,1.016235,754.8741,2,na,no,Q26,remote,NaN,1,0.791666666666667,0.855670103092783
35,neutral,0,Hop2,89,90,0,open,open,-2.792175,7.73951,172.0062,1.127625,762.6844,2,na,yes,Q26,remote,NaN,1,0.791666666666667,0.855670103092783
36,Fairbanks,0,Fairbanks,-90,-90,1,open,open,11.87093,3.159455,-166.358,1.504333,765.4695,1,yes,yes,Q26,remote,0.333333333333333,0.333333333333333,0.877551020408163,0.855670103092783
38,neutral,0,BakerBerryCharter,0,90,0,closed,closed,0.9050815,3.927477,77.19064,0.654541,770.5785,2,na,yes,Q26,remote,NaN,0.333333333333333,0.791666666666667,0.855670103092783
39,PineEntrance,0,PineEntrance,-90,-90,1,open,open,3.964986,4.753051,-174.3946,1.50354,773.2098,1,yes,yes,Q26,remote,1,1,0.877551020408163,0.855670103092783
41,53Commons,0,53Commons,90,90,1,open,open,-0.2794495,5.494235,168.8698,1.629578,779.4057,1,yes,yes,Q26,remote,0.333333333333333,0.333333333333333,0.877551020408163,0.855670103092783
42,MooreLot,180,MooreLot,90,90,2,closed,closed,0.03860835,6.088488,167.5398,1.350403,781.9947,3,yes,yes,Q26,remote,0.333333333333333,0.333333333333333,0.875,0.855670103092783
43,AllenSt,0,AllenSt,-90,-90,1,open,open,5.169537,0.7004628,-170.8463,1.545532,784.6957,1,yes,yes,Q26,remote,1,1,0.877551020408163,0.855670103092783
45,MooreLot,180,MooreLot,90,-90,1,closed,closed,3.398167,7.71781,-22.3389,2.005249,792.2557,1,yes,yes,Q26,remote,0.333333333333333,0.333333333333333,0.877551020408163,0.855670103092783
47,neutral,0,Maynard,-90,-90,0,open,open,4.646308,3.649509,-189.4496,1.782532,798.9524,2,na,yes,Q26,remote,NaN,0.666666666666667,0.791666666666667,0.855670103092783
48,53Commons,0,53Commons,90,90,1,open,open,0.7346811,2.62438,173.1675,1.141541,801.1656,1,yes,yes,Q26,remote,0.333333333333333,0.333333333333333,0.877551020408163,0.855670103092783
49,Fairbanks,0,Fairbanks,-90,-90,1,open,open,5.549056,3.767682,-182.6115,1.434204,803.7416,1,yes,yes,Q26,remote,0.333333333333333,0.333333333333333,0.877551020408163,0.855670103092783
50,AllenSt,0,AllenSt,270,90,2,open,open,-0.6334839,3.207264,357.7164,1.23938,806.0665,3,yes,yes,Q26,remote,1,1,0.875,0.855670103092783
52,RaunerBackHall,0,RaunerBackHall,90,90,1,open,open,-2.200043,5.341121,181.0754,1.406128,811.2178,1,yes,yes,Q26,remote,0.666666666666667,0.666666666666667,0.877551020408163,0.855670103092783
53,BakerBerry2nd,94,BakerBerry2nd,184,-90,2,open,open,3.644317,8.061206,87.91962,1.141357,813.4869,3,yes,yes,Q26,remote,1,1,0.875,0.855670103092783
54,BakerBerryCharter,-90,BakerBerryCharter,180,90,2,open,open,-0.2677307,5.724892,263.3149,0.7376709,815.3527,3,yes,yes,Q26,remote,0.333333333333333,0.333333333333333,0.875,0.855670103092783
56,Maynard,0,Maynard,90,90,1,closed,closed,0.4778369,4.376797,168.4268,1.628967,820.7546,1,yes,yes,Q26,remote,0.666666666666667,0.666666666666667,0.877551020408163,0.855670103092783
60,RaunerFirst,0,RaunerFirst,90,90,1,open,open,-3.85498,8.90187,175.3091,1.239258,832.0731,1,yes,yes,Q26,remote,0.666666666666667,0.666666666666667,0.877551020408163,0.855670103092783
61,neutral,0,BakerBerry2nd,4,-90,0,closed,closed,3.813814,10.53551,-32.69977,2.937805,836.1664,2,na,yes,Q26,remote,NaN,1,0.791666666666667,0.855670103092783
62,MooreLot,180,MooreLot,90,-90,1,closed,closed,8.188635,6.570083,5.019653,1.921265,839.6191,1,yes,yes,Q26,remote,0.333333333333333,0.333333333333333,0.877551020408163,0.855670103092783
63,Hop4,-3,Hop4,87,90,1,closed,closed,2.28081,7.781199,164.0777,1.907532,842.6544,1,yes,yes,Q26,remote,1,1,0.877551020408163,0.855670103092783
66,RaunerFirst,0,RaunerFirst,90,90,1,open,open,-4.90976,7.246216,169.5432,1.503357,854.8221,1,yes,yes,Q26,remote,0.666666666666667,0.666666666666667,0.877551020408163,0.855670103092783
67,PineEntrance,0,PineEntrance,-90,-90,1,open,open,8.282382,7.169328,-170.3391,1.461975,857.4119,1,yes,yes,Q26,remote,1,1,0.877551020408163,0.855670103092783
69,BakerBerry2nd,94,BakerBerry2nd,184,90,1,open,open,-4.752441,6.596667,261.2254,1.420166,863.4681,1,yes,yes,Q26,remote,1,1,0.877551020408163,0.855670103092783
71,RollinsChapel3,177,RollinsChapel3,267,90,1,closed,closed,-0.5294189,7.254355,345.9532,1.600891,874.2578,1,yes,yes,Q26,remote,1,1,0.877551020408163,0.855670103092783
72,Hop2,-1,Hop2,-91,-90,1,closed,closed,4.015665,9.328706,-165.9752,1.197815,876.611,1,yes,yes,Q26,remote,1,1,0.877551020408163,0.855670103092783
78,PineEntrance,0,PineEntrance,90,-90,2,closed,closed,4.589482,10.78246,12.21289,1.489624,891.5631,3,yes,yes,Q26,remote,1,1,0.875,0.855670103092783
79,Hop4,-3,Hop4,-93,-90,1,open,open,7.054427,9.26667,-170.6376,2.478027,894.9185,1,yes,yes,Q26,remote,1,1,0.877551020408163,0.855670103092783
80,RollinsChapel3,177,RollinsChapel3,87,90,2,open,open,-2.392822,2.348773,177.2314,1.530701,897.5776,3,yes,yes,Q26,remote,1,1,0.875,0.855670103092783
82,MooreLot,180,MooreLot,270,90,1,open,open,0.0231269,4.569666,351.0365,1.350342,902.7983,1,yes,yes,Q26,remote,0.333333333333333,0.333333333333333,0.877551020408163,0.855670103092783
86,Hop2,-1,Hop2,89,-90,2,open,open,9.177691,6.859541,2.800018,1.712463,914.6742,3,yes,yes,Q26,remote,1,1,0.875,0.855670103092783
87,McLaughlinCluster,172,McLaughlinCluster,262,-90,2,open,open,7.4238,5.984207,178.0979,1.587341,917.4031,3,yes,yes,Q26,remote,0,0,0.875,0.855670103092783
88,AllenSt,0,AllenSt,90,-90,2,closed,closed,10.55098,6.127464,-5.560974,1.531555,920.0486,3,yes,yes,Q26,remote,1,1,0.875,0.855670103092783
89,neutral,0,Fairbanks,-90,-90,0,open,open,8.625973,2.470742,-170.6396,0.9605713,922.1922,2,na,yes,Q26,remote,NaN,0.333333333333333,0.791666666666667,0.855670103092783
90,neutral,0,PineEntrance,-90,-90,0,open,open,6.934005,6.180126,-179.5758,1.309021,924.6705,2,na,yes,Q26,remote,NaN,1,0.791666666666667,0.855670103092783
91,Umplebys,-50,Umplebys,-140,-90,1,open,open,6.834233,5.76561,-225.6318,1.238892,927.0233,1,no,no,Q26,remote,0.666666666666667,0.666666666666667,0.877551020408163,0.855670103092783
92,BakerBerry2nd,94,BakerBerry2nd,4,-90,1,closed,closed,4.799243,4.782722,-82.84552,1.100037,929.2512,1,yes,yes,Q26,remote,1,1,0.877551020408163,0.855670103092783
94,Maynard,0,Maynard,-90,-90,1,open,open,3.947026,2.666727,-171.0289,1.587463,934.9035,1,yes,yes,Q26,remote,0.666666666666667,0.666666666666667,0.877551020408163,0.855670103092783
95,Umplebys,-50,Umplebys,-140,-90,1,open,open,8.834696,4.739674,-226.1187,1.266785,937.2703,1,no,no,Q26,remote,0.666666666666667,0.666666666666667,0.877551020408163,0.855670103092783
96,RaunerBackHall,0,RaunerBackHall,-90,-90,1,closed,closed,3.853647,5.003792,-175.0788,1.127808,939.4697,1,yes,yes,Q26,remote,0.666666666666667,0.666666666666667,0.877551020408163,0.855670103092783
97,BakerBerryHistoric2,180,BakerBerryHistoric2,90,-90,1,closed,closed,6.619462,10.63117,7.485626,1.406433,942.0317,1,yes,yes,Q26,remote,0.333333333333333,0.333333333333333,0.877551020408163,0.855670103092783
98,McLaughlinCluster,172,McLaughlinCluster,262,90,1,open,open,-1.362213,7.686696,344.5447,1.336609,944.5655,1,yes,yes,Q26,remote,0,0,0.877551020408163,0.855670103092783
100,neutral,0,RollinsChapel3,267,90,0,closed,closed,2.028386,7.985175,336.4333,1.169128,949.0203,2,na,yes,Q26,remote,NaN,1,0.791666666666667,0.855670103092783
103,PineBackHall,180,PineBackHall,270,90,1,closed,closed,-1.209869,7.580039,354.4105,1.183289,956.9282,1,no,no,Q26,remote,1,1,0.877551020408163,0.855670103092783
104,MooreLot,180,MooreLot,270,-90,2,open,open,4.794014,5.140539,189.2852,1.225159,959.2951,3,yes,yes,Q26,remote,0.333333333333333,0.333333333333333,0.875,0.855670103092783
108,MooreLot,180,MooreLot,270,90,1,open,open,1.22136,3.016281,341.2612,1.058044,975.654,1,yes,yes,Q26,remote,0.333333333333333,0.333333333333333,0.877551020408163,0.855670103092783
111,Zimmerman,-100,Zimmerman,-10,90,1,open,open,-0.5699463,1.105005,54.40186,1.002258,982.8795,1,no,no,Q26,remote,0.666666666666667,0.666666666666667,0.877551020408163,0.855670103092783
113,PineBackHall,180,PineBackHall,270,-90,2,closed,closed,6.16424,7.175244,192.1126,1.294922,988.5878,3,no,no,Q26,remote,1,1,0.875,0.855670103092783
115,RaunerFirst,0,RaunerFirst,270,90,2,closed,closed,-0.9619446,2.421387,331.6852,1.044434,993.8505,3,yes,yes,Q26,remote,0.666666666666667,0.666666666666667,0.875,0.855670103092783
117,Hop2,-1,Hop2,89,90,1,open,open,0.8039029,1.877198,145.6968,1.071594,997.9714,1,yes,yes,Q26,remote,1,1,0.877551020408163,0.855670103092783
118,RaunerFirst,0,RaunerFirst,-90,-90,1,closed,closed,3.238925,3.882739,-151.0099,1.058044,1000.157,1,yes,yes,Q26,remote,0.666666666666667,0.666666666666667,0.877551020408163,0.855670103092783
119,neutral,0,Hop2,-91,-90,0,closed,closed,5.193651,4.891876,-154.3744,1.28064,1002.607,2,na,yes,Q26,remote,NaN,1,0.791666666666667,0.855670103092783
120,PineEntrance,0,PineEntrance,90,90,1,closed,closed,2.767174,5.25647,151.2357,1.099976,1004.974,1,yes,yes,Q26,remote,1,1,0.877551020408163,0.855670103092783
122,McLaughlinCluster,172,McLaughlinCluster,262,90,1,open,open,1.454602,4.935157,327.2243,1.071777,1009.499,1,yes,yes,Q26,remote,0,0,0.877551020408163,0.855670103092783
126,Hop4,-3,Hop4,267,90,2,open,open,-0.7751465,6.75286,331.9298,1.211121,1019.982,3,yes,yes,Q26,remote,1,1,0.875,0.855670103092783
127,PineBackHall,180,PineBackHall,270,90,1,closed,closed,1.096538,6.588734,340.185,1.044006,1022.168,1,no,no,Q26,remote,1,1,0.877551020408163,0.855670103092783
129,neutral,0,BakerBerry2nd,184,90,0,open,open,-0.9689026,4.199123,253.7632,1.058472,1026.457,2,na,yes,Q26,remote,NaN,1,0.791666666666667,0.855670103092783
134,neutral,0,AllenSt,-90,-90,0,open,open,6.92367,2.576466,-158.8881,0.9748535,1038.861,2,na,yes,Q26,remote,NaN,1,0.791666666666667,0.855670103092783
135,Maynard,0,Maynard,270,90,2,open,open,0.5349967,2.511427,335.4833,0.9885254,1040.935,3,yes,yes,Q26,remote,0.666666666666667,0.666666666666667,0.875,0.855670103092783
137,BakerBerryCharter,-90,BakerBerryCharter,0,90,1,closed,closed,-0.791748,7.061318,61.91582,1.545776,1045.906,1,yes,yes,Q26,remote,0.333333333333333,0.333333333333333,0.877551020408163,0.855670103092783
139,Zimmerman,-100,Zimmerman,-10,90,1,open,open,-1.19989,1.002809,52.44915,0.9748535,1050.11,1,no,no,Q26,remote,0.666666666666667,0.666666666666667,0.877551020408163,0.855670103092783
141,neutral,0,BakerBerryCharter,-180,-90,0,open,open,6.334839,8.015338,-245.7159,1.266846,1054.788,2,na,yes,Q26,remote,NaN,0.333333333333333,0.791666666666667,0.855670103092783
143,neutral,0,Hop4,87,90,0,closed,closed,0.4173076,3.411669,154.9333,0.9326172,1059.619,2,na,yes,Q26,remote,NaN,1,0.791666666666667,0.855670103092783
144,PineEntrance,0,PineEntrance,90,90,1,closed,closed,-1.009369,7.314789,153.2509,1.378418,1061.944,1,yes,yes,Q26,remote,1,1,0.877551020408163,0.855670103092783
1,neutral,0,RaunerFirst,-90,-90,0,closed,closed,8.827548,23.85896,-180.0062,2.18103,665.9472,2,na,yes,Q20,remote,NaN,1,0.923076923076923,0.871287128712871
3,neutral,0,Hop4,-93,-90,0,open,open,7.769237,2.67717,-186.8662,2.097229,680.3082,2,na,yes,Q20,remote,NaN,1,0.923076923076923,0.871287128712871
5,BakerBerryCharter,-90,BakerBerryCharter,-180,-90,1,open,open,14.18382,24.24699,-270.0956,1.819519,692.5723,1,yes,yes,Q20,remote,1,1,0.854166666666667,0.871287128712871
7,BakerBerry2nd,94,BakerBerry2nd,184,90,1,open,open,14.45786,12.10953,249.4878,1.500061,705.4891,1,yes,yes,Q20,remote,1,1,0.854166666666667,0.871287128712871
8,RaunerBackHall,0,RaunerBackHall,90,90,1,open,open,16.22077,19.28324,157.6971,1.652771,709.6006,1,yes,yes,Q20,remote,1,1,0.854166666666667,0.871287128712871
9,Hop2,-1,Hop2,269,90,2,closed,closed,9.248747,20.69352,332.4659,1.417053,712.6006,3,yes,yes,Q20,remote,1,1,0.851851851851852,0.871287128712871
10,BakerBerryHistoric2,180,BakerBerryHistoric2,270,-90,2,open,open,2.583386,10.82114,191.0267,1.347534,716.5173,3,yes,yes,Q20,remote,1,1,0.851851851851852,0.871287128712871
11,neutral,0,McLaughlinCluster,262,90,0,open,open,2.429816,4.388912,346.4479,2.055542,720.0864,2,na,yes,Q20,remote,NaN,1,0.923076923076923,0.871287128712871
13,Hop2,-1,Hop2,-91,-90,1,closed,closed,-2.370758,2.077789,-176.147,1.194397,726.7673,1,yes,yes,Q20,remote,1,1,0.854166666666667,0.871287128712871
15,neutral,0,AllenSt,90,90,0,closed,closed,-1.031403,13.1206,179.6349,1.569641,733.5035,2,na,yes,Q20,remote,NaN,0.666666666666667,0.923076923076923,0.871287128712871
16,53Commons,0,53Commons,90,-90,2,open,open,3.443573,-5.42746,7.844391,1.194702,737.0591,3,yes,yes,Q20,remote,1,1,0.851851851851852,0.871287128712871
17,BakerBerryHistoric2,180,BakerBerryHistoric2,270,90,1,open,open,-2.808197,10.8161,369.5027,1.542114,740.0457,1,yes,yes,Q20,remote,1,1,0.854166666666667,0.871287128712871
19,Fairbanks,0,Fairbanks,270,90,2,open,open,-2.10968,7.240325,373.115,1.625183,747.7675,3,yes,yes,Q20,remote,0.666666666666667,0.666666666666667,0.851851851851852,0.871287128712871
20,Maynard,0,Maynard,90,90,1,closed,closed,-5.788757,5.766134,186.8414,1.736328,751.2122,1,yes,yes,Q20,remote,1,1,0.854166666666667,0.871287128712871
21,RaunerFirst,0,RaunerFirst,90,-90,2,open,open,2.43264,6.430424,-0.5111389,1.666809,755.2399,3,yes,yes,Q20,remote,1,1,0.851851851851852,0.871287128712871
23,PineEntrance,0,PineEntrance,270,90,2,open,open,-5.717072,10.63729,364.9968,1.222351,763.3096,3,yes,yes,Q20,remote,1,1,0.851851851851852,0.871287128712871
25,neutral,0,Umplebys,-140,-90,0,open,open,-7.493713,5.679528,-202.8328,1.180725,770.5734,2,na,yes,Q20,remote,NaN,0.666666666666667,0.923076923076923,0.871287128712871
27,neutral,0,PineEntrance,90,90,0,closed,closed,-6.430725,11.40513,186.349,1.249939,777.1985,2,na,yes,Q20,remote,NaN,1,0.923076923076923,0.871287128712871
28,neutral,0,Zimmerman,-10,90,0,open,open,-7.202301,7.668186,87.15015,1.208374,780.6569,2,na,yes,Q20,remote,NaN,0.333333333333333,0.923076923076923,0.871287128712871
29,neutral,0,MooreLot,270,90,0,open,open,-8.435272,11.61362,363.3255,1.708557,784.4209,2,na,yes,Q20,remote,NaN,0.333333333333333,0.923076923076923,0.871287128712871
30,Maynard,0,Maynard,90,-90,2,closed,closed,-0.132019,6.805001,9.922729,1.527588,788.3513,3,yes,yes,Q20,remote,1,1,0.851851851851852,0.871287128712871
33,Hop4,-3,Hop4,87,-90,2,closed,closed,-2.312347,10.02366,27.50159,1.110962,798.3238,3,yes,yes,Q20,remote,1,1,0.851851851851852,0.871287128712871
34,neutral,0,PineBackHall,270,90,0,closed,closed,-8.172546,11.21155,359.3846,1.180542,801.7822,2,na,yes,Q20,remote,NaN,0.666666666666667,0.923076923076923,0.871287128712871
35,neutral,0,Hop2,89,90,0,open,open,-5.338348,7.850225,182.7269,1.235901,813.6851,2,na,yes,Q20,remote,NaN,1,0.923076923076923,0.871287128712871
36,Fairbanks,0,Fairbanks,-90,-90,1,open,open,-5.352844,8.083332,-155.667,1.152954,816.866,1,yes,yes,Q20,remote,0.666666666666667,0.666666666666667,0.854166666666667,0.871287128712871
38,neutral,0,BakerBerryCharter,0,90,0,closed,closed,-4.507568,11.95939,102.3267,1.028442,823.6164,2,na,yes,Q20,remote,NaN,1,0.923076923076923,0.871287128712871
39,PineEntrance,0,PineEntrance,-90,-90,1,open,open,-4.797729,12.40837,-165.1916,0.874939,826.0602,1,yes,yes,Q20,remote,1,1,0.854166666666667,0.871287128712871
43,AllenSt,0,AllenSt,-90,-90,1,open,open,-10.29086,14.17135,-167.5135,0.9447021,837.8801,1,yes,yes,Q20,remote,0.666666666666667,0.666666666666667,0.854166666666667,0.871287128712871
45,MooreLot,180,MooreLot,90,-90,1,closed,closed,-9.325775,12.54615,14.68445,1.180542,843.644,1,yes,yes,Q20,remote,0.333333333333333,0.333333333333333,0.854166666666667,0.871287128712871
46,RollinsChapel3,177,RollinsChapel3,267,90,1,closed,closed,-2.451965,17.71455,364.6946,1.291382,846.3661,1,yes,yes,Q20,remote,1,1,0.854166666666667,0.871287128712871
47,neutral,0,Maynard,-90,-90,0,open,open,-7.03476,11.12346,-167.3245,1.527954,849.7554,2,na,yes,Q20,remote,NaN,1,0.923076923076923,0.871287128712871
48,53Commons,0,53Commons,90,90,1,open,open,-1.512268,7.87721,186.3171,1.180542,853.4913,1,yes,yes,Q20,remote,1,1,0.854166666666667,0.871287128712871
49,Fairbanks,0,Fairbanks,-90,-90,1,open,open,-4.126495,7.329847,-169.0368,0.9721069,856.8245,1,yes,yes,Q20,remote,0.666666666666667,0.666666666666667,0.854166666666667,0.871287128712871
52,RaunerBackHall,0,RaunerBackHall,90,90,1,open,open,-4.568542,12.86403,207.9785,1.444153,867.5192,1,yes,yes,Q20,remote,1,1,0.854166666666667,0.871287128712871
53,BakerBerry2nd,94,BakerBerry2nd,184,-90,2,open,open,-9.017517,12.82465,95.20135,1.375244,870.4777,3,yes,yes,Q20,remote,1,1,0.851851851851852,0.871287128712871
54,BakerBerryCharter,-90,BakerBerryCharter,180,90,2,open,open,-3.959137,13.3303,280.3928,1.347351,873.811,3,yes,yes,Q20,remote,1,1,0.851851851851852,0.871287128712871
56,Maynard,0,Maynard,90,90,1,closed,closed,-3.22522,11.85114,200.0911,1.514038,879.6861,1,yes,yes,Q20,remote,1,1,0.854166666666667,0.871287128712871
61,neutral,0,BakerBerry2nd,4,-90,0,closed,closed,-0.9587402,11.0573,-86.91534,1.291626,894.7002,2,na,yes,Q20,remote,NaN,1,0.923076923076923,0.871287128712871
62,MooreLot,180,MooreLot,90,-90,1,closed,closed,-5.938385,12.4909,6.710327,1.069214,897.3529,1,yes,yes,Q20,remote,0.333333333333333,0.333333333333333,0.854166666666667,0.871287128712871
64,McLaughlinCluster,172,McLaughlinCluster,82,-90,1,closed,closed,-2.495117,6.038062,9.198669,1.444458,903.103,1,yes,yes,Q20,remote,1,1,0.854166666666667,0.871287128712871
65,Umplebys,-50,Umplebys,40,-90,2,closed,closed,-5.542664,5.304906,-20.74329,0.9442749,905.5197,3,yes,yes,Q20,remote,0.666666666666667,0.666666666666667,0.851851851851852,0.871287128712871
67,PineEntrance,0,PineEntrance,-90,-90,1,open,open,-1.84375,14.60345,-175.3815,1.263977,911.2976,1,yes,yes,Q20,remote,1,1,0.854166666666667,0.871287128712871
68,neutral,0,RaunerBackHall,-90,-90,0,closed,closed,-6.143433,6.968307,-179.59,1.180725,913.8673,2,na,yes,Q20,remote,NaN,1,0.923076923076923,0.871287128712871
70,BakerBerryCharter,-90,BakerBerryCharter,-180,-90,1,open,open,-9.093506,10.06842,-258.3316,1.221924,919.2143,1,yes,yes,Q20,remote,1,1,0.854166666666667,0.871287128712871
72,Hop2,-1,Hop2,-91,-90,1,closed,closed,-5.306915,8.878844,-163.8492,0.791687,933.2842,1,yes,yes,Q20,remote,1,1,0.854166666666667,0.871287128712871
73,neutral,0,BakerBerryHistoric2,270,90,0,open,open,-7.281403,15.29394,376.3632,1.027832,935.673,2,na,yes,Q20,remote,NaN,1,0.923076923076923,0.871287128712871
74,RaunerBackHall,0,RaunerBackHall,270,90,2,closed,closed,-7.320129,14.11773,380.4139,1.361572,938.5484,3,yes,yes,Q20,remote,1,1,0.851851851851852,0.871287128712871
75,BakerBerryHistoric2,180,BakerBerryHistoric2,90,90,2,closed,closed,-11.2467,16.90059,205.8481,1.152893,941.187,3,yes,yes,Q20,remote,1,1,0.851851851851852,0.871287128712871
78,PineEntrance,0,PineEntrance,90,-90,2,closed,closed,-3.895782,16.45256,0.02960205,1.166748,948.8817,3,yes,yes,Q20,remote,1,1,0.851851851851852,0.871287128712871
79,Hop4,-3,Hop4,-93,-90,1,open,open,-7.76297,14.72376,-176.5143,1.083496,951.3121,1,yes,yes,Q20,remote,1,1,0.854166666666667,0.871287128712871
80,RollinsChapel3,177,RollinsChapel3,87,90,2,open,open,-12.17578,9.074121,189.523,1.458191,954.3955,3,yes,yes,Q20,remote,1,1,0.851851851851852,0.871287128712871
84,neutral,0,MooreLot,90,-90,0,closed,closed,-4.966583,9.401061,15.98462,0.9862671,965.3956,2,na,yes,Q20,remote,NaN,0.333333333333333,0.923076923076923,0.871287128712871
85,BakerBerry2nd,94,BakerBerry2nd,4,-90,1,closed,closed,7.761459,1.99656,-86.98123,1.292053,969.4932,1,yes,yes,Q20,remote,1,1,0.854166666666667,0.871287128712871
87,McLaughlinCluster,172,McLaughlinCluster,262,-90,2,open,open,-2.410889,8.199162,187.4861,1.555847,976.1877,3,yes,yes,Q20,remote,1,1,0.851851851851852,0.871287128712871
89,neutral,0,Fairbanks,-90,-90,0,open,open,6.238157,7.136291,-182.9955,1.097351,981.9792,2,na,yes,Q20,remote,NaN,0.666666666666667,0.923076923076923,0.871287128712871
90,neutral,0,PineEntrance,-90,-90,0,open,open,-0.762146,6.478563,-167.8711,1.694397,984.9653,2,na,yes,Q20,remote,NaN,1,0.923076923076923,0.871287128712871
91,Umplebys,-50,Umplebys,-140,-90,1,open,open,-3.791626,7.814604,-219.6465,0.8748169,987.1321,1,yes,yes,Q20,remote,0.666666666666667,0.666666666666667,0.854166666666667,0.871287128712871
92,BakerBerry2nd,94,BakerBerry2nd,4,-90,1,closed,closed,-3.816162,8.976712,-88.88782,1.097351,989.4515,1,yes,yes,Q20,remote,1,1,0.854166666666667,0.871287128712871
94,Maynard,0,Maynard,-90,-90,1,open,open,-2.591614,8.219459,-167.5053,0.8890381,994.7991,1,yes,yes,Q20,remote,1,1,0.854166666666667,0.871287128712871
96,RaunerBackHall,0,RaunerBackHall,-90,-90,1,closed,closed,-1.005707,10.59895,-171.7016,1.027832,999.5212,1,yes,yes,Q20,remote,1,1,0.854166666666667,0.871287128712871
97,BakerBerryHistoric2,180,BakerBerryHistoric2,90,-90,1,closed,closed,-0.6014709,7.268689,7.87912,1.472412,1002.341,1,yes,yes,Q20,remote,1,1,0.854166666666667,0.871287128712871
99,neutral,0,PineBackHall,90,-90,0,open,open,-0.341156,11.87505,-10.26389,1.264282,1007.535,2,na,yes,Q20,remote,NaN,0.666666666666667,0.923076923076923,0.871287128712871
102,neutral,0,53Commons,90,90,0,open,open,-6.817688,12.04102,184.6734,1.097107,1016.105,2,na,yes,Q20,remote,NaN,1,0.923076923076923,0.871287128712871
103,PineBackHall,180,PineBackHall,270,90,1,closed,closed,-6.808441,12.59116,375.0383,1.097107,1018.785,1,yes,yes,Q20,remote,0.666666666666667,0.666666666666667,0.854166666666667,0.871287128712871
104,MooreLot,180,MooreLot,270,-90,2,open,open,-1.486908,7.592577,180.7185,1.083008,1021.466,3,yes,yes,Q20,remote,0.333333333333333,0.333333333333333,0.851851851851852,0.871287128712871
105,BakerBerryCharter,-90,BakerBerryCharter,0,-90,2,closed,closed,-0.7167358,7.539935,-78.82297,1.013977,1023.646,3,yes,yes,Q20,remote,1,1,0.851851851851852,0.871287128712871
106,RaunerBackHall,0,RaunerBackHall,-90,-90,1,closed,closed,-2.762299,12.45007,-163.4227,0.930542,1025.883,1,yes,yes,Q20,remote,1,1,0.854166666666667,0.871287128712871
107,Zimmerman,-100,Zimmerman,350,-90,2,open,open,-0.1960144,6.642849,257.3904,0.97229,1038.244,3,yes,yes,Q20,remote,0.333333333333333,0.333333333333333,0.851851851851852,0.871287128712871
109,53Commons,0,53Commons,-90,-90,1,closed,closed,-7.861298,7.037651,-168.129,0.8193359,1042.772,1,yes,yes,Q20,remote,1,1,0.854166666666667,0.871287128712871
110,RaunerFirst,0,RaunerFirst,-90,-90,1,closed,closed,-7.161987,6.85201,-167.1719,0.9586182,1044.953,1,yes,yes,Q20,remote,1,1,0.854166666666667,0.871287128712871
111,Zimmerman,-100,Zimmerman,-10,90,1,open,open,-6.317902,4.64841,82.84041,1.069824,1047.189,1,yes,yes,Q20,remote,0.333333333333333,0.333333333333333,0.854166666666667,0.871287128712871
113,PineBackHall,180,PineBackHall,270,-90,2,closed,closed,-3.592987,9.06804,199.5114,0.8895264,1051.995,3,yes,yes,Q20,remote,0.666666666666667,0.666666666666667,0.851851851851852,0.871287128712871
115,RaunerFirst,0,RaunerFirst,270,90,2,closed,closed,-7.13147,10.263,360.3534,1.444336,1057.536,3,yes,yes,Q20,remote,1,1,0.851851851851852,0.871287128712871
116,RollinsChapel3,177,RollinsChapel3,87,-90,1,open,open,-0.4382629,8.877481,5.98642,1.013916,1060.008,1,yes,yes,Q20,remote,1,1,0.854166666666667,0.871287128712871
117,Hop2,-1,Hop2,89,90,1,open,open,-4.679718,10.29357,179.5822,0.9998779,1062.328,1,yes,yes,Q20,remote,1,1,0.854166666666667,0.871287128712871
118,RaunerFirst,0,RaunerFirst,-90,-90,1,closed,closed,-2.300354,9.264963,-163.8034,0.944458,1064.578,1,yes,yes,Q20,remote,1,1,0.854166666666667,0.871287128712871
121,BakerBerryCharter,-90,BakerBerryCharter,0,90,1,closed,closed,-3.951477,11.12359,88.59358,1.013916,1072.522,1,yes,yes,Q20,remote,1,1,0.854166666666667,0.871287128712871
122,McLaughlinCluster,172,McLaughlinCluster,262,90,1,open,open,-3.706146,14.1074,346.3338,1.236328,1075.397,1,yes,yes,Q20,remote,1,1,0.854166666666667,0.871287128712871
126,Hop4,-3,Hop4,267,90,2,open,open,-6.529144,10.07453,357.3091,1.389038,1089.8,3,yes,yes,Q20,remote,1,1,0.851851851851852,0.871287128712871
129,neutral,0,BakerBerry2nd,184,90,0,open,open,-6.853149,8.18337,265.8113,0.8613281,1101.884,2,na,yes,Q20,remote,NaN,1,0.923076923076923,0.871287128712871
132,RollinsChapel3,177,RollinsChapel3,87,-90,1,open,open,-7.388062,9.917978,16.36084,0.902832,1110.12,1,yes,yes,Q20,remote,1,1,0.854166666666667,0.871287128712871
133,Hop4,-3,Hop4,-93,-90,1,open,open,-4.919281,8.57183,-169.523,0.9862061,1112.342,1,yes,yes,Q20,remote,1,1,0.854166666666667,0.871287128712871
134,neutral,0,AllenSt,-90,-90,0,open,open,-4.16217,5.119079,-165.3884,0.9726563,1114.509,2,na,yes,Q20,remote,NaN,0.666666666666667,0.923076923076923,0.871287128712871
136,BakerBerry2nd,94,BakerBerry2nd,4,90,2,closed,closed,3.775429,20.6773,118.2155,1.56958,1120.606,3,yes,yes,Q20,remote,1,1,0.851851851851852,0.871287128712871
137,BakerBerryCharter,-90,BakerBerryCharter,0,90,1,closed,closed,-4.242401,8.8465,72.43731,0.7641602,1122.94,1,yes,yes,Q20,remote,1,1,0.854166666666667,0.871287128712871
139,Zimmerman,-100,Zimmerman,-10,90,1,open,open,-5.330719,9.71466,78.51933,0.90271,1128.37,1,yes,yes,Q20,remote,0.333333333333333,0.333333333333333,0.854166666666667,0.871287128712871
140,neutral,0,Maynard,90,90,0,closed,closed,-5.442841,10.85332,172.5745,1.319458,1131.134,2,na,yes,Q20,remote,NaN,1,0.923076923076923,0.871287128712871
143,neutral,0,Hop4,87,90,0,closed,closed,-2.054962,13.50541,173.4437,1.013672,1140.356,2,na,yes,Q20,remote,NaN,1,0.923076923076923,0.871287128712871
1,neutral,0,RaunerFirst,-90,-90,0,closed,closed,5.790827,5.525404,-176.0079,0.9744263,949.2559,2,na,yes,Q25,remote,NaN,0.333333333333333,0.928571428571429,0.853211009174312
3,neutral,0,Hop4,-93,-90,0,open,open,5.729789,7.19694,-177.4795,1.518066,959.2665,2,na,yes,Q25,remote,NaN,1,0.928571428571429,0.853211009174312
8,RaunerBackHall,0,RaunerBackHall,90,90,1,open,open,-8.790985,9.589776,175.5779,1.573059,978.0752,1,yes,yes,Q25,remote,1,1,0.833333333333333,0.853211009174312
11,neutral,0,McLaughlinCluster,262,90,0,open,open,-7.042297,10.90433,339.0657,1.099915,987.8763,2,na,yes,Q25,remote,NaN,0.333333333333333,0.928571428571429,0.853211009174312
13,Hop2,-1,Hop2,-91,-90,1,closed,closed,8.39264,8.134398,-175.4397,1.225098,994.7542,1,yes,yes,Q25,remote,1,1,0.833333333333333,0.853211009174312
15,neutral,0,AllenSt,90,90,0,closed,closed,-8.161163,14.97583,166.9543,2.297424,1002.745,2,na,yes,Q25,remote,NaN,1,0.928571428571429,0.853211009174312
16,53Commons,0,53Commons,90,-90,2,open,open,3.955579,6.41234,12.87396,1.16925,1005.989,3,yes,yes,Q25,remote,1,1,0.814814814814815,0.853211009174312
17,BakerBerryHistoric2,180,BakerBerryHistoric2,270,90,1,open,open,-7.465302,13.02042,349.7271,1.113586,1008.746,1,no,no,Q25,remote,0.666666666666667,0.666666666666667,0.833333333333333,0.853211009174312
19,Fairbanks,0,Fairbanks,270,90,2,open,open,-9.27298,9.470246,349.4526,1.726257,1015.415,3,yes,yes,Q25,remote,0.333333333333333,0.333333333333333,0.814814814814815,0.853211009174312
20,Maynard,0,Maynard,90,90,1,closed,closed,-9.50885,12.17128,167.6921,1.448059,1018.45,1,yes,yes,Q25,remote,0.666666666666667,0.666666666666667,0.833333333333333,0.853211009174312
22,RollinsChapel3,177,RollinsChapel3,267,-90,2,closed,closed,4.727434,1.540375,187.4212,1.96228,1025.383,3,yes,yes,Q25,remote,1,1,0.814814814814815,0.853211009174312
23,PineEntrance,0,PineEntrance,270,90,2,open,open,-12.08566,7.619207,344.7883,1.392334,1028.627,3,yes,yes,Q25,remote,1,1,0.814814814814815,0.853211009174312
25,neutral,0,Umplebys,-140,-90,0,open,open,4.143207,6.174886,-220.4979,1.002319,1034.377,2,na,yes,Q25,remote,NaN,0.666666666666667,0.928571428571429,0.853211009174312
26,neutral,0,BakerBerryHistoric2,90,-90,0,closed,closed,6.050366,10.40118,8.065186,1.22522,1037.69,2,na,no,Q25,remote,NaN,0.666666666666667,0.928571428571429,0.853211009174312
27,neutral,0,PineEntrance,90,90,0,closed,closed,-9.546021,12.59553,169.441,1.461426,1040.823,2,na,yes,Q25,remote,NaN,1,0.928571428571429,0.853211009174312
28,neutral,0,Zimmerman,-10,90,0,open,open,-8.987152,12.08315,63.27385,1.267212,1043.636,2,na,unsure,Q25,remote,NaN,0.333333333333333,0.928571428571429,0.853211009174312
29,neutral,0,MooreLot,270,90,0,open,open,-9.59967,7.492044,345.7735,1.336792,1046.559,2,na,yes,Q25,remote,NaN,0,0.928571428571429,0.853211009174312
30,Maynard,0,Maynard,90,-90,2,closed,closed,5.693611,4.096033,8.819153,1.364746,1049.817,3,yes,yes,Q25,remote,0.666666666666667,0.666666666666667,0.814814814814815,0.853211009174312
32,Umplebys,-50,Umplebys,40,90,1,closed,closed,-8.156097,4.270815,116.14,1.949219,1058.755,1,yes,yes,Q25,remote,0.666666666666667,0.666666666666667,0.833333333333333,0.853211009174312
33,Hop4,-3,Hop4,87,-90,2,closed,closed,10.63172,5.516404,5.7276,1.990967,1062.598,3,yes,yes,Q25,remote,1,1,0.814814814814815,0.853211009174312
34,neutral,0,PineBackHall,270,90,0,closed,closed,-10.1973,10.48463,348.0359,1.266968,1065.187,2,na,yes,Q25,remote,NaN,1,0.928571428571429,0.853211009174312
36,Fairbanks,0,Fairbanks,-90,-90,1,open,open,6.113699,2.405074,-169.1874,1.266968,1099.784,1,yes,yes,Q25,remote,0.333333333333333,0.333333333333333,0.833333333333333,0.853211009174312
37,neutral,0,RollinsChapel3,87,-90,0,open,open,5.193074,4.491601,12.56519,1.12793,1102.415,2,na,yes,Q25,remote,NaN,1,0.928571428571429,0.853211009174312
39,PineEntrance,0,PineEntrance,-90,-90,1,open,open,5.517332,4.133551,-163.0235,1.11377,1107.511,1,yes,yes,Q25,remote,1,1,0.833333333333333,0.853211009174312
40,AllenSt,0,AllenSt,-90,-90,1,open,open,0.7167605,6.62205,-162.5732,1.141602,1109.822,1,yes,yes,Q25,remote,1,1,0.833333333333333,0.853211009174312
42,MooreLot,180,MooreLot,90,90,2,closed,closed,-4.485168,6.57,164.6487,1.224976,1114.597,3,yes,yes,Q25,remote,0,0,0.814814814814815,0.853211009174312
43,AllenSt,0,AllenSt,-90,-90,1,open,open,4.053629,3.15133,-159.6318,1.030273,1116.839,1,yes,yes,Q25,remote,1,1,0.833333333333333,0.853211009174312
45,MooreLot,180,MooreLot,90,-90,1,closed,closed,5.246691,3.326955,12.69043,1.128052,1122.241,1,yes,yes,Q25,remote,0,0,0.833333333333333,0.853211009174312
47,neutral,0,Maynard,-90,-90,0,open,open,-2.483551,1.634056,-162.6839,1.628784,1128.547,2,na,yes,Q25,remote,NaN,0.666666666666667,0.928571428571429,0.853211009174312
48,53Commons,0,53Commons,90,90,1,open,open,-2.71814,4.073839,158.1558,1.239136,1131.652,1,yes,yes,Q25,remote,1,1,0.833333333333333,0.853211009174312
49,Fairbanks,0,Fairbanks,-90,-90,1,open,open,6.084607,2.744863,-151.5943,1.532349,1134.688,1,yes,yes,Q25,remote,0.333333333333333,0.333333333333333,0.833333333333333,0.853211009174312
50,AllenSt,0,AllenSt,270,90,2,open,open,-6.335999,3.52346,334.6392,1.69873,1138.196,3,yes,yes,Q25,remote,1,1,0.814814814814815,0.853211009174312
52,RaunerBackHall,0,RaunerBackHall,90,90,1,open,open,-11.29401,4.761359,160.6811,1.183594,1144.697,1,yes,yes,Q25,remote,1,1,0.833333333333333,0.853211009174312
53,BakerBerry2nd,94,BakerBerry2nd,184,-90,2,open,open,3.703688,0.3000412,113.1859,1.406006,1147.398,3,yes,yes,Q25,remote,1,1,0.814814814814815,0.853211009174312
54,BakerBerryCharter,-90,BakerBerryCharter,180,90,2,open,open,-6.623901,6.175459,240.2136,1.43396,1150.572,3,no,no,Q25,remote,0.666666666666667,0.666666666666667,0.814814814814815,0.853211009174312
55,Umplebys,-50,Umplebys,40,90,1,closed,closed,-8.424713,6.946001,110.5682,1.280518,1153.204,1,yes,yes,Q25,remote,0.666666666666667,0.666666666666667,0.833333333333333,0.853211009174312
56,Maynard,0,Maynard,90,90,1,closed,closed,-5.4711,6.766194,153.5575,1.447754,1156.378,1,yes,yes,Q25,remote,0.666666666666667,0.666666666666667,0.833333333333333,0.853211009174312
57,RaunerBackHall,0,RaunerBackHall,90,-90,2,open,open,3.858541,4.226204,20.27341,1.099976,1158.856,3,yes,yes,Q25,remote,1,1,0.814814814814815,0.853211009174312
59,McLaughlinCluster,172,McLaughlinCluster,82,-90,1,closed,closed,6.462213,11.46602,11.3212,1.977051,1165.26,1,yes,yes,Q25,remote,0.333333333333333,0.333333333333333,0.833333333333333,0.853211009174312
60,RaunerFirst,0,RaunerFirst,90,90,1,open,open,-5.67395,8.674973,151.4571,1.475952,1168.866,1,yes,yes,Q25,remote,0.333333333333333,0.333333333333333,0.833333333333333,0.853211009174312
61,neutral,0,BakerBerry2nd,4,-90,0,closed,closed,0.2530878,1.105688,-63.28046,1.378418,1171.86,2,na,yes,Q25,remote,NaN,1,0.928571428571429,0.853211009174312
62,MooreLot,180,MooreLot,90,-90,1,closed,closed,-3.694,8.872372,23.73553,1.2948,1174.714,1,yes,yes,Q25,remote,0,0,0.833333333333333,0.853211009174312
64,McLaughlinCluster,172,McLaughlinCluster,82,-90,1,closed,closed,-1.575714,5.009172,20.75757,1.211304,1180.839,1,yes,yes,Q25,remote,0.333333333333333,0.333333333333333,0.833333333333333,0.853211009174312
65,Umplebys,-50,Umplebys,40,-90,2,closed,closed,4.01828,11.61541,-28.41974,1.141357,1183.373,3,yes,yes,Q25,remote,0.666666666666667,0.666666666666667,0.814814814814815,0.853211009174312
66,RaunerFirst,0,RaunerFirst,90,90,1,open,open,-2.336975,12.10425,148.6121,1.54541,1186.478,1,yes,yes,Q25,remote,0.333333333333333,0.333333333333333,0.833333333333333,0.853211009174312
67,PineEntrance,0,PineEntrance,-90,-90,1,open,open,4.316063,10.76419,-158.6995,1.127563,1188.998,1,yes,yes,Q25,remote,1,1,0.833333333333333,0.853211009174312
68,neutral,0,RaunerBackHall,-90,-90,0,closed,closed,2.706764,12.77849,-160.291,1.225098,1191.685,2,na,yes,Q25,remote,NaN,1,0.928571428571429,0.853211009174312
70,BakerBerryCharter,-90,BakerBerryCharter,-180,-90,1,open,open,0.9023114,4.908799,-251.3009,1.36438,1197.978,1,no,no,Q25,remote,0.666666666666667,0.666666666666667,0.833333333333333,0.853211009174312
73,neutral,0,BakerBerryHistoric2,270,90,0,open,open,-6.579498,15.79759,344.1331,1.587036,1263.399,2,na,no,Q25,remote,NaN,0.666666666666667,0.928571428571429,0.853211009174312
74,RaunerBackHall,0,RaunerBackHall,270,90,2,closed,closed,-6.629425,3.752139,293.9897,1.545288,1266.726,3,yes,yes,Q25,remote,1,1,0.814814814814815,0.853211009174312
75,BakerBerryHistoric2,180,BakerBerryHistoric2,90,90,2,closed,closed,-14.02084,3.655584,161.832,0.9605713,1269.622,3,no,no,Q25,remote,0.666666666666667,0.666666666666667,0.814814814814815,0.853211009174312
78,PineEntrance,0,PineEntrance,90,-90,2,closed,closed,12.62288,13.55689,25.65662,1.322754,1277.655,3,yes,yes,Q25,remote,1,1,0.814814814814815,0.853211009174312
79,Hop4,-3,Hop4,-93,-90,1,open,open,8.933704,7.665607,-153.6285,1.642822,1280.551,1,yes,yes,Q25,remote,1,1,0.833333333333333,0.853211009174312
81,Hop2,-1,Hop2,89,90,1,open,open,-13.78983,4.259425,158.5729,1.127808,1285.647,1,yes,yes,Q25,remote,1,1,0.833333333333333,0.853211009174312
82,MooreLot,180,MooreLot,270,90,1,open,open,-5.911987,6.903399,332.976,1.55957,1288.306,1,yes,yes,Q25,remote,0,0,0.833333333333333,0.853211009174312
84,neutral,0,MooreLot,90,-90,0,closed,closed,5.990216,4.500199,13.59796,1.016724,1293.861,2,na,yes,Q25,remote,NaN,0,0.928571428571429,0.853211009174312
85,BakerBerry2nd,94,BakerBerry2nd,4,-90,1,closed,closed,6.406017,4.471828,-67.06738,0.9051514,1296.269,1,yes,yes,Q25,remote,1,1,0.833333333333333,0.853211009174312
87,McLaughlinCluster,172,McLaughlinCluster,262,-90,2,open,open,1.52968,2.905385,196.9207,1.044312,1300.557,3,yes,yes,Q25,remote,0.333333333333333,0.333333333333333,0.814814814814815,0.853211009174312
89,neutral,0,Fairbanks,-90,-90,0,open,open,9.651403,-0.3007202,-163.0784,1.55957,1305.987,2,na,yes,Q25,remote,NaN,0.333333333333333,0.928571428571429,0.853211009174312
91,Umplebys,-50,Umplebys,-140,-90,1,open,open,-2.689026,3.322903,-203.6189,1.18335,1310.874,1,yes,yes,Q25,remote,0.666666666666667,0.666666666666667,0.833333333333333,0.853211009174312
92,BakerBerry2nd,94,BakerBerry2nd,4,-90,1,closed,closed,3.813094,5.50931,-63.28778,1.086182,1313.143,1,yes,yes,Q25,remote,1,1,0.833333333333333,0.853211009174312
94,Maynard,0,Maynard,-90,-90,1,open,open,3.217832,6.649498,-155.3549,1.893066,1319.074,1,yes,yes,Q25,remote,0.666666666666667,0.666666666666667,0.833333333333333,0.853211009174312
95,Umplebys,-50,Umplebys,-140,-90,1,open,open,3.9034,4.961437,-207.8433,0.8492432,1321.009,1,yes,yes,Q25,remote,0.666666666666667,0.666666666666667,0.833333333333333,0.853211009174312
96,RaunerBackHall,0,RaunerBackHall,-90,-90,1,closed,closed,2.136336,2.564246,-132.2833,0.9321289,1323.07,1,yes,yes,Q25,remote,1,1,0.833333333333333,0.853211009174312
97,BakerBerryHistoric2,180,BakerBerryHistoric2,90,-90,1,closed,closed,4.519016,2.935292,22.81021,1.155762,1325.381,1,no,no,Q25,remote,0.666666666666667,0.666666666666667,0.833333333333333,0.853211009174312
99,neutral,0,PineBackHall,90,-90,0,open,open,7.419109,3.866163,14.83334,1.225098,1330.267,2,na,yes,Q25,remote,NaN,1,0.928571428571429,0.853211009174312
102,neutral,0,53Commons,90,90,0,open,open,-12.13135,7.739799,164.2383,1.155518,1338.245,2,na,yes,Q25,remote,NaN,1,0.928571428571429,0.853211009174312
104,MooreLot,180,MooreLot,270,-90,2,open,open,4.696996,0.8087476,203.8372,1.127808,1342.937,3,yes,yes,Q25,remote,0,0,0.814814814814815,0.853211009174312
105,BakerBerryCharter,-90,BakerBerryCharter,0,-90,2,closed,closed,3.572354,0.8427528,-68.31519,1.279907,1345.471,3,no,no,Q25,remote,0.666666666666667,0.666666666666667,0.814814814814815,0.853211009174312
106,RaunerBackHall,0,RaunerBackHall,-90,-90,1,closed,closed,7.011569,5.4407,-159.9013,0.7102051,1347.503,1,yes,yes,Q25,remote,1,1,0.833333333333333,0.853211009174312
107,Zimmerman,-100,Zimmerman,350,-90,2,open,open,2.407133,-6.170624,271.3454,1.085938,1393.196,3,unsure,unsure,Q25,remote,0.333333333333333,0.333333333333333,0.814814814814815,0.853211009174312
110,RaunerFirst,0,RaunerFirst,-90,-90,1,closed,closed,5.016617,4.466179,-163.7354,1.099976,1401.995,1,yes,yes,Q25,remote,0.333333333333333,0.333333333333333,0.833333333333333,0.853211009174312
113,PineBackHall,180,PineBackHall,270,-90,2,closed,closed,-0.112915,3.199829,205.8298,0.9051514,1408.608,3,yes,yes,Q25,remote,1,1,0.814814814814815,0.853211009174312
115,RaunerFirst,0,RaunerFirst,270,90,2,closed,closed,-13.98395,4.47205,334.7766,2.088135,1414.344,3,yes,yes,Q25,remote,0.333333333333333,0.333333333333333,0.814814814814815,0.853211009174312
118,RaunerFirst,0,RaunerFirst,-90,-90,1,closed,closed,3.377855,-1.376343,-161.5171,0.9608154,1423.77,1,yes,yes,Q25,remote,0.333333333333333,0.333333333333333,0.833333333333333,0.853211009174312
119,neutral,0,Hop2,-91,-90,0,closed,closed,-1.556549,0.006003629,-163.351,1.072021,1426.025,2,na,yes,Q25,remote,NaN,1,0.928571428571429,0.853211009174312
120,PineEntrance,0,PineEntrance,90,90,1,closed,closed,-10.77472,9.084542,159.0512,1.183472,1428.531,1,yes,yes,Q25,remote,1,1,0.833333333333333,0.853211009174312
122,McLaughlinCluster,172,McLaughlinCluster,262,90,1,open,open,-16.99582,11.14089,335.0192,1.155518,1433.028,1,yes,yes,Q25,remote,0.333333333333333,0.333333333333333,0.833333333333333,0.853211009174312
123,neutral,0,Umplebys,40,90,0,closed,closed,-23.24133,4.309707,118.3975,1.11438,1435.562,2,na,yes,Q25,remote,NaN,0.666666666666667,0.928571428571429,0.853211009174312
126,Hop4,-3,Hop4,267,90,2,open,open,-11.8855,7.281005,335.7457,1.364258,1443.08,3,yes,yes,Q25,remote,1,1,0.814814814814815,0.853211009174312
127,PineBackHall,180,PineBackHall,270,90,1,closed,closed,-11.10532,10.03409,341.7122,0.9329834,1445.224,1,yes,yes,Q25,remote,1,1,0.833333333333333,0.853211009174312
128,neutral,0,RaunerBackHall,90,90,0,open,open,-11.75162,10.45176,159.6752,0.9885254,1447.604,2,na,yes,Q25,remote,NaN,1,0.928571428571429,0.853211009174312
129,neutral,0,BakerBerry2nd,184,90,0,open,open,-9.634521,8.164095,253.4519,0.9882813,1450.083,2,na,yes,Q25,remote,NaN,1,0.928571428571429,0.853211009174312
131,Maynard,0,Maynard,-90,-90,1,open,open,0.7196845,0.7229924,-161.1885,1.016357,1454.51,1,yes,yes,Q25,remote,0.666666666666667,0.666666666666667,0.833333333333333,0.853211009174312
132,RollinsChapel3,177,RollinsChapel3,87,-90,1,open,open,1.647554,1.524258,14.90677,1.043945,1456.738,1,yes,yes,Q25,remote,1,1,0.833333333333333,0.853211009174312
133,Hop4,-3,Hop4,-93,-90,1,open,open,3.537508,1.139464,-164.9969,0.7937012,1458.812,1,yes,yes,Q25,remote,1,1,0.833333333333333,0.853211009174312
134,neutral,0,AllenSt,-90,-90,0,open,open,3.716302,-1.088013,-161.4053,0.9886475,1461.151,2,na,yes,Q25,remote,NaN,1,0.928571428571429,0.853211009174312
137,BakerBerryCharter,-90,BakerBerryCharter,0,90,1,closed,closed,-12.67068,6.63767,70.92277,1.072144,1468.711,1,no,no,Q25,remote,0.666666666666667,0.666666666666667,0.833333333333333,0.853211009174312
138,Fairbanks,0,Fairbanks,90,90,1,closed,closed,-14.41718,5.436666,162.4184,1.322632,1471.3,1,yes,yes,Q25,remote,0.333333333333333,0.333333333333333,0.833333333333333,0.853211009174312
139,Zimmerman,-100,Zimmerman,-10,90,1,open,open,-14.24744,5.420748,63.48793,1.266968,1473.932,1,unsure,unsure,Q25,remote,0.333333333333333,0.333333333333333,0.833333333333333,0.853211009174312
140,neutral,0,Maynard,90,90,0,closed,closed,-13.32416,3.822606,163.1395,0.9047852,1476.117,2,na,yes,Q25,remote,NaN,0.666666666666667,0.928571428571429,0.853211009174312
142,neutral,0,McLaughlinCluster,82,-90,0,closed,closed,-0.797821,-2.765198,13.50964,1.239258,1481.269,2,na,yes,Q25,remote,NaN,0.333333333333333,0.928571428571429,0.853211009174312
144,PineEntrance,0,PineEntrance,90,90,1,closed,closed,-10.92978,8.327595,163.6788,0.8492432,1485.766,1,yes,yes,Q25,remote,1,1,0.833333333333333,0.853211009174312
2,Zimmerman,-100,Zimmerman,170,90,2,closed,closed,-7.443146,-5.160919,252.754,1.350281,866.1758,3,yes,yes,Q04,remote,1,1,0.724137931034483,0.838095238095238
3,neutral,0,Hop4,-93,-90,0,open,open,4.225197,-6.658539,-177.9356,0.8775024,872.7476,2,na,yes,Q04,remote,NaN,1,0.884615384615385,0.838095238095238
5,BakerBerryCharter,-90,BakerBerryCharter,-180,-90,1,open,open,7.524808,-4.290009,-266.6771,1.462036,883.217,1,yes,yes,Q04,remote,0.333333333333333,0.333333333333333,0.88,0.838095238095238
7,BakerBerry2nd,94,BakerBerry2nd,184,90,1,open,open,-3.283752,-5.257477,262.7022,1.336914,890.568,1,yes,yes,Q04,remote,1,1,0.88,0.838095238095238
8,RaunerBackHall,0,RaunerBackHall,90,90,1,open,open,-3.728638,-6.706329,176.2117,1.406067,893.3384,1,yes,yes,Q04,remote,0.666666666666667,0.666666666666667,0.88,0.838095238095238
9,Hop2,-1,Hop2,269,90,2,closed,closed,-2.223236,-7.950684,350.9278,1.197144,897.0975,3,yes,yes,Q04,remote,1,1,0.724137931034483,0.838095238095238
10,BakerBerryHistoric2,180,BakerBerryHistoric2,270,-90,2,open,open,5.89697,-4.345764,181.9881,1.253418,899.9797,3,yes,yes,Q04,remote,0.666666666666667,0.666666666666667,0.724137931034483,0.838095238095238
11,neutral,0,McLaughlinCluster,262,90,0,open,open,-1.211578,-5.169952,339.2242,0.8074951,902.6943,2,na,yes,Q04,remote,NaN,1,0.884615384615385,0.838095238095238
16,53Commons,0,53Commons,90,-90,2,open,open,-1.104614,-5.485809,6.893494,0.9469604,921.2249,3,yes,yes,Q04,remote,0.666666666666667,0.666666666666667,0.724137931034483,0.838095238095238
17,BakerBerryHistoric2,180,BakerBerryHistoric2,270,90,1,open,open,-4.458862,-1.892151,348.7843,1.099792,924.4825,1,yes,yes,Q04,remote,0.666666666666667,0.666666666666667,0.88,0.838095238095238
19,Fairbanks,0,Fairbanks,270,90,2,open,open,-4.011993,-1.691986,350.1418,1.141724,929.5226,3,yes,yes,Q04,remote,1,1,0.724137931034483,0.838095238095238
20,Maynard,0,Maynard,90,90,1,closed,closed,-4.531158,5.760234,167.8784,1.294861,932.2375,1,yes,yes,Q04,remote,0.666666666666667,0.666666666666667,0.88,0.838095238095238
