trialIdx,primeName,primeAngleYaw,targetName,targetAngleYaw,targetSide,arrowDirection,sameScenePrime,correctResponse,response,roll,pitch,yaw,rt,timestamp,condition,familiarityTarget,familiarityPrime,subject_id,session_format,explicit_acc_scenewise_prime,explicit_acc_scenewise_target,oc_acc_by_condition,oc_acc
1,YellowHallway,0,YellowHallway,-90,-90,none,1,open,open,5.02753,-3.426239,-175.8094,1.169586,102.4208,1,missing,missing,member010_pilot,remote,NaN,NaN,0.895522388059702,0.9
2,neutral,0,Dublin2,-90,-90,none,0,closed,closed,2.783427,-3.070251,-171.6176,1.579475,105.1,2,missing,missing,member010_pilot,remote,NaN,NaN,0.935483870967742,0.9
3,SeattleNeighborhood9,0,SeattleNeighborhood9,90,90,none,1,open,open,-1.778809,-3.596283,160.7099,1.294868,113.3953,1,missing,missing,member010_pilot,remote,NaN,NaN,0.895522388059702,0.9
4,neutral,0,TriangleArchway,90,90,none,0,closed,closed,-2.338745,-4.59848,170.2516,1.207611,115.6194,2,missing,missing,member010_pilot,remote,NaN,NaN,0.935483870967742,0.9
5,ChiltonArch,0,ChiltonArch,-90,-90,none,1,open,open,4.135565,-1.515991,-171.4048,0.9880219,117.6687,1,missing,missing,member010_pilot,remote,NaN,NaN,0.895522388059702,0.9
6,ColumbiaStSeattle,0,DiningHall,170,90,none,0,open,open,-3.354767,-2.778961,253.3539,1.032341,119.7249,3,missing,missing,member010_pilot,remote,NaN,NaN,0.875,0.9
8,YellowHallway,0,OceanLot,90,90,none,0,open,open,-3.331879,-5.949921,165.4642,1.095428,131.0983,3,missing,missing,member010_pilot,remote,NaN,NaN,0.875,0.9
9,Dublin2,0,Dublin2,90,90,none,1,open,open,-1.722778,-7.001923,163.0564,0.9884796,133.2005,1,missing,missing,member010_pilot,remote,NaN,NaN,0.895522388059702,0.9
10,neutral,0,TrescaBoston,90,90,none,0,closed,closed,-2.316681,-2.440948,171.6992,0.9134674,135.1023,2,missing,missing,member010_pilot,remote,NaN,NaN,0.935483870967742,0.9
11,NewHavenMuseum2,252,ChurchLot,-90,-90,none,0,closed,closed,3.851724,-2.357605,-169.2806,0.9624634,137.1005,3,missing,missing,member010_pilot,remote,NaN,NaN,0.875,0.9
12,Hollingworth,0,Hollingworth,-90,-90,none,1,open,open,4.057609,-3.306183,-167.9188,1.100021,139.3182,1,missing,missing,member010_pilot,remote,NaN,NaN,0.895522388059702,0.9
13,ColumbiaStSeattle,0,ColumbiaStSeattle,90,90,none,1,open,open,-1.778717,-6.636536,158.0569,0.863266,141.1979,1,missing,missing,member010_pilot,remote,NaN,NaN,0.895522388059702,0.9
14,FenningStEngland,0,FenningStEngland,90,90,none,1,closed,closed,-2.728394,-2.498138,170.4178,0.8913422,143.1281,1,missing,missing,member010_pilot,remote,NaN,NaN,0.895522388059702,0.9
15,DownhillDriveway,0,DownhillDriveway,90,90,none,1,closed,closed,-2.70636,-2.706055,166.8914,1.044312,145.2045,1,missing,missing,member010_pilot,remote,NaN,NaN,0.895522388059702,0.9
16,Rotman,0,RueRousseletParis,90,90,none,0,closed,closed,-5.968964,0.3655164,173.0355,0.9967957,147.2757,3,missing,missing,member010_pilot,remote,NaN,NaN,0.875,0.9
17,ChurchLot,0,ColumbiaStSeattle,-90,-90,none,0,closed,closed,3.887265,-3.695587,-167.2024,1.07222,149.3362,3,missing,missing,member010_pilot,remote,NaN,NaN,0.875,0.9
18,neutral,0,WalnutApartment,90,90,none,0,open,open,-2.53302,-2.802551,167.6048,0.8726044,151.1555,2,missing,missing,member010_pilot,remote,NaN,NaN,0.935483870967742,0.9
19,WoodshopDoorway,0,WoodshopDoorway,-90,-90,none,1,closed,closed,4.035525,-5.441711,-166.938,1.058304,153.3018,1,missing,missing,member010_pilot,remote,NaN,NaN,0.895522388059702,0.9
20,RueRousseletParis,0,RosaPortsmouth,90,90,none,0,open,open,-3.111786,-3.156555,166.4332,1.099731,155.3484,3,missing,missing,member010_pilot,remote,NaN,NaN,0.875,0.9
21,WallOfHonor,90,WallOfHonor,180,90,none,1,open,open,-4.648041,-3.355042,257.8185,0.9468842,157.3007,1,missing,missing,member010_pilot,remote,NaN,NaN,0.895522388059702,0.9
22,MontessoriBooks,0,MontessoriBooks,90,90,none,1,open,open,-3.014893,-1.429077,169.4016,0.9466858,159.2046,1,missing,missing,member010_pilot,remote,NaN,NaN,0.895522388059702,0.9
25,SketchBurger,0,SketchBurger,90,90,none,1,open,open,-2.860535,-2.158173,169.856,0.9887848,165.6249,1,missing,missing,member010_pilot,remote,NaN,NaN,0.895522388059702,0.9
27,neutral,0,Hollingworth,90,90,none,0,closed,closed,-0.4533386,-4.899506,166.7634,1.100082,170.701,2,missing,missing,member010_pilot,remote,NaN,NaN,0.935483870967742,0.9
28,ChurchLot,0,ChurchLot,90,90,none,1,open,open,-2.445496,-4.829773,169.5714,0.9745178,172.7615,1,missing,missing,member010_pilot,remote,NaN,NaN,0.895522388059702,0.9
30,NewHavenMuseum2,252,NewHavenMuseum2,342,90,none,1,closed,closed,-1.726593,-4.877106,411.8148,1.169617,177.0617,1,missing,missing,member010_pilot,remote,NaN,NaN,0.895522388059702,0.9
31,neutral,0,MontessoriBooks,-90,-90,none,0,closed,closed,4.303108,-0.6355591,-168.3185,1.141632,179.1499,2,missing,missing,member010_pilot,remote,NaN,NaN,0.935483870967742,0.9
32,neutral,0,BennettPlace,90,90,none,0,closed,closed,-3.944092,-0.7861938,178.2816,0.9432831,181.0954,2,missing,missing,member010_pilot,remote,NaN,NaN,0.935483870967742,0.9
33,RueRousseletParis,0,RueRousseletParis,-90,-90,none,1,open,open,4.14135,-1.531067,-168.4725,0.7798462,182.8499,1,missing,missing,member010_pilot,remote,NaN,NaN,0.895522388059702,0.9
34,31stStNewYork,0,31stStNewYork,-90,-90,none,1,open,open,3.461326,-4.404907,-165.6961,0.8634949,184.7314,1,missing,missing,member010_pilot,remote,NaN,NaN,0.895522388059702,0.9
35,DiningHall,80,CottageAve,-90,-90,none,0,open,open,4.166855,-7.176331,-167.28,1.092468,194.2189,3,missing,missing,member010_pilot,remote,NaN,NaN,0.875,0.9
37,KnoxCollege,84,KnoxCollege,-6,-90,none,1,open,open,3.667547,-6.049133,-81.63181,0.8078308,198.1913,1,missing,missing,member010_pilot,remote,NaN,NaN,0.895522388059702,0.9
38,neutral,0,SketchBurger,-90,-90,none,0,closed,closed,4.402513,-2.616272,-170.3886,0.9755402,200.183,2,missing,missing,member010_pilot,remote,NaN,NaN,0.935483870967742,0.9
39,Portland3,0,SwarthmoreFriends,50,-90,none,0,closed,closed,4.754818,-4.015289,-26.57852,1.125534,202.261,3,missing,missing,member010_pilot,remote,NaN,NaN,0.875,0.9
40,neutral,0,KnoxCollege,174,90,none,0,closed,closed,-1.95578,-3.096283,244.3604,1.308807,204.5443,2,missing,missing,member010_pilot,remote,NaN,NaN,0.935483870967742,0.9
41,neutral,0,DownhillDriveway,-90,-90,none,0,open,open,4.32634,-4.311279,-165.3295,1.002274,206.5491,2,missing,missing,member010_pilot,remote,NaN,NaN,0.935483870967742,0.9
42,WalnutApartment,0,WalnutApartment,-90,-90,none,1,closed,closed,5.014992,-5.601044,-162.4845,1.058273,208.554,1,missing,missing,member010_pilot,remote,NaN,NaN,0.895522388059702,0.9
43,SeattleNeighborhood9,0,FuFoundationHall,90,90,none,0,closed,closed,-3.952454,-2.7966,168.9764,1.093842,210.5805,3,missing,missing,member010_pilot,remote,NaN,NaN,0.875,0.9
44,Portland3,0,Portland3,90,90,none,1,open,open,-3.528381,-7.289368,169.7539,0.9607849,212.5854,1,missing,missing,member010_pilot,remote,NaN,NaN,0.895522388059702,0.9
45,MountVernon,0,MountVernon,90,90,none,1,closed,closed,-2.387573,-3.488495,169.9241,0.9329834,214.5011,1,missing,missing,member010_pilot,remote,NaN,NaN,0.895522388059702,0.9
46,WallOfHonor,90,SeattleNeighborhood9,-90,-90,none,0,closed,closed,5.511581,-2.373169,-166.6556,0.9469757,216.4364,3,missing,missing,member010_pilot,remote,NaN,NaN,0.875,0.9
48,FuFoundation,270,FuFoundation,360,90,none,1,closed,closed,-2.250854,-1.701843,439.6999,0.891037,220.251,1,missing,missing,member010_pilot,remote,NaN,NaN,0.895522388059702,0.9
49,neutral,0,MarketColorado,-90,-90,none,0,open,open,4.032287,-5.814331,-172.2419,0.7765808,222.1274,2,missing,missing,member010_pilot,remote,NaN,NaN,0.935483870967742,0.9
50,Rotman,0,Rotman,90,90,none,1,open,open,-4.072662,-4.533813,170.0025,0.7658844,224.0208,1,missing,missing,member010_pilot,remote,NaN,NaN,0.895522388059702,0.9
52,TrescaBoston,0,TrescaBoston,-90,-90,none,1,open,open,4.448991,-1.128265,-173.0675,0.8771362,228.1593,1,missing,missing,member010_pilot,remote,NaN,NaN,0.895522388059702,0.9
53,Reykjavik,0,Reykjavik,90,90,none,1,open,open,-0.2022705,-6.892944,154.2475,1.002441,230.2198,1,missing,missing,member010_pilot,remote,NaN,NaN,0.895522388059702,0.9
54,ChiltonArch,0,NewHavenMuseum2,162,-90,none,0,open,open,4.547356,-1.892609,83.73944,0.9606781,232.1272,3,missing,missing,member010_pilot,remote,NaN,NaN,0.875,0.9
56,CottageAve,0,CottageAve,90,90,none,1,closed,closed,-4.101624,-0.6515503,169.3047,1.002533,236.0951,1,missing,missing,member010_pilot,remote,NaN,NaN,0.895522388059702,0.9
57,neutral,0,FenningStEngland,-90,-90,none,0,open,open,4.45005,-4.227051,-167.0473,0.8771973,237.9746,2,missing,missing,member010_pilot,remote,NaN,NaN,0.935483870967742,0.9
58,NorthPlaza,0,NorthPlaza,-90,-90,none,1,closed,closed,5.309448,-3.516144,-166.5035,1.07225,240.787,1,missing,missing,member010_pilot,remote,NaN,NaN,0.895522388059702,0.9
59,SwarthmoreFriends,140,SwarthmoreFriends,230,90,none,1,open,open,-3.184235,-4.628906,308.8653,1.155594,242.8752,1,missing,missing,member010_pilot,remote,NaN,NaN,0.895522388059702,0.9
60,neutral,0,ZebraEntry,90,90,none,0,open,open,-1.918365,-4.747437,163.2473,1.163635,245.0829,2,missing,missing,member010_pilot,remote,NaN,NaN,0.935483870967742,0.9
61,neutral,0,31stStNewYork,90,90,none,0,closed,closed,-1.719971,-2.975037,168.0055,1.309021,247.6029,2,missing,missing,member010_pilot,remote,NaN,NaN,0.935483870967742,0.9
62,FuFoundationHall,0,FuFoundationHall,-90,-90,none,1,open,open,4.043383,-1.738861,-163.4792,0.8632507,249.5101,1,missing,missing,member010_pilot,remote,NaN,NaN,0.895522388059702,0.9
63,SwarthmoreFriends,140,Portland3,-90,-90,none,0,closed,closed,3.692867,-3.268555,-164.0833,0.9329681,251.4455,3,missing,missing,member010_pilot,remote,NaN,NaN,0.875,0.9
64,ViaAgency,0,ViaAgency,-90,-90,none,1,closed,closed,3.152921,6.48862,-165.483,1.198212,253.5762,1,missing,missing,member010_pilot,remote,NaN,NaN,0.895522388059702,0.9
65,neutral,0,MountVernon,-90,-90,none,0,open,open,5.893091,-7.329071,-167.2816,1.044373,255.5525,2,missing,missing,member010_pilot,remote,NaN,NaN,0.935483870967742,0.9
66,RosaPortsmouth,0,WallOfHonor,0,-90,none,0,closed,closed,5.635013,-6.526215,-76.52106,1.559509,257.989,3,missing,missing,member010_pilot,remote,NaN,NaN,0.875,0.9
67,CottageAve,0,Rotman,-90,-90,none,0,closed,closed,4.844538,0.3648402,-166.2761,1.155701,260.1051,3,missing,missing,member010_pilot,remote,NaN,NaN,0.875,0.9
68,OceanLot,0,OceanLot,-90,-90,none,1,closed,closed,4.442764,-2.659332,-164.122,1.099915,262.2631,1,missing,missing,member010_pilot,remote,NaN,NaN,0.895522388059702,0.9
71,FuFoundationHall,0,WoodshopDoorway,90,90,none,0,open,open,-1.405548,0.1641763,168.8538,1.058075,277.6471,3,missing,missing,member010_pilot,remote,NaN,NaN,0.875,0.9
72,MarketColorado,0,MarketColorado,90,90,none,1,closed,closed,-1.528595,-5.552734,159.1932,1.19751,279.8609,1,missing,missing,member010_pilot,remote,NaN,NaN,0.895522388059702,0.9
75,WalnutApartment,0,WalnutApartment,90,90,none,1,open,open,-1.909729,-3.452301,165.2906,0.9747314,286.3904,1,missing,missing,member010_pilot,remote,NaN,NaN,0.895522388059702,0.9
76,neutral,0,Rotman,90,90,none,0,open,open,-1.576538,-4.729034,163.0864,0.9467163,288.3951,2,missing,missing,member010_pilot,remote,NaN,NaN,0.935483870967742,0.9
78,neutral,0,TrescaBoston,-90,-90,none,0,open,open,4.717026,-1.604156,-167.8498,0.9189148,292.5441,2,missing,missing,member010_pilot,remote,NaN,NaN,0.935483870967742,0.9
79,neutral,0,WalnutApartment,-90,-90,none,0,closed,closed,5.398047,-3.332642,-165.388,1.295013,294.8413,2,missing,missing,member010_pilot,remote,NaN,NaN,0.935483870967742,0.9
80,SketchBurger,0,TriangleArchway,-90,-90,none,0,open,open,5.110703,-3.766144,-168.0739,1.058197,296.8599,3,missing,missing,member010_pilot,remote,NaN,NaN,0.875,0.9
81,neutral,0,MountVernon,90,90,none,0,closed,closed,-3.072266,-5.782654,158.6458,1.127747,299.0457,2,missing,missing,member010_pilot,remote,NaN,NaN,0.935483870967742,0.9
82,SwarthmoreFriends,140,SwarthmoreFriends,50,-90,none,1,closed,closed,5.421461,-3.73233,-23.56598,0.8493652,300.981,1,missing,missing,member010_pilot,remote,NaN,NaN,0.895522388059702,0.9
83,FenningStEngland,0,SketchBurger,90,90,none,0,open,open,-2.500275,-4.030029,155.7372,1.225281,303.2643,3,missing,missing,member010_pilot,remote,NaN,NaN,0.875,0.9
84,DownhillDriveway,0,BennettPlace,-90,-90,none,0,open,open,5.07811,-3.576996,-165.0059,0.9885559,305.2969,3,missing,missing,member010_pilot,remote,NaN,NaN,0.875,0.9
85,neutral,0,DiningHall,-10,-90,none,0,closed,closed,6.619417,-3.803986,-81.22437,1.267334,307.5247,2,missing,missing,member010_pilot,remote,NaN,NaN,0.935483870967742,0.9
86,31stStNewYork,0,WoodshopDoorway,-90,-90,none,0,closed,closed,5.343852,-1.218506,-164.3068,1.141602,309.6267,3,missing,missing,member010_pilot,remote,NaN,NaN,0.875,0.9
87,neutral,0,YellowHallway,-90,-90,none,0,open,open,3.252783,2.361124,-163.4196,0.9888,311.6038,2,missing,missing,member010_pilot,remote,NaN,NaN,0.935483870967742,0.9
88,neutral,0,KnoxCollege,-6,-90,none,0,open,open,6.822823,-4.50589,-75.53223,0.9329224,313.5111,2,missing,missing,member010_pilot,remote,NaN,NaN,0.935483870967742,0.9
90,FuFoundationHall,0,DownhillDriveway,90,90,none,0,closed,closed,-4.105225,-4.244415,172.019,0.9606323,317.3954,3,missing,missing,member010_pilot,remote,NaN,NaN,0.875,0.9
91,TrescaBoston,0,TrescaBoston,90,90,none,1,closed,closed,-4.368469,0.6269276,166.8931,1.016388,319.3305,1,missing,missing,member010_pilot,remote,NaN,NaN,0.895522388059702,0.9
92,SwarthmoreFriends,140,FuFoundationHall,-90,-90,none,0,open,open,5.53753,-2.749481,-168.8496,0.8354797,321.1683,3,missing,missing,member010_pilot,remote,NaN,NaN,0.875,0.9
93,YellowHallway,0,YellowHallway,90,90,none,1,closed,closed,-2.049896,-2.279297,160.3051,1.225128,323.3958,1,missing,missing,member010_pilot,remote,NaN,NaN,0.895522388059702,0.9
94,Reykjavik,0,FenningStEngland,90,90,none,0,closed,closed,-2.667328,-2.38031,169.2917,0.9884338,325.331,3,missing,missing,member010_pilot,remote,NaN,NaN,0.875,0.9
96,Portland3,0,Portland3,-90,-90,none,1,closed,closed,4.65414,-9.493195,-142.8303,1.211426,329.8003,1,missing,missing,member010_pilot,remote,NaN,NaN,0.895522388059702,0.9
97,BennettPlace,0,Reykjavik,90,90,none,0,open,open,-2.393097,-5.745728,160.7624,0.8771057,331.7771,3,missing,missing,member010_pilot,remote,NaN,NaN,0.875,0.9
98,ChurchLot,0,ChurchLot,-90,-90,none,1,closed,closed,4.799345,-3.7677,-164.1226,1.016449,333.8933,1,missing,missing,member010_pilot,remote,NaN,NaN,0.895522388059702,0.9
99,Reykjavik,0,Reykjavik,-90,-90,none,1,closed,closed,5.213119,-2.805939,-166.7247,0.9886169,335.8564,1,missing,missing,member010_pilot,remote,NaN,NaN,0.895522388059702,0.9
100,DownhillDriveway,0,DownhillDriveway,-90,-90,none,1,open,open,5.286635,-1.847351,-169.14,0.8913879,337.7782,1,missing,missing,member010_pilot,remote,NaN,NaN,0.895522388059702,0.9
101,neutral,0,ViaAgency,-90,-90,none,0,closed,closed,5.509198,1.996539,-168.1581,1.08609,339.9217,2,missing,missing,member010_pilot,remote,NaN,NaN,0.935483870967742,0.9
102,RueRousseletParis,0,RueRousseletParis,90,90,none,1,closed,closed,-2.020355,-2.912323,167.6584,0.9057312,341.7879,1,missing,missing,member010_pilot,remote,NaN,NaN,0.895522388059702,0.9
103,FenningStEngland,0,FenningStEngland,-90,-90,none,1,open,open,5.04553,-2.563599,-164.9386,0.8076782,343.6112,1,missing,missing,member010_pilot,remote,NaN,NaN,0.895522388059702,0.9
104,Dublin2,0,Dublin2,-90,-90,none,1,closed,closed,6.58534,-2.410187,-165.8123,0.960907,345.5187,1,missing,missing,member010_pilot,remote,NaN,NaN,0.895522388059702,0.9
105,WallOfHonor,90,WallOfHonor,0,-90,none,1,closed,closed,7.677487,-3.965424,-75.59119,0.8487244,347.3423,1,missing,missing,member010_pilot,remote,NaN,NaN,0.895522388059702,0.9
107,CottageAve,0,CottageAve,-90,-90,none,1,open,open,4.226613,-6.571381,-163.3261,0.9885559,365.0793,1,missing,missing,member010_pilot,remote,NaN,NaN,0.895522388059702,0.9
108,MarketColorado,0,MarketColorado,-90,-90,none,1,open,open,4.743758,-9.413116,-160.981,0.7380981,366.6805,1,missing,missing,member010_pilot,remote,NaN,NaN,0.895522388059702,0.9
109,ZebraEntry,0,OceanLot,-90,-90,none,0,closed,closed,5.177081,-5.734924,-165.0139,0.8910217,368.4624,3,missing,missing,member010_pilot,remote,NaN,NaN,0.875,0.9
112,31stStNewYork,0,31stStNewYork,90,90,none,1,closed,closed,-1.786926,-8.952148,168.108,0.8771362,374.2959,1,missing,missing,member010_pilot,remote,NaN,NaN,0.895522388059702,0.9
114,Hollingworth,0,Hollingworth,90,90,none,1,closed,closed,-2.913544,-6.125122,166.2627,1.044434,378.2081,1,missing,missing,member010_pilot,remote,NaN,NaN,0.895522388059702,0.9
115,MountVernon,0,MountVernon,-90,-90,none,1,open,open,6.613486,-6.714417,-162.9146,0.9746094,380.1154,1,missing,missing,member010_pilot,remote,NaN,NaN,0.895522388059702,0.9
117,NorthPlaza,0,NorthPlaza,90,90,none,1,open,open,-2.305786,-4.077667,170.5952,1.04422,384.0555,1,missing,missing,member010_pilot,remote,NaN,NaN,0.895522388059702,0.9
118,Rotman,0,Rotman,-90,-90,none,1,closed,closed,7.044777,3.773638,-168.8891,1.072296,386.1717,1,missing,missing,member010_pilot,remote,NaN,NaN,0.895522388059702,0.9
120,NewHavenMuseum2,252,NewHavenMuseum2,162,-90,none,1,open,open,4.788556,0.5143325,85.82376,0.9329224,390.1115,1,missing,missing,member010_pilot,remote,NaN,NaN,0.895522388059702,0.9
122,neutral,0,WallOfHonor,180,90,none,0,open,open,-0.8395081,-3.014526,257.9828,1.211273,394.3718,2,missing,missing,member010_pilot,remote,NaN,NaN,0.935483870967742,0.9
124,SeattleNeighborhood9,0,SeattleNeighborhood9,-90,-90,none,1,closed,closed,4.400205,-1.776703,-166.2119,0.9190369,398.2423,1,missing,missing,member010_pilot,remote,NaN,NaN,0.895522388059702,0.9
125,DiningHall,80,DiningHall,170,90,none,1,open,open,-2.353333,-4.760468,253.3966,0.9328613,400.1775,1,missing,missing,member010_pilot,remote,NaN,NaN,0.895522388059702,0.9
126,neutral,0,Portland3,90,90,none,0,open,open,-2.080444,-6.34787,167.261,0.8912659,402.1406,2,missing,missing,member010_pilot,remote,NaN,NaN,0.935483870967742,0.9
127,RosaPortsmouth,0,31stStNewYork,-90,-90,none,0,open,open,5.051412,-5.19812,-164.8144,0.8353882,403.8947,3,missing,missing,member010_pilot,remote,NaN,NaN,0.875,0.9
128,neutral,0,NewHavenMuseum2,342,90,none,0,closed,closed,-1.186707,-1.524139,416.3328,1.22525,406.0248,2,missing,missing,member010_pilot,remote,NaN,NaN,0.935483870967742,0.9
129,TriangleArchway,0,CottageAve,90,90,none,0,closed,closed,-2.730133,-2.99765,170.4288,0.988739,407.988,3,missing,missing,member010_pilot,remote,NaN,NaN,0.875,0.9
130,MarketColorado,0,RueRousseletParis,-90,-90,none,0,open,open,4.864675,-3.014709,-162.9231,0.7796021,409.7142,3,missing,missing,member010_pilot,remote,NaN,NaN,0.875,0.9
131,neutral,0,SeattleNeighborhood9,90,90,none,0,open,open,-2.61322,-2.698486,165.0964,0.9328613,411.5938,2,missing,missing,member010_pilot,remote,NaN,NaN,0.935483870967742,0.9
133,RosaPortsmouth,0,RosaPortsmouth,90,90,none,1,open,open,-2.875305,-4.356445,164.8887,1.072052,415.9235,1,missing,missing,member010_pilot,remote,NaN,NaN,0.895522388059702,0.9
134,MontessoriBooks,0,MontessoriBooks,-90,-90,none,1,closed,closed,3.289004,2.176345,-165.6283,1.113983,418.0258,1,missing,missing,member010_pilot,remote,NaN,NaN,0.895522388059702,0.9
136,FuFoundationHall,0,FuFoundationHall,90,90,none,1,closed,closed,-1.504425,-0.195282,167.2214,1.016418,422.5227,1,missing,missing,member010_pilot,remote,NaN,NaN,0.895522388059702,0.9
137,WoodshopDoorway,0,WoodshopDoorway,90,90,none,1,open,open,-1.480469,-0.495636,164.394,1.22522,424.8617,1,missing,missing,member010_pilot,remote,NaN,NaN,0.895522388059702,0.9
138,Dublin2,0,ColumbiaStSeattle,90,90,none,0,open,open,-1.299103,-4.990875,161.862,0.9468079,426.9083,3,missing,missing,member010_pilot,remote,NaN,NaN,0.875,0.9
139,neutral,0,NorthPlaza,-90,-90,none,0,closed,closed,4.820764,-1.696136,-168.9929,1.113861,429.0523,2,missing,missing,member010_pilot,remote,NaN,NaN,0.935483870967742,0.9
140,BennettPlace,0,BennettPlace,90,90,none,1,closed,closed,-1.35498,-0.5863953,166.8582,1.434052,431.5584,1,missing,missing,member010_pilot,remote,NaN,NaN,0.895522388059702,0.9
141,neutral,0,ChiltonArch,-90,-90,none,0,open,open,4.057763,-2.36911,-163.4388,0.9189148,433.6187,2,missing,missing,member010_pilot,remote,NaN,NaN,0.935483870967742,0.9
142,ColumbiaStSeattle,0,ColumbiaStSeattle,-90,-90,none,1,closed,closed,5.12755,-3.469299,-168.2169,1.072083,435.8046,1,missing,missing,member010_pilot,remote,NaN,NaN,0.895522388059702,0.9
143,SketchBurger,0,SketchBurger,-90,-90,none,1,closed,closed,4.118057,2.343152,-171.3704,1.184357,438.0192,1,missing,missing,member010_pilot,remote,NaN,NaN,0.895522388059702,0.9
1,YellowHallway,0,YellowHallway,-90,-90,none,1,open,open,1.861464,-0.7061462,-179.1989,1.308746,245.7389,1,missing,missing,member008_pilot,remote,NaN,NaN,0.938461538461538,0.937984496124031
2,neutral,0,Dublin2,-90,-90,none,0,closed,closed,0.8431411,-1.158386,-180.6571,1.261414,249.8263,2,missing,missing,member008_pilot,remote,NaN,NaN,0.96969696969697,0.937984496124031
4,neutral,0,TriangleArchway,90,90,none,0,closed,closed,-0.9048157,0.6795806,177.284,1.111359,255.6191,2,missing,missing,member008_pilot,remote,NaN,NaN,0.96969696969697,0.937984496124031
5,ChiltonArch,0,ChiltonArch,-90,-90,none,1,open,open,1.024365,0.5277041,-179.7888,1.128052,258.4868,1,missing,missing,member008_pilot,remote,NaN,NaN,0.938461538461538,0.937984496124031
6,ColumbiaStSeattle,0,DiningHall,170,90,none,0,open,open,-0.6384888,1.419111,258.2104,1.275269,261.2486,3,missing,missing,member008_pilot,remote,NaN,NaN,0.903225806451613,0.937984496124031
7,RosaPortsmouth,0,RosaPortsmouth,-90,-90,none,1,closed,closed,0.8096665,0.8323273,-180.6358,1.281036,263.9647,1,missing,missing,member008_pilot,remote,NaN,NaN,0.938461538461538,0.937984496124031
8,YellowHallway,0,OceanLot,90,90,none,0,open,open,0.3023567,2.364037,177.646,1.120209,266.4353,3,missing,missing,member008_pilot,remote,NaN,NaN,0.903225806451613,0.937984496124031
10,neutral,0,TrescaBoston,90,90,none,0,closed,closed,0.6870421,4.449641,178.0978,1.056824,271.5296,2,missing,missing,member008_pilot,remote,NaN,NaN,0.96969696969697,0.937984496124031
12,Hollingworth,0,Hollingworth,-90,-90,none,1,open,open,3.850492,-0.2373962,-179.4347,1.183594,276.5383,1,missing,missing,member008_pilot,remote,NaN,NaN,0.938461538461538,0.937984496124031
13,ColumbiaStSeattle,0,ColumbiaStSeattle,90,90,none,1,open,open,0.005718559,3.49824,172.1429,1.197144,278.947,1,missing,missing,member008_pilot,remote,NaN,NaN,0.938461538461538,0.937984496124031
14,FenningStEngland,0,FenningStEngland,90,90,none,1,closed,closed,-0.9969482,3.339048,172.0629,1.030548,281.1615,1,missing,missing,member008_pilot,remote,NaN,NaN,0.938461538461538,0.937984496124031
15,DownhillDriveway,0,DownhillDriveway,90,90,none,1,closed,closed,-1.660858,3.140838,168.5061,0.9608459,283.2834,1,missing,missing,member008_pilot,remote,NaN,NaN,0.938461538461538,0.937984496124031
16,Rotman,0,RueRousseletParis,90,90,none,0,closed,closed,-0.4321289,2.48258,172.321,1.278809,285.7568,3,missing,missing,member008_pilot,remote,NaN,NaN,0.903225806451613,0.937984496124031
17,ChurchLot,0,ColumbiaStSeattle,-90,-90,none,0,closed,closed,0.3610364,0.7560362,-180.7812,1.141541,288.1793,3,missing,missing,member008_pilot,remote,NaN,NaN,0.903225806451613,0.937984496124031
18,neutral,0,WalnutApartment,90,90,none,0,open,open,-1.653229,2.188792,171.315,1.283203,291.2585,2,missing,missing,member008_pilot,remote,NaN,NaN,0.96969696969697,0.937984496124031
19,WoodshopDoorway,0,WoodshopDoorway,-90,-90,none,1,closed,closed,1.519302,1.881709,-176.7495,1.1698,293.5942,1,missing,missing,member008_pilot,remote,NaN,NaN,0.938461538461538,0.937984496124031
20,RueRousseletParis,0,RosaPortsmouth,90,90,none,0,open,open,-1.388855,2.7798,173.6135,1.225708,295.9196,3,missing,missing,member008_pilot,remote,NaN,NaN,0.903225806451613,0.937984496124031
22,MontessoriBooks,0,MontessoriBooks,90,90,none,1,open,open,-0.6572571,1.554691,176.5806,1.141754,300.8188,1,missing,missing,member008_pilot,remote,NaN,NaN,0.938461538461538,0.937984496124031
23,neutral,0,Reykjavik,-90,-90,none,0,closed,closed,1.541947,-0.02697754,-184.9529,1.099213,303.0457,2,missing,missing,member008_pilot,remote,NaN,NaN,0.96969696969697,0.937984496124031
24,OceanLot,0,ChiltonArch,90,90,none,0,closed,closed,0.7737627,1.040699,180.8375,1.322662,305.7049,3,missing,missing,member008_pilot,remote,NaN,NaN,0.903225806451613,0.937984496124031
25,SketchBurger,0,SketchBurger,90,90,none,1,open,open,-0.6733093,1.930053,175.796,1.183533,308.1115,1,missing,missing,member008_pilot,remote,NaN,NaN,0.938461538461538,0.937984496124031
27,neutral,0,Hollingworth,90,90,none,0,closed,closed,-0.5860291,1.373255,179.304,1.113892,313.0433,2,missing,missing,member008_pilot,remote,NaN,NaN,0.96969696969697,0.937984496124031
28,ChurchLot,0,ChurchLot,90,90,none,1,open,open,-0.6512146,0.5289467,175.4573,1.016235,315.3125,1,missing,missing,member008_pilot,remote,NaN,NaN,0.938461538461538,0.937984496124031
29,neutral,0,FuFoundation,180,-90,none,0,open,open,1.122506,-0.06539917,86.14496,1.451233,318.0305,2,missing,missing,member008_pilot,remote,NaN,NaN,0.96969696969697,0.937984496124031
30,NewHavenMuseum2,252,NewHavenMuseum2,342,90,none,1,closed,closed,-0.9281006,0.04868765,432.657,1.127533,320.4391,1,missing,missing,member008_pilot,remote,NaN,NaN,0.938461538461538,0.937984496124031
31,neutral,0,MontessoriBooks,-90,-90,none,0,closed,closed,2.05168,2.092232,-182.0446,1.267029,322.8894,2,missing,missing,member008_pilot,remote,NaN,NaN,0.96969696969697,0.937984496124031
32,neutral,0,BennettPlace,90,90,none,0,closed,closed,-0.8166199,1.626011,177.97,1.062775,325.1633,2,missing,missing,member008_pilot,remote,NaN,NaN,0.96969696969697,0.937984496124031
33,RueRousseletParis,0,RueRousseletParis,-90,-90,none,1,open,open,1.855648,2.286765,-179.2908,1.127808,327.4745,1,missing,missing,member008_pilot,remote,NaN,NaN,0.938461538461538,0.937984496124031
35,DiningHall,80,CottageAve,-90,-90,none,0,open,open,3.630192,-0.9278564,-179.5164,1.265564,339.1154,3,missing,missing,member008_pilot,remote,NaN,NaN,0.903225806451613,0.937984496124031
36,TriangleArchway,0,TriangleArchway,-90,-90,none,1,open,open,5.751712,-1.371796,-180.3804,1.211212,341.5657,1,missing,missing,member008_pilot,remote,NaN,NaN,0.938461538461538,0.937984496124031
37,KnoxCollege,84,KnoxCollege,-6,-90,none,1,open,open,2.61663,0.1409043,-94.3631,1.197571,343.9083,1,missing,missing,member008_pilot,remote,NaN,NaN,0.938461538461538,0.937984496124031
38,neutral,0,SketchBurger,-90,-90,none,0,closed,closed,4.5842,2.149085,-179.8586,1.322815,346.3865,2,missing,missing,member008_pilot,remote,NaN,NaN,0.96969696969697,0.937984496124031
39,Portland3,0,SwarthmoreFriends,50,-90,none,0,closed,closed,2.857871,0.5989948,-36.01752,1.150299,348.6768,3,missing,missing,member008_pilot,remote,NaN,NaN,0.903225806451613,0.937984496124031
40,neutral,0,KnoxCollege,174,90,none,0,closed,closed,-3.310883,0.680189,250.1319,1.350342,351.1967,2,missing,missing,member008_pilot,remote,NaN,NaN,0.96969696969697,0.937984496124031
41,neutral,0,DownhillDriveway,-90,-90,none,0,open,open,2.583986,-1.227173,-181.284,0.9745483,353.3547,2,missing,missing,member008_pilot,remote,NaN,NaN,0.96969696969697,0.937984496124031
42,WalnutApartment,0,WalnutApartment,-90,-90,none,1,closed,closed,1.956894,-0.5551758,-180.2173,1.169525,355.7494,1,missing,missing,member008_pilot,remote,NaN,NaN,0.938461538461538,0.937984496124031
44,Portland3,0,Portland3,90,90,none,1,open,open,-1.967072,-1.550323,169.899,1.364655,360.8702,1,missing,missing,member008_pilot,remote,NaN,NaN,0.938461538461538,0.937984496124031
45,MountVernon,0,MountVernon,90,90,none,1,closed,closed,-1.299408,1.46935,169.9824,1.002594,363.0311,1,missing,missing,member008_pilot,remote,NaN,NaN,0.938461538461538,0.937984496124031
46,WallOfHonor,90,SeattleNeighborhood9,-90,-90,none,0,closed,closed,4.082916,2.642985,-179.0534,1.183411,365.3423,3,missing,missing,member008_pilot,remote,NaN,NaN,0.903225806451613,0.937984496124031
47,BennettPlace,0,BennettPlace,-90,-90,none,1,open,open,2.851128,-0.8334961,-177.8132,1.225281,367.7371,1,missing,missing,member008_pilot,remote,NaN,NaN,0.938461538461538,0.937984496124031
48,FuFoundation,270,FuFoundation,360,90,none,1,closed,closed,-2.282379,2.359149,441.452,0.9049988,369.8671,1,missing,missing,member008_pilot,remote,NaN,NaN,0.938461538461538,0.937984496124031
49,neutral,0,MarketColorado,-90,-90,none,0,open,open,2.770826,-0.4243164,-180.1543,1.111328,372.1617,2,missing,missing,member008_pilot,remote,NaN,NaN,0.96969696969697,0.937984496124031
50,Rotman,0,Rotman,90,90,none,1,open,open,-0.7507019,-0.2193909,170.2935,1.183411,374.6671,1,missing,missing,member008_pilot,remote,NaN,NaN,0.938461538461538,0.937984496124031
51,neutral,0,ViaAgency,90,90,none,0,open,open,-0.7875671,-0.7593994,171.1076,1.343079,377.1518,2,missing,missing,member008_pilot,remote,NaN,NaN,0.96969696969697,0.937984496124031
52,TrescaBoston,0,TrescaBoston,-90,-90,none,1,open,open,3.015358,1.336388,-180.3591,1.155609,379.4212,1,missing,missing,member008_pilot,remote,NaN,NaN,0.938461538461538,0.937984496124031
53,Reykjavik,0,Reykjavik,90,90,none,1,open,open,-0.8049011,-0.7611694,167.2258,1.211273,381.8716,1,missing,missing,member008_pilot,remote,NaN,NaN,0.938461538461538,0.937984496124031
54,ChiltonArch,0,NewHavenMuseum2,162,-90,none,0,open,open,3.59906,1.986082,74.21161,1.239075,384.28,3,missing,missing,member008_pilot,remote,NaN,NaN,0.903225806451613,0.937984496124031
55,DiningHall,80,DiningHall,-10,-90,none,1,closed,closed,3.143104,1.484337,-95.51923,1.448212,386.9115,1,missing,missing,member008_pilot,remote,NaN,NaN,0.938461538461538,0.937984496124031
56,CottageAve,0,CottageAve,90,90,none,1,closed,closed,-1.233154,-0.2921753,170.1423,1.197449,389.2365,1,missing,missing,member008_pilot,remote,NaN,NaN,0.938461538461538,0.937984496124031
57,neutral,0,FenningStEngland,-90,-90,none,0,open,open,2.46086,-0.01171875,-177.5712,1.044128,391.6171,2,missing,missing,member008_pilot,remote,NaN,NaN,0.96969696969697,0.937984496124031
58,NorthPlaza,0,NorthPlaza,-90,-90,none,1,closed,closed,2.293707,0.3950333,-179.8811,1.239166,394.3181,1,missing,missing,member008_pilot,remote,NaN,NaN,0.938461538461538,0.937984496124031
59,SwarthmoreFriends,140,SwarthmoreFriends,230,90,none,1,open,open,-0.675415,-0.8135071,312.2968,1.113831,396.7267,1,missing,missing,member008_pilot,remote,NaN,NaN,0.938461538461538,0.937984496124031
61,neutral,0,31stStNewYork,90,90,none,0,closed,closed,-1.713684,-2.155243,172.5463,1.044281,401.5609,2,missing,missing,member008_pilot,remote,NaN,NaN,0.96969696969697,0.937984496124031
62,FuFoundationHall,0,FuFoundationHall,-90,-90,none,1,open,open,3.140776,1.103765,-179.0235,1.058167,404.0112,1,missing,missing,member008_pilot,remote,NaN,NaN,0.938461538461538,0.937984496124031
63,SwarthmoreFriends,140,Portland3,-90,-90,none,0,closed,closed,3.125436,0.2645415,-175.6795,1.072174,406.2389,3,missing,missing,member008_pilot,remote,NaN,NaN,0.903225806451613,0.937984496124031
64,ViaAgency,0,ViaAgency,-90,-90,none,1,closed,closed,1.497731,1.951793,-182.3899,1.113953,408.731,1,missing,missing,member008_pilot,remote,NaN,NaN,0.938461538461538,0.937984496124031
65,neutral,0,MountVernon,-90,-90,none,0,open,open,1.811655,-0.8386536,-182.1368,1.113647,411.2508,2,missing,missing,member008_pilot,remote,NaN,NaN,0.96969696969697,0.937984496124031
66,RosaPortsmouth,0,WallOfHonor,0,-90,none,0,closed,closed,3.413034,0.4544539,-89.16776,1.127808,413.6594,3,missing,missing,member008_pilot,remote,NaN,NaN,0.903225806451613,0.937984496124031
67,CottageAve,0,Rotman,-90,-90,none,0,closed,closed,3.032459,0.8524616,-176.482,1.058228,415.9148,3,missing,missing,member008_pilot,remote,NaN,NaN,0.903225806451613,0.937984496124031
71,FuFoundationHall,0,WoodshopDoorway,90,90,none,0,open,open,-3.22998,-3.285004,169.2614,1.239349,443.1331,3,missing,missing,member008_pilot,remote,NaN,NaN,0.903225806451613,0.937984496124031
72,MarketColorado,0,MarketColorado,90,90,none,1,closed,closed,0.7134639,-1.232178,171.6963,1.155579,445.4163,1,missing,missing,member008_pilot,remote,NaN,NaN,0.938461538461538,0.937984496124031
73,KnoxCollege,84,KnoxCollege,174,90,none,1,closed,closed,-1.520325,0.0951672,251.9374,0.8912659,447.4072,1,missing,missing,member008_pilot,remote,NaN,NaN,0.938461538461538,0.937984496124031
74,TriangleArchway,0,TriangleArchway,90,90,none,1,closed,closed,-2.049194,-1.520935,166.2551,1.04422,449.5511,1,missing,missing,member008_pilot,remote,NaN,NaN,0.938461538461538,0.937984496124031
75,WalnutApartment,0,WalnutApartment,90,90,none,1,open,open,0.242376,-1.239868,166.692,0.9745789,451.6674,1,missing,missing,member008_pilot,remote,NaN,NaN,0.938461538461538,0.937984496124031
76,neutral,0,Rotman,90,90,none,0,open,open,-1.919159,-0.1118774,165.3595,1.030426,453.7418,2,missing,missing,member008_pilot,remote,NaN,NaN,0.96969696969697,0.937984496124031
77,OceanLot,0,MarketColorado,90,90,none,0,closed,closed,-1.410553,0.4020081,167.7447,0.9746399,455.8441,3,missing,missing,member008_pilot,remote,NaN,NaN,0.903225806451613,0.937984496124031
78,neutral,0,TrescaBoston,-90,-90,none,0,open,open,3.214661,2.472132,-181.113,1.085968,458.0298,2,missing,missing,member008_pilot,remote,NaN,NaN,0.96969696969697,0.937984496124031
79,neutral,0,WalnutApartment,-90,-90,none,0,closed,closed,4.247745,2.664603,-182.1921,1.113861,460.2435,2,missing,missing,member008_pilot,remote,NaN,NaN,0.96969696969697,0.937984496124031
80,SketchBurger,0,TriangleArchway,-90,-90,none,0,open,open,6.000066,0.7281969,-183.9857,1.378296,462.652,3,missing,missing,member008_pilot,remote,NaN,NaN,0.903225806451613,0.937984496124031
81,neutral,0,MountVernon,90,90,none,0,closed,closed,-0.8078003,1.523741,172.0583,0.933075,464.7126,2,missing,missing,member008_pilot,remote,NaN,NaN,0.96969696969697,0.937984496124031
82,SwarthmoreFriends,140,SwarthmoreFriends,50,-90,none,1,closed,closed,4.206609,1.10631,-35.99301,1.072205,466.9402,1,missing,missing,member008_pilot,remote,NaN,NaN,0.938461538461538,0.937984496124031
83,FenningStEngland,0,SketchBurger,90,90,none,0,open,open,-0.5302734,0.415246,170.7892,1.016418,469.098,3,missing,missing,member008_pilot,remote,NaN,NaN,0.903225806451613,0.937984496124031
84,DownhillDriveway,0,BennettPlace,-90,-90,none,0,open,open,3.953464,-0.9663696,-173.0203,1.211395,471.4232,3,missing,missing,member008_pilot,remote,NaN,NaN,0.903225806451613,0.937984496124031
85,neutral,0,DiningHall,-10,-90,none,0,closed,closed,2.864442,1.146616,-94.06055,1.141785,473.6507,2,missing,missing,member008_pilot,remote,NaN,NaN,0.96969696969697,0.937984496124031
87,neutral,0,YellowHallway,-90,-90,none,0,open,open,4.350261,1.003714,-174.3386,1.085999,478.1197,2,missing,missing,member008_pilot,remote,NaN,NaN,0.96969696969697,0.937984496124031
88,neutral,0,KnoxCollege,-6,-90,none,0,open,open,3.551426,-0.840271,-93.44354,0.8914795,480.0133,2,missing,missing,member008_pilot,remote,NaN,NaN,0.96969696969697,0.937984496124031
89,neutral,0,Hollingworth,-90,-90,none,0,open,open,3.990063,-0.3991089,-177.3641,1.072205,482.1712,2,missing,missing,member008_pilot,remote,NaN,NaN,0.96969696969697,0.937984496124031
90,FuFoundationHall,0,DownhillDriveway,90,90,none,0,closed,closed,-2.324493,-0.5241394,177.4723,0.9885864,484.2873,3,missing,missing,member008_pilot,remote,NaN,NaN,0.903225806451613,0.937984496124031
92,SwarthmoreFriends,140,FuFoundationHall,-90,-90,none,0,open,open,3.017811,1.954505,-177.6927,1.169617,488.9095,3,missing,missing,member008_pilot,remote,NaN,NaN,0.903225806451613,0.937984496124031
93,YellowHallway,0,YellowHallway,90,90,none,1,closed,closed,-2.524323,3.054223,168.9813,0.9885559,491.0675,1,missing,missing,member008_pilot,remote,NaN,NaN,0.938461538461538,0.937984496124031
94,Reykjavik,0,FenningStEngland,90,90,none,0,closed,closed,-2.190063,5.949524,170.3538,0.9328918,493.128,3,missing,missing,member008_pilot,remote,NaN,NaN,0.903225806451613,0.937984496124031
95,OceanLot,0,OceanLot,90,90,none,1,open,open,-1.975983,3.567983,166.2292,1.239227,496.3997,1,missing,missing,member008_pilot,remote,NaN,NaN,0.938461538461538,0.937984496124031
96,Portland3,0,Portland3,-90,-90,none,1,closed,closed,4.489074,1.150121,-171.7307,1.155701,498.6691,1,missing,missing,member008_pilot,remote,NaN,NaN,0.938461538461538,0.937984496124031
97,BennettPlace,0,Reykjavik,90,90,none,0,open,open,-3.378357,-0.007507324,169.4519,0.8633118,500.6321,3,missing,missing,member008_pilot,remote,NaN,NaN,0.903225806451613,0.937984496124031
98,ChurchLot,0,ChurchLot,-90,-90,none,1,closed,closed,1.85349,1.446691,-177.8695,1.08609,502.804,1,missing,missing,member008_pilot,remote,NaN,NaN,0.938461538461538,0.937984496124031
99,Reykjavik,0,Reykjavik,-90,-90,none,1,closed,closed,2.136633,0.6735763,-177.7284,0.9328003,504.8365,1,missing,missing,member008_pilot,remote,NaN,NaN,0.938461538461538,0.937984496124031
100,DownhillDriveway,0,DownhillDriveway,-90,-90,none,1,open,open,2.796497,0.9034236,-179.5213,1.072021,507.1338,1,missing,missing,member008_pilot,remote,NaN,NaN,0.938461538461538,0.937984496124031
101,neutral,0,ViaAgency,-90,-90,none,0,closed,closed,2.716813,2.014835,-181.1953,1.127838,509.3614,2,missing,missing,member008_pilot,remote,NaN,NaN,0.96969696969697,0.937984496124031
102,RueRousseletParis,0,RueRousseletParis,90,90,none,1,closed,closed,-2.604889,0.05075578,165.429,1.044098,511.5889,1,missing,missing,member008_pilot,remote,NaN,NaN,0.938461538461538,0.937984496124031
104,Dublin2,0,Dublin2,-90,-90,none,1,closed,closed,3.857233,1.494397,-176.7696,1.086121,517.0048,1,missing,missing,member008_pilot,remote,NaN,NaN,0.938461538461538,0.937984496124031
105,WallOfHonor,90,WallOfHonor,0,-90,none,1,closed,closed,2.136995,0.2873147,-90.98163,1.044434,519.5248,1,missing,missing,member008_pilot,remote,NaN,NaN,0.938461538461538,0.937984496124031
106,FuFoundation,270,FuFoundation,180,-90,none,1,open,open,3.527377,1.343198,90.2179,1.072266,521.7941,1,missing,missing,member008_pilot,remote,NaN,NaN,0.938461538461538,0.937984496124031
107,CottageAve,0,CottageAve,-90,-90,none,1,open,open,6.116233,-5.347229,-173.9145,1.239197,530.4398,1,missing,missing,member008_pilot,remote,NaN,NaN,0.938461538461538,0.937984496124031
108,MarketColorado,0,MarketColorado,-90,-90,none,1,open,open,2.982444,-3.246643,-181.9654,0.9467163,532.7787,1,missing,missing,member008_pilot,remote,NaN,NaN,0.938461538461538,0.937984496124031
111,neutral,0,MontessoriBooks,90,90,none,0,open,open,-1.144257,1.160531,172.4755,1.072388,539.5311,2,missing,missing,member008_pilot,remote,NaN,NaN,0.96969696969697,0.937984496124031
112,31stStNewYork,0,31stStNewYork,90,90,none,1,closed,closed,-0.05001831,1.286258,170.3466,1.18335,541.8282,1,missing,missing,member008_pilot,remote,NaN,NaN,0.938461538461538,0.937984496124031
113,neutral,0,FuFoundation,360,90,none,0,closed,closed,-0.6915588,4.363446,439.1144,1.002502,543.9445,2,missing,missing,member008_pilot,remote,NaN,NaN,0.96969696969697,0.937984496124031
115,MountVernon,0,MountVernon,-90,-90,none,1,open,open,2.71064,-0.3231506,-175.2508,0.9886475,548.9287,1,missing,missing,member008_pilot,remote,NaN,NaN,0.938461538461538,0.937984496124031
116,ViaAgency,0,ViaAgency,90,90,none,1,open,open,-0.8917542,5.303339,168.2625,1.253174,551.2955,1,missing,missing,member008_pilot,remote,NaN,NaN,0.938461538461538,0.937984496124031
117,NorthPlaza,0,NorthPlaza,90,90,none,1,open,open,-0.7427063,1.303747,177.0758,1.141724,553.4534,1,missing,missing,member008_pilot,remote,NaN,NaN,0.938461538461538,0.937984496124031
118,Rotman,0,Rotman,-90,-90,none,1,closed,closed,4.063867,2.797573,-174.3143,1.308594,555.9036,1,missing,missing,member008_pilot,remote,NaN,NaN,0.938461538461538,0.937984496124031
119,RueRousseletParis,0,SwarthmoreFriends,230,90,none,0,open,open,2.242874,-2.594238,314.5224,1.225281,558.2287,3,missing,missing,member008_pilot,remote,NaN,NaN,0.903225806451613,0.937984496124031
120,NewHavenMuseum2,252,NewHavenMuseum2,162,-90,none,1,open,open,4.672029,2.026931,76.42877,1.04425,560.3171,1,missing,missing,member008_pilot,remote,NaN,NaN,0.938461538461538,0.937984496124031
121,CottageAve,0,RosaPortsmouth,-90,-90,none,0,closed,closed,7.341202,0.4196939,-176.3259,1.169739,562.5726,3,missing,missing,member008_pilot,remote,NaN,NaN,0.903225806451613,0.937984496124031
122,neutral,0,WallOfHonor,180,90,none,0,open,open,-4.252899,3.306252,256.6344,1.113708,564.7581,2,missing,missing,member008_pilot,remote,NaN,NaN,0.96969696969697,0.937984496124031
124,SeattleNeighborhood9,0,SeattleNeighborhood9,-90,-90,none,1,closed,closed,6.267849,1.547194,-176.2183,1.141663,569.2969,1,missing,missing,member008_pilot,remote,NaN,NaN,0.938461538461538,0.937984496124031
125,DiningHall,80,DiningHall,170,90,none,1,open,open,-9.244232,-0.7424316,250.0898,1.127747,571.6359,1,missing,missing,member008_pilot,remote,NaN,NaN,0.938461538461538,0.937984496124031
126,neutral,0,Portland3,90,90,none,0,open,open,-6.304382,0.6090127,170.1719,1.002502,573.7242,2,missing,missing,member008_pilot,remote,NaN,NaN,0.96969696969697,0.937984496124031
128,neutral,0,NewHavenMuseum2,342,90,none,0,closed,closed,-9.392822,1.950485,423.3331,1.141785,578.3465,2,missing,missing,member008_pilot,remote,NaN,NaN,0.96969696969697,0.937984496124031
129,TriangleArchway,0,CottageAve,90,90,none,0,closed,closed,-5.112976,1.316438,168.5931,1.113953,580.6158,3,missing,missing,member008_pilot,remote,NaN,NaN,0.903225806451613,0.937984496124031
130,MarketColorado,0,RueRousseletParis,-90,-90,none,0,open,open,5.522237,-2.403046,-175.3742,1.225586,583.2473,3,missing,missing,member008_pilot,remote,NaN,NaN,0.903225806451613,0.937984496124031
131,neutral,0,SeattleNeighborhood9,90,90,none,0,open,open,-8.949036,-0.06741333,164.6278,0.9329224,585.2798,2,missing,missing,member008_pilot,remote,NaN,NaN,0.96969696969697,0.937984496124031
132,ChiltonArch,0,ChiltonArch,90,90,none,1,closed,closed,-8.657013,3.826914,170.0515,1.085876,587.5212,1,missing,missing,member008_pilot,remote,NaN,NaN,0.938461538461538,0.937984496124031
134,MontessoriBooks,0,MontessoriBooks,-90,-90,none,1,closed,closed,5.224286,-1.647064,-174.8195,1.099915,592.2687,1,missing,missing,member008_pilot,remote,NaN,NaN,0.938461538461538,0.937984496124031
135,ZebraEntry,0,ZebraEntry,90,90,none,1,open,open,-8.425293,2.94245,161.431,1.141907,594.5939,1,missing,missing,member008_pilot,remote,NaN,NaN,0.938461538461538,0.937984496124031
136,FuFoundationHall,0,FuFoundationHall,90,90,none,1,closed,closed,-9.441589,-0.7294922,163.8101,1.099915,597.3087,1,missing,missing,member008_pilot,remote,NaN,NaN,0.938461538461538,0.937984496124031
138,Dublin2,0,ColumbiaStSeattle,90,90,none,0,open,open,-6.068085,-0.4796448,166.3671,1.044434,601.903,3,missing,missing,member008_pilot,remote,NaN,NaN,0.903225806451613,0.937984496124031
140,BennettPlace,0,BennettPlace,90,90,none,1,closed,closed,-5.824951,-0.8171387,166.7734,1.086121,606.7897,1,missing,missing,member008_pilot,remote,NaN,NaN,0.938461538461538,0.937984496124031
142,ColumbiaStSeattle,0,ColumbiaStSeattle,-90,-90,none,1,closed,closed,2.210687,0.4026025,-178.8407,1.19751,611.6207,1,missing,missing,member008_pilot,remote,NaN,NaN,0.938461538461538,0.937984496124031
143,SketchBurger,0,SketchBurger,-90,-90,none,1,closed,closed,4.626715,-3.381134,-180.7953,1.155884,613.9459,1,missing,missing,member008_pilot,remote,NaN,NaN,0.938461538461538,0.937984496124031
144,ColumbiaStSeattle,0,Dublin2,90,90,none,0,open,open,-9.549683,-1.532654,161.7734,1.239258,616.3406,3,missing,missing,member008_pilot,remote,NaN,NaN,0.903225806451613,0.937984496124031
1,YellowHallway,0,YellowHallway,-90,-90,none,1,open,open,3.747414,3.080697,-170.2559,1.471939,183.6661,1,missing,missing,member006_pilot,remote,NaN,NaN,0.929577464788732,0.929577464788732
4,neutral,0,TriangleArchway,90,90,none,0,closed,closed,-3.397064,16.55231,172.065,1.122726,195.5499,2,missing,missing,member006_pilot,remote,NaN,NaN,0.942857142857143,0.929577464788732
5,ChiltonArch,0,ChiltonArch,-90,-90,none,1,open,open,1.415798,7.800051,-167.2433,1.277649,198.6453,1,missing,missing,member006_pilot,remote,NaN,NaN,0.929577464788732,0.929577464788732
6,ColumbiaStSeattle,0,DiningHall,170,90,none,0,open,open,-2.201782,12.63596,255.1165,1.715973,202.2156,3,missing,missing,member006_pilot,remote,NaN,NaN,0.916666666666667,0.929577464788732
7,RosaPortsmouth,0,RosaPortsmouth,-90,-90,none,1,closed,closed,2.784262,7.464195,-165.3293,1.152664,207.5429,1,missing,missing,member006_pilot,remote,NaN,NaN,0.929577464788732,0.929577464788732
8,YellowHallway,0,OceanLot,90,90,none,0,open,open,-1.418243,13.03745,171.1614,1.41011,210.6468,3,missing,missing,member006_pilot,remote,NaN,NaN,0.916666666666667,0.929577464788732
9,Dublin2,0,Dublin2,90,90,none,1,open,open,-1.75238,12.09874,170.6304,1.249588,213.5488,1,missing,missing,member006_pilot,remote,NaN,NaN,0.929577464788732,0.929577464788732
10,neutral,0,TrescaBoston,90,90,none,0,closed,closed,-1.952454,17.12004,170.772,1.222778,216.382,2,missing,missing,member006_pilot,remote,NaN,NaN,0.942857142857143,0.929577464788732
11,NewHavenMuseum2,252,ChurchLot,-90,-90,none,0,closed,closed,2.43339,7.5226,-164.0045,1.391525,219.1857,3,missing,missing,member006_pilot,remote,NaN,NaN,0.916666666666667,0.929577464788732
13,ColumbiaStSeattle,0,ColumbiaStSeattle,90,90,none,1,open,open,-0.967804,12.68371,169.6634,1.152313,225.9809,1,missing,missing,member006_pilot,remote,NaN,NaN,0.929577464788732,0.929577464788732
14,FenningStEngland,0,FenningStEngland,90,90,none,1,closed,closed,-1.223328,15.85363,166.661,1.443985,228.9557,1,missing,missing,member006_pilot,remote,NaN,NaN,0.929577464788732,0.929577464788732
15,DownhillDriveway,0,DownhillDriveway,90,90,none,1,closed,closed,-1.33609,19.04,166.678,1.041733,231.6112,1,missing,missing,member006_pilot,remote,NaN,NaN,0.929577464788732,0.929577464788732
16,Rotman,0,RueRousseletParis,90,90,none,0,closed,closed,-0.8112488,19.63079,169.8892,1.136398,234.235,3,missing,missing,member006_pilot,remote,NaN,NaN,0.916666666666667,0.929577464788732
17,ChurchLot,0,ColumbiaStSeattle,-90,-90,none,0,closed,closed,0.7579515,9.314278,-168.0058,1.263535,237.0398,3,missing,missing,member006_pilot,remote,NaN,NaN,0.916666666666667,0.929577464788732
18,neutral,0,WalnutApartment,90,90,none,0,open,open,-0.256012,17.49196,171.2383,1.419647,240.2781,2,missing,missing,member006_pilot,remote,NaN,NaN,0.942857142857143,0.929577464788732
19,WoodshopDoorway,0,WoodshopDoorway,-90,-90,none,1,closed,closed,1.737233,8.670211,-166.8953,1.458008,243.1897,1,missing,missing,member006_pilot,remote,NaN,NaN,0.929577464788732,0.929577464788732
20,RueRousseletParis,0,RosaPortsmouth,90,90,none,0,open,open,-0.7573853,16.92735,170.824,1.791183,246.4943,3,missing,missing,member006_pilot,remote,NaN,NaN,0.916666666666667,0.929577464788732
21,WallOfHonor,90,WallOfHonor,180,90,none,1,open,open,-0.02557373,17.43961,259.8345,1.249802,249.8256,1,missing,missing,member006_pilot,remote,NaN,NaN,0.929577464788732,0.929577464788732
22,MontessoriBooks,0,MontessoriBooks,90,90,none,1,open,open,0.146906,14.34464,175.9672,1.29155,252.5098,1,missing,missing,member006_pilot,remote,NaN,NaN,0.929577464788732,0.929577464788732
23,neutral,0,Reykjavik,-90,-90,none,0,closed,closed,2.791141,11.12218,-171.9995,1.138779,255.3287,2,missing,missing,member006_pilot,remote,NaN,NaN,0.942857142857143,0.929577464788732
24,OceanLot,0,ChiltonArch,90,90,none,0,closed,closed,-0.02529907,17.57819,172.0985,1.166443,258.7721,3,missing,missing,member006_pilot,remote,NaN,NaN,0.916666666666667,0.929577464788732
25,SketchBurger,0,SketchBurger,90,90,none,1,open,open,-0.08920288,17.11047,169.2578,1.221985,261.5918,1,missing,missing,member006_pilot,remote,NaN,NaN,0.929577464788732,0.929577464788732
27,neutral,0,Hollingworth,90,90,none,0,closed,closed,1.153926,15.82533,173.9449,1.444214,267.584,2,missing,missing,member006_pilot,remote,NaN,NaN,0.942857142857143,0.929577464788732
28,ChurchLot,0,ChurchLot,90,90,none,1,open,open,0.2235121,16.13924,172.5494,1.194336,270.3609,1,missing,missing,member006_pilot,remote,NaN,NaN,0.929577464788732,0.929577464788732
29,neutral,0,FuFoundation,180,-90,none,0,open,open,1.843766,10.19509,101.2875,1.407074,273.3228,2,missing,missing,member006_pilot,remote,NaN,NaN,0.942857142857143,0.929577464788732
30,NewHavenMuseum2,252,NewHavenMuseum2,342,90,none,1,closed,closed,0.4552655,15.65289,421.7029,1.180389,276.3499,1,missing,missing,member006_pilot,remote,NaN,NaN,0.929577464788732,0.929577464788732
31,neutral,0,MontessoriBooks,-90,-90,none,0,closed,closed,1.479953,10.99789,-164.9015,1.444031,279.2656,2,missing,missing,member006_pilot,remote,NaN,NaN,0.942857142857143,0.929577464788732
32,neutral,0,BennettPlace,90,90,none,0,closed,closed,0.2179946,19.70912,167.7338,1.396881,282.2729,2,missing,missing,member006_pilot,remote,NaN,NaN,0.942857142857143,0.929577464788732
33,RueRousseletParis,0,RueRousseletParis,-90,-90,none,1,open,open,1.235937,9.31378,-161.496,1.374573,284.8416,1,missing,missing,member006_pilot,remote,NaN,NaN,0.929577464788732,0.929577464788732
34,31stStNewYork,0,31stStNewYork,-90,-90,none,1,open,open,0.91395,9.666782,-162.3957,1.235962,288.3029,1,missing,missing,member006_pilot,remote,NaN,NaN,0.929577464788732,0.929577464788732
35,DiningHall,80,CottageAve,-90,-90,none,0,open,open,1.493613,6.820786,-165.3899,1.483368,301.1299,3,missing,missing,member006_pilot,remote,NaN,NaN,0.916666666666667,0.929577464788732
36,TriangleArchway,0,TriangleArchway,-90,-90,none,1,open,open,1.502262,6.983202,-162.5459,1.999451,304.6566,1,missing,missing,member006_pilot,remote,NaN,NaN,0.929577464788732,0.929577464788732
37,KnoxCollege,84,KnoxCollege,-6,-90,none,1,open,open,0.6015261,7.35215,-80.45941,1.416504,308.1422,1,missing,missing,member006_pilot,remote,NaN,NaN,0.929577464788732,0.929577464788732
38,neutral,0,SketchBurger,-90,-90,none,0,closed,closed,-0.3283691,7.753019,-164.7228,1.374786,310.7109,2,missing,missing,member006_pilot,remote,NaN,NaN,0.942857142857143,0.929577464788732
39,Portland3,0,SwarthmoreFriends,50,-90,none,0,closed,closed,0.2726035,9.029479,-21.22565,1.424408,313.5989,3,missing,missing,member006_pilot,remote,NaN,NaN,0.916666666666667,0.929577464788732
40,neutral,0,KnoxCollege,174,90,none,0,closed,closed,-1.299438,13.4029,253.3831,1.388489,316.4035,2,missing,missing,member006_pilot,remote,NaN,NaN,0.942857142857143,0.929577464788732
41,neutral,0,DownhillDriveway,-90,-90,none,0,open,open,1.014205,9.739741,-162.1085,1.66626,319.7498,2,missing,missing,member006_pilot,remote,NaN,NaN,0.942857142857143,0.929577464788732
42,WalnutApartment,0,WalnutApartment,-90,-90,none,1,closed,closed,0.2890978,11.1944,-166.2819,1.374603,322.3322,1,missing,missing,member006_pilot,remote,NaN,NaN,0.929577464788732,0.929577464788732
43,SeattleNeighborhood9,0,FuFoundationHall,90,90,none,0,closed,closed,-0.3601685,11.30305,165.1993,1.267426,325.0298,3,missing,missing,member006_pilot,remote,NaN,NaN,0.916666666666667,0.929577464788732
44,Portland3,0,Portland3,90,90,none,1,open,open,-2.934113,8.767445,167.3746,1.360718,328.4039,1,missing,missing,member006_pilot,remote,NaN,NaN,0.929577464788732,0.929577464788732
45,MountVernon,0,MountVernon,90,90,none,1,closed,closed,-2.656372,13.64793,167.2506,1.43045,331.3234,1,missing,missing,member006_pilot,remote,NaN,NaN,0.929577464788732,0.929577464788732
46,WallOfHonor,90,SeattleNeighborhood9,-90,-90,none,0,closed,closed,1.782619,8.60925,-166.6041,1.38855,333.8502,3,missing,missing,member006_pilot,remote,NaN,NaN,0.916666666666667,0.929577464788732
47,BennettPlace,0,BennettPlace,-90,-90,none,1,open,open,0.536489,9.469834,-165.6905,1.388672,336.4051,1,missing,missing,member006_pilot,remote,NaN,NaN,0.929577464788732,0.929577464788732
48,FuFoundation,270,FuFoundation,360,90,none,1,closed,closed,-3.242249,12.91033,436.0059,1.222015,338.7515,1,missing,missing,member006_pilot,remote,NaN,NaN,0.929577464788732,0.929577464788732
49,neutral,0,MarketColorado,-90,-90,none,0,open,open,0.6475597,6.678401,-163.6244,1.183136,341.0313,2,missing,missing,member006_pilot,remote,NaN,NaN,0.942857142857143,0.929577464788732
50,Rotman,0,Rotman,90,90,none,1,open,open,-1.962067,12.80119,165.6433,1.291168,343.5027,1,missing,missing,member006_pilot,remote,NaN,NaN,0.929577464788732,0.929577464788732
51,neutral,0,ViaAgency,90,90,none,0,open,open,-2.280243,13.37353,170.1909,1.393768,346.0768,2,missing,missing,member006_pilot,remote,NaN,NaN,0.942857142857143,0.929577464788732
52,TrescaBoston,0,TrescaBoston,-90,-90,none,1,open,open,2.263613,8.940123,-166.9612,1.471863,348.7982,1,missing,missing,member006_pilot,remote,NaN,NaN,0.929577464788732,0.929577464788732
53,Reykjavik,0,Reykjavik,90,90,none,1,open,open,-1.68515,11.1848,161.3664,1.207977,351.2141,1,missing,missing,member006_pilot,remote,NaN,NaN,0.929577464788732,0.929577464788732
54,ChiltonArch,0,NewHavenMuseum2,162,-90,none,0,open,open,1.835815,7.21759,89.74091,1.207977,353.8799,3,missing,missing,member006_pilot,remote,NaN,NaN,0.916666666666667,0.929577464788732
55,DiningHall,80,DiningHall,-10,-90,none,1,closed,closed,0.4665813,11.54888,-81.50513,1.208069,356.5181,1,missing,missing,member006_pilot,remote,NaN,NaN,0.929577464788732,0.929577464788732
57,neutral,0,FenningStEngland,-90,-90,none,0,open,open,0.4439968,6.730887,-162.8004,1.305267,362.3634,2,missing,missing,member006_pilot,remote,NaN,NaN,0.942857142857143,0.929577464788732
58,NorthPlaza,0,NorthPlaza,-90,-90,none,1,closed,closed,1.045966,9.40617,-162.5504,1.194122,365.1404,1,missing,missing,member006_pilot,remote,NaN,NaN,0.929577464788732,0.929577464788732
59,SwarthmoreFriends,140,SwarthmoreFriends,230,90,none,1,open,open,-0.3539734,12.57948,309.4193,1.471802,367.9311,1,missing,missing,member006_pilot,remote,NaN,NaN,0.929577464788732,0.929577464788732
61,neutral,0,31stStNewYork,90,90,none,0,closed,closed,-2.529785,10.1977,170.2108,1.54129,373.8105,2,missing,missing,member006_pilot,remote,NaN,NaN,0.942857142857143,0.929577464788732
62,FuFoundationHall,0,FuFoundationHall,-90,-90,none,1,open,open,0.5608531,7.480041,-163.559,1.263306,376.5873,1,missing,missing,member006_pilot,remote,NaN,NaN,0.929577464788732,0.929577464788732
63,SwarthmoreFriends,140,Portland3,-90,-90,none,0,closed,closed,3.300728,5.147902,-164.7217,1.13855,379.4615,3,missing,missing,member006_pilot,remote,NaN,NaN,0.916666666666667,0.929577464788732
64,ViaAgency,0,ViaAgency,-90,-90,none,1,closed,closed,0.2674787,12.22722,-165.8198,1.277527,381.9329,1,missing,missing,member006_pilot,remote,NaN,NaN,0.929577464788732,0.929577464788732
65,neutral,0,MountVernon,-90,-90,none,0,open,open,-0.02471924,10.72973,-166.2656,1.291229,385.1818,2,missing,missing,member006_pilot,remote,NaN,NaN,0.942857142857143,0.929577464788732
66,RosaPortsmouth,0,WallOfHonor,0,-90,none,0,closed,closed,0.04195097,4.825794,-76.21933,0.9721375,387.6812,3,missing,missing,member006_pilot,remote,NaN,NaN,0.916666666666667,0.929577464788732
67,CottageAve,0,Rotman,-90,-90,none,0,closed,closed,0.1514101,7.743315,-167.256,1.555206,390.6941,3,missing,missing,member006_pilot,remote,NaN,NaN,0.916666666666667,0.929577464788732
68,OceanLot,0,OceanLot,-90,-90,none,1,closed,closed,0.3495485,11.1579,-163.5281,1.194244,393.1934,1,missing,missing,member006_pilot,remote,NaN,NaN,0.929577464788732,0.929577464788732
70,NorthPlaza,0,YellowHallway,90,90,none,0,closed,closed,-0.8792114,14.04472,168.3173,1.305023,399.1914,3,missing,missing,member006_pilot,remote,NaN,NaN,0.916666666666667,0.929577464788732
71,FuFoundationHall,0,WoodshopDoorway,90,90,none,0,open,open,-2.297729,13.07045,166.3063,1.263397,413.0621,3,missing,missing,member006_pilot,remote,NaN,NaN,0.916666666666667,0.929577464788732
72,MarketColorado,0,MarketColorado,90,90,none,1,closed,closed,-1.684052,10.89096,166.5718,1.221802,415.7141,1,missing,missing,member006_pilot,remote,NaN,NaN,0.929577464788732,0.929577464788732
73,KnoxCollege,84,KnoxCollege,174,90,none,1,closed,closed,1.574741,15.08043,254.4153,1.180389,418.3799,1,missing,missing,member006_pilot,remote,NaN,NaN,0.929577464788732,0.929577464788732
74,TriangleArchway,0,TriangleArchway,90,90,none,1,closed,closed,-0.968811,13.39849,166.649,1.29129,421.4068,1,missing,missing,member006_pilot,remote,NaN,NaN,0.929577464788732,0.929577464788732
75,WalnutApartment,0,WalnutApartment,90,90,none,1,open,open,0.7869536,12.67753,165.8078,1.374878,424.2532,1,missing,missing,member006_pilot,remote,NaN,NaN,0.929577464788732,0.929577464788732
76,neutral,0,Rotman,90,90,none,0,open,open,0.4489163,11.85715,160.8506,1.277954,426.8776,2,missing,missing,member006_pilot,remote,NaN,NaN,0.942857142857143,0.929577464788732
77,OceanLot,0,MarketColorado,90,90,none,0,closed,closed,-1.335602,12.43887,163.1234,1.208221,429.807,3,missing,missing,member006_pilot,remote,NaN,NaN,0.916666666666667,0.929577464788732
78,neutral,0,TrescaBoston,-90,-90,none,0,open,open,1.282369,8.467875,-168.2687,1.360657,432.5143,2,missing,missing,member006_pilot,remote,NaN,NaN,0.942857142857143,0.929577464788732
79,neutral,0,WalnutApartment,-90,-90,none,0,closed,closed,-0.5271606,11.75969,-167.9969,1.069244,435.0275,2,missing,missing,member006_pilot,remote,NaN,NaN,0.942857142857143,0.929577464788732
80,SketchBurger,0,TriangleArchway,-90,-90,none,0,open,open,2.036084,11.87626,-171.6132,1.443909,437.9987,3,missing,missing,member006_pilot,remote,NaN,NaN,0.916666666666667,0.929577464788732
81,neutral,0,MountVernon,90,90,none,0,closed,closed,-3.247559,13.85883,154.7856,1.735657,440.9978,2,missing,missing,member006_pilot,remote,NaN,NaN,0.942857142857143,0.929577464788732
82,SwarthmoreFriends,140,SwarthmoreFriends,50,-90,none,1,closed,closed,-0.835144,7.723317,-18.94174,1.319214,443.6359,1,missing,missing,member006_pilot,remote,NaN,NaN,0.929577464788732,0.929577464788732
83,FenningStEngland,0,SketchBurger,90,90,none,0,open,open,-1.614197,10.52408,161.6498,1.248871,446.3712,3,missing,missing,member006_pilot,remote,NaN,NaN,0.916666666666667,0.929577464788732
84,DownhillDriveway,0,BennettPlace,-90,-90,none,0,open,open,0.325557,5.872761,-163.5642,1.222076,451.7585,3,missing,missing,member006_pilot,remote,NaN,NaN,0.916666666666667,0.929577464788732
85,neutral,0,DiningHall,-10,-90,none,0,closed,closed,1.748587,5.483913,-83.24313,1.097046,454.3132,2,missing,missing,member006_pilot,remote,NaN,NaN,0.942857142857143,0.929577464788732
86,31stStNewYork,0,WoodshopDoorway,-90,-90,none,0,closed,closed,0.1900295,7.482559,-162.2053,1.166412,457.0483,3,missing,missing,member006_pilot,remote,NaN,NaN,0.916666666666667,0.929577464788732
87,neutral,0,YellowHallway,-90,-90,none,0,open,open,1.194291,8.794917,-161.7249,1.333038,459.8114,2,missing,missing,member006_pilot,remote,NaN,NaN,0.942857142857143,0.929577464788732
88,neutral,0,KnoxCollege,-6,-90,none,0,open,open,-0.1964417,5.694825,-80.08109,1.249542,463.102,2,missing,missing,member006_pilot,remote,NaN,NaN,0.942857142857143,0.929577464788732
89,neutral,0,Hollingworth,-90,-90,none,0,open,open,-0.4875488,6.308202,-163.0106,1.360809,465.9762,2,missing,missing,member006_pilot,remote,NaN,NaN,0.942857142857143,0.929577464788732
90,FuFoundationHall,0,DownhillDriveway,90,90,none,0,closed,closed,-2.282501,14.07954,166.7915,0.9719543,468.5587,3,missing,missing,member006_pilot,remote,NaN,NaN,0.916666666666667,0.929577464788732
91,TrescaBoston,0,TrescaBoston,90,90,none,1,closed,closed,-0.8630676,16.66487,161.3677,0.9719238,471.5021,1,missing,missing,member006_pilot,remote,NaN,NaN,0.929577464788732,0.929577464788732
92,SwarthmoreFriends,140,FuFoundationHall,-90,-90,none,0,open,open,-0.3546753,6.563802,-164.8231,1.138794,474.4735,3,missing,missing,member006_pilot,remote,NaN,NaN,0.916666666666667,0.929577464788732
93,YellowHallway,0,YellowHallway,90,90,none,1,closed,closed,-0.8252869,16.82801,161.6797,1.152527,477.1255,1,missing,missing,member006_pilot,remote,NaN,NaN,0.929577464788732,0.929577464788732
94,Reykjavik,0,FenningStEngland,90,90,none,0,closed,closed,-0.4633179,18.28204,160.1512,1.276886,479.8468,3,missing,missing,member006_pilot,remote,NaN,NaN,0.916666666666667,0.929577464788732
95,OceanLot,0,OceanLot,90,90,none,1,open,open,-0.9079895,14.50477,159.4152,1.152679,482.9709,1,missing,missing,member006_pilot,remote,NaN,NaN,0.929577464788732,0.929577464788732
