trialIdx,primeName,primeAngleYaw,targetName,targetAngleYaw,targetSide,sameScenePrime,correctResponse,response,roll,pitch,yaw,rt,timestamp,condition,familiarityPrime,familiarityTarget,subject_id,session_format,explicit_acc_scenewise_prime,explicit_acc_scenewise_target,oc_acc_by_condition,oc_acc
3,RaunerFirst,0,RaunerFirst,-90,90,2,closed,closed,-3.994507,7.543729,69.50072,1.197388,646.473,3,yes,yes,degas711,inperson,1,1,0.892857142857143,0.895238095238095
4,RaunerBackHall,0,RaunerBackHall,-90,-90,1,closed,closed,3.220298,9.011661,-95.72559,1.364502,649.7864,1,yes,yes,degas711,inperson,0.666666666666667,0.666666666666667,0.911111111111111,0.895238095238095
5,Fairbanks,0,Fairbanks,-90,90,2,open,open,-3.70636,6.752927,72.65071,1.281067,653.114,3,yes,yes,degas711,inperson,1,1,0.892857142857143,0.895238095238095
6,Umplebys,0,Umplebys,90,-90,2,closed,closed,2.743889,7.399765,-65.33127,0.9328003,655.7869,3,unsure,unsure,degas711,inperson,1,1,0.892857142857143,0.895238095238095
7,BakerBerryHistoric2,0,BakerBerryHistoric2,-90,90,2,closed,closed,-4.233856,8.368893,68.61271,0.9328613,658.1955,3,unsure,unsure,degas711,inperson,1,1,0.892857142857143,0.895238095238095
8,BakerBerryCharter,0,BakerBerryCharter,-90,-90,1,open,open,1.59949,8.677506,-73.39413,0.8075562,660.7851,1,yes,yes,degas711,inperson,0.666666666666667,0.666666666666667,0.911111111111111,0.895238095238095
9,PineEntrance,0,PineEntrance,90,90,1,closed,closed,-3.907837,9.580816,75.94945,1.002502,663.2911,1,yes,yes,degas711,inperson,0.666666666666667,0.666666666666667,0.911111111111111,0.895238095238095
10,neutral,0,BakerBerryCharter,90,90,0,closed,closed,-5.228485,9.119605,78.32538,0.9329224,665.6022,2,na,yes,degas711,inperson,NaN,0.666666666666667,0.875,0.895238095238095
12,PineBackHall,0,PineBackHall,90,90,1,closed,closed,-4.567444,9.424919,71.48765,1.127747,671.1989,1,no,no,degas711,inperson,1,1,0.911111111111111,0.895238095238095
13,BakerBerryCharter,0,BakerBerryCharter,-90,90,2,open,open,-3.729645,9.946856,68.98401,1.058105,673.524,3,yes,yes,degas711,inperson,0.666666666666667,0.666666666666667,0.892857142857143,0.895238095238095
15,MooreLot,0,MooreLot,90,90,1,open,open,-2.460968,9.179185,66.8141,0.8076782,678.5639,1,yes,yes,degas711,inperson,0.333333333333333,0.333333333333333,0.911111111111111,0.895238095238095
16,Hop4,0,Hop4,-90,90,2,open,open,-3.371704,9.192049,68.49262,1.197449,681.2369,3,yes,yes,degas711,inperson,1,1,0.892857142857143,0.895238095238095
17,RollinsChapel3,0,RollinsChapel3,-90,90,2,open,open,-4.838562,6.353126,69.52125,1.113953,683.757,3,yes,yes,degas711,inperson,1,1,0.892857142857143,0.895238095238095
18,neutral,0,Hop4,90,90,0,closed,closed,-4.788757,8.073039,72.50085,0.8493042,685.9427,2,na,yes,degas711,inperson,NaN,1,0.875,0.895238095238095
20,neutral,0,Umplebys,-90,-90,0,open,open,1.660148,6.68048,-79.00134,1.15564,690.913,2,na,unsure,degas711,inperson,NaN,1,0.875,0.895238095238095
21,PineBackHall,0,PineBackHall,90,90,1,closed,closed,-3.31662,7.38762,64.57578,1.030334,693.2797,1,no,no,degas711,inperson,1,1,0.911111111111111,0.895238095238095
22,neutral,0,BakerBerryHistoric2,90,90,0,open,open,-4.68512,9.857866,73.90833,1.253174,695.7301,2,na,unsure,degas711,inperson,NaN,1,0.875,0.895238095238095
23,Zimmerman,0,Zimmerman,90,90,1,open,open,-4.89624,5.42775,74.98318,1.183594,698.2083,1,no,no,degas711,inperson,0.666666666666667,0.666666666666667,0.911111111111111,0.895238095238095
24,Fairbanks,0,Fairbanks,-90,-90,1,open,open,2.34719,4.29374,-80.93774,1.266968,700.7003,1,yes,yes,degas711,inperson,1,1,0.911111111111111,0.895238095238095
25,Zimmerman,0,Zimmerman,90,90,1,open,open,-5.181458,5.202888,71.43778,1.099976,703.1368,1,no,no,degas711,inperson,0.666666666666667,0.666666666666667,0.911111111111111,0.895238095238095
26,Maynard,0,Maynard,90,-90,2,closed,closed,1.729704,5.374418,-71.73657,1.014954,705.4896,3,yes,yes,degas711,inperson,1,1,0.892857142857143,0.895238095238095
28,MooreLot,0,MooreLot,90,-90,2,open,open,2.271749,5.916004,-70.18253,1.15564,711.2535,3,yes,yes,degas711,inperson,0.333333333333333,0.333333333333333,0.892857142857143,0.895238095238095
29,neutral,0,Zimmerman,-90,-90,0,closed,closed,2.408337,5.972159,-75.10794,1.113953,713.5925,2,na,no,degas711,inperson,NaN,0.666666666666667,0.875,0.895238095238095
30,RaunerBackHall,0,RaunerBackHall,-90,90,2,closed,closed,-3.551056,8.647498,60.77898,0.9886475,715.848,3,yes,yes,degas711,inperson,0.666666666666667,0.666666666666667,0.892857142857143,0.895238095238095
32,53Commons,0,53Commons,90,90,1,open,open,-4.416016,5.757889,65.21841,1.058105,720.9294,1,yes,yes,degas711,inperson,1,1,0.911111111111111,0.895238095238095
33,neutral,0,Fairbanks,90,90,0,closed,closed,-3.18808,5.415327,59.04015,1.141785,723.1988,2,na,yes,degas711,inperson,NaN,1,0.875,0.895238095238095
34,Hop2,0,Hop2,-90,90,2,closed,closed,-2.33255,5.75028,49.10642,0.7519531,725.0923,3,yes,yes,degas711,inperson,1,1,0.892857142857143,0.895238095238095
35,neutral,0,53Commons,-90,-90,0,closed,closed,2.78568,4.195735,-73.33429,1.099976,736.968,2,na,yes,degas711,inperson,NaN,1,0.875,0.895238095238095
36,MooreLot,0,MooreLot,90,90,1,open,open,-3.141937,5.88794,67.15604,1.197571,741.5207,1,yes,yes,degas711,inperson,0.333333333333333,0.333333333333333,0.911111111111111,0.895238095238095
37,AllenSt,0,AllenSt,90,90,1,closed,closed,-3.109894,5.994036,65.56406,0.9607544,743.6646,1,yes,yes,degas711,inperson,1,1,0.911111111111111,0.895238095238095
39,PineEntrance,0,PineEntrance,90,90,1,closed,closed,-2.792725,6.882211,54.98521,0.7660522,747.7719,1,yes,yes,degas711,inperson,0.666666666666667,0.666666666666667,0.911111111111111,0.895238095238095
42,neutral,0,PineEntrance,-90,-90,0,open,open,1.494195,7.252672,-75.84329,1.127808,754.8582,2,na,yes,degas711,inperson,NaN,0.666666666666667,0.875,0.895238095238095
43,BakerBerry2nd,0,BakerBerry2nd,-90,-90,1,closed,closed,0.9175456,7.549793,-69.185,1.016541,757.0162,1,yes,yes,degas711,inperson,1,1,0.911111111111111,0.895238095238095
45,AllenSt,0,AllenSt,90,-90,2,closed,closed,1.15052,5.75876,-56.35718,0.8910522,761.5408,3,yes,yes,degas711,inperson,1,1,0.892857142857143,0.895238095238095
46,neutral,0,BakerBerry2nd,90,90,0,open,open,-5.556854,6.670034,65.98207,0.8493652,763.6848,2,na,yes,degas711,inperson,NaN,1,0.875,0.895238095238095
47,RollinsChapel3,0,RollinsChapel3,-90,-90,1,open,open,0.3589783,5.630062,-55.56561,0.9466553,765.9402,1,yes,yes,degas711,inperson,1,1,0.911111111111111,0.895238095238095
48,BakerBerry2nd,0,BakerBerry2nd,-90,90,2,closed,closed,-1.707397,5.367629,42.27654,0.710022,767.8058,3,yes,yes,degas711,inperson,1,1,0.892857142857143,0.895238095238095
49,McLaughlinCluster,0,McLaughlinCluster,90,90,1,open,open,-3.693146,7.391764,55.77125,1.281067,770.2562,1,yes,yes,degas711,inperson,0.666666666666667,0.666666666666667,0.911111111111111,0.895238095238095
50,BakerBerry2nd,0,BakerBerry2nd,-90,-90,1,closed,closed,0.6051781,5.434413,-57.42529,1.113892,772.623,1,yes,yes,degas711,inperson,1,1,0.911111111111111,0.895238095238095
51,RaunerFirst,0,RaunerFirst,-90,-90,1,closed,closed,0.857868,6.043618,-50.73843,1.447876,775.296,1,yes,yes,degas711,inperson,1,1,0.911111111111111,0.895238095238095
54,neutral,0,RollinsChapel3,90,90,0,closed,closed,-1.922852,10.7946,53.13309,1.044312,782.313,2,na,yes,degas711,inperson,NaN,1,0.875,0.895238095238095
55,neutral,0,MooreLot,-90,-90,0,closed,closed,0.03250745,6.833972,-69.57184,0.9050903,784.3595,2,na,yes,degas711,inperson,NaN,0.333333333333333,0.875,0.895238095238095
57,Hop4,0,Hop4,-90,-90,1,open,open,1.005553,7.380651,-65.51111,0.7380371,788.2578,1,yes,yes,degas711,inperson,1,1,0.911111111111111,0.895238095238095
58,neutral,0,Maynard,-90,-90,0,open,open,0.9292173,4.993358,-67.90707,0.9605713,790.4296,2,na,yes,degas711,inperson,NaN,1,0.875,0.895238095238095
59,Zimmerman,0,Zimmerman,90,-90,2,open,open,1.40289,6.646031,-68.77948,0.9329834,792.5736,3,no,no,degas711,inperson,0.666666666666667,0.666666666666667,0.892857142857143,0.895238095238095
60,BakerBerryHistoric2,0,BakerBerryHistoric2,-90,-90,1,closed,closed,1.367083,6.492414,-61.04276,0.9329224,794.8708,1,unsure,unsure,degas711,inperson,1,1,0.911111111111111,0.895238095238095
62,neutral,0,McLaughlinCluster,-90,-90,0,closed,closed,0.2436873,4.311207,-40.05072,1.211243,799.5905,2,na,yes,degas711,inperson,NaN,0.666666666666667,0.875,0.895238095238095
63,Hop2,0,Hop2,-90,-90,1,closed,closed,1.152997,6.142969,-60.4744,0.9188232,801.818,1,yes,yes,degas711,inperson,1,1,0.911111111111111,0.895238095238095
65,RollinsChapel3,0,RollinsChapel3,-90,-90,1,open,open,-1.187958,6.898541,-52.77896,0.9459229,806.663,1,yes,yes,degas711,inperson,1,1,0.911111111111111,0.895238095238095
66,neutral,0,RaunerBackHall,90,90,0,open,open,-3.05545,7.162944,58.29106,1.197449,809.1969,2,na,yes,degas711,inperson,NaN,0.666666666666667,0.875,0.895238095238095
67,PineEntrance,0,PineEntrance,90,-90,2,closed,closed,0.1489372,6.44886,-41.87317,1.11377,811.4941,3,yes,yes,degas711,inperson,0.666666666666667,0.666666666666667,0.892857142857143,0.895238095238095
71,Hop4,0,Hop4,-90,-90,1,open,open,1.937254,6.036497,-60.06564,1.350647,829.6767,1,yes,yes,degas711,inperson,1,1,0.911111111111111,0.895238095238095
72,PineBackHall,0,PineBackHall,90,-90,2,closed,closed,1.129563,7.033187,-51.4632,0.9746704,831.946,3,no,no,degas711,inperson,1,1,0.892857142857143,0.895238095238095
75,AllenSt,0,AllenSt,-90,-90,1,open,open,0.96294,5.859718,-60.62231,1.030273,839.0602,1,yes,yes,degas711,inperson,1,1,0.911111111111111,0.895238095238095
76,neutral,0,Umplebys,90,90,0,closed,closed,-1.748901,7.680428,49.89989,0.8770752,841.2878,2,na,unsure,degas711,inperson,NaN,1,0.875,0.895238095238095
77,McLaughlinCluster,0,McLaughlinCluster,-90,-90,1,closed,closed,-0.3894653,4.980089,-45.76239,1.183533,843.7382,1,yes,yes,degas711,inperson,0.666666666666667,0.666666666666667,0.911111111111111,0.895238095238095
78,Maynard,0,Maynard,-90,-90,1,open,open,2.027913,5.107719,-56.35815,1.016418,845.9936,1,yes,yes,degas711,inperson,1,1,0.911111111111111,0.895238095238095
83,neutral,0,MooreLot,90,90,0,open,open,-2.95755,5.483766,51.54374,1.19751,858.0504,2,na,yes,degas711,inperson,NaN,0.333333333333333,0.875,0.895238095238095
84,PineEntrance,0,PineEntrance,-90,90,2,open,open,-2.853516,5.362726,50.65497,1.016296,861.155,3,yes,yes,degas711,inperson,0.666666666666667,0.666666666666667,0.892857142857143,0.895238095238095
86,neutral,0,PineEntrance,90,90,0,closed,closed,-3.474792,6.97609,60.74615,0.87677,868.2693,2,na,yes,degas711,inperson,NaN,0.666666666666667,0.875,0.895238095238095
88,RaunerFirst,0,RaunerFirst,90,90,1,open,open,-1.987488,5.925986,52.35302,1.183533,873.4623,1,yes,yes,degas711,inperson,1,1,0.911111111111111,0.895238095238095
92,neutral,0,BakerBerry2nd,-90,-90,0,closed,closed,1.223307,6.98997,-55.70502,1.016418,884.2242,2,na,yes,degas711,inperson,NaN,1,0.875,0.895238095238095
94,Maynard,0,Maynard,-90,90,2,open,open,-2.419464,6.720276,49.06239,0.9190063,890.5032,3,yes,yes,degas711,inperson,1,1,0.892857142857143,0.895238095238095
95,neutral,0,RaunerFirst,-90,-90,0,closed,closed,0.8291379,6.125635,-59.30957,1.072144,893.037,2,na,yes,degas711,inperson,NaN,1,0.875,0.895238095238095
96,RollinsChapel3,0,RollinsChapel3,90,90,1,closed,closed,-2.014069,9.292832,55.93277,1.002441,895.2646,1,yes,yes,degas711,inperson,1,1,0.911111111111111,0.895238095238095
97,neutral,0,AllenSt,90,90,0,closed,closed,-2.19519,6.119103,52.13966,0.765686,897.2972,2,na,yes,degas711,inperson,NaN,1,0.875,0.895238095238095
99,RollinsChapel3,0,RollinsChapel3,90,90,1,closed,closed,-1.607574,8.702052,52.73407,1.030273,902.3789,1,yes,yes,degas711,inperson,1,1,0.911111111111111,0.895238095238095
100,BakerBerryHistoric2,0,BakerBerryHistoric2,90,90,1,open,open,-3.458679,11.70139,62.04333,1.378418,905.0103,1,unsure,unsure,degas711,inperson,1,1,0.911111111111111,0.895238095238095
101,Umplebys,0,Umplebys,-90,90,2,open,open,-4.263062,5.029925,50.97969,1.030273,908.3655,3,unsure,unsure,degas711,inperson,1,1,0.892857142857143,0.895238095238095
102,BakerBerry2nd,0,BakerBerry2nd,90,90,1,open,open,-3.150513,4.856833,55.06371,0.9467773,910.6766,1,yes,yes,degas711,inperson,1,1,0.911111111111111,0.895238095238095
103,Hop4,0,Hop4,90,-90,2,closed,closed,1.856779,6.487894,-45.53732,1.294861,913.1826,3,yes,yes,degas711,inperson,1,1,0.892857142857143,0.895238095238095
104,RollinsChapel3,0,RollinsChapel3,90,-90,2,closed,closed,2.169856,6.527627,-52.87772,1.072083,915.5216,3,yes,yes,degas711,inperson,1,1,0.892857142857143,0.895238095238095
105,RaunerBackHall,0,RaunerBackHall,90,90,1,open,open,-2.312958,6.738871,57.04704,1.238098,918.2225,1,yes,yes,degas711,inperson,0.666666666666667,0.666666666666667,0.911111111111111,0.895238095238095
107,RaunerFirst,0,RaunerFirst,90,90,1,open,open,-1.803253,4.693646,56.53938,1.04425,933.5232,1,yes,yes,degas711,inperson,1,1,0.911111111111111,0.895238095238095
109,neutral,0,RollinsChapel3,-90,-90,0,open,open,1.054673,5.227933,-51.0549,1.044128,938.7579,2,na,yes,degas711,inperson,NaN,1,0.875,0.895238095238095
112,BakerBerryCharter,0,BakerBerryCharter,90,90,1,closed,closed,-2.659821,8.836979,51.91386,0.9748535,945.6636,1,yes,yes,degas711,inperson,0.666666666666667,0.666666666666667,0.911111111111111,0.895238095238095
113,neutral,0,Zimmerman,90,90,0,open,open,-3.040466,5.835848,55.3703,1.113831,948.1972,2,na,no,degas711,inperson,NaN,0.666666666666667,0.875,0.895238095238095
116,Fairbanks,0,Fairbanks,90,-90,2,closed,closed,1.64292,2.841304,-45.22852,1.197327,955.1166,3,yes,yes,degas711,inperson,1,1,0.892857142857143,0.895238095238095
118,neutral,0,53Commons,90,90,0,open,open,-1.756287,4.156897,53.77282,1.420349,960.1566,2,na,yes,degas711,inperson,NaN,1,0.875,0.895238095238095
119,Maynard,0,Maynard,-90,-90,1,open,open,2.093288,2.938934,-55.51385,0.9329224,962.3145,1,yes,yes,degas711,inperson,1,1,0.911111111111111,0.895238095238095
120,neutral,0,Fairbanks,-90,-90,0,open,open,1.797134,2.869221,-53.33429,1.211304,964.8901,2,na,yes,degas711,inperson,NaN,1,0.875,0.895238095238095
126,Umplebys,0,Umplebys,-90,-90,1,open,open,2.370995,5.674886,-57.31305,1.08606,979.1465,1,unsure,unsure,degas711,inperson,1,1,0.911111111111111,0.895238095238095
127,RaunerBackHall,0,RaunerBackHall,90,90,1,open,open,-2.20694,5.348363,52.21724,1.155762,982.2791,1,yes,yes,degas711,inperson,0.666666666666667,0.666666666666667,0.911111111111111,0.895238095238095
129,neutral,0,Hop2,-90,-90,0,closed,closed,0.7000707,6.767271,-41.56482,1.141724,986.9987,2,na,yes,degas711,inperson,NaN,1,0.875,0.895238095238095
132,MooreLot,0,MooreLot,-90,-90,1,closed,closed,1.740121,3.311461,-51.17786,1.072083,994.113,1,yes,yes,degas711,inperson,0.333333333333333,0.333333333333333,0.911111111111111,0.895238095238095
134,neutral,0,RaunerBackHall,-90,-90,0,closed,closed,2.472986,5.16043,-8.630554,1.169556,999.306,2,na,yes,degas711,inperson,NaN,0.666666666666667,0.875,0.895238095238095
135,Hop2,0,Hop2,90,90,1,open,open,-4.237,6.585274,59.2802,0.9608765,1001.492,1,yes,yes,degas711,inperson,1,1,0.911111111111111,0.895238095238095
136,53Commons,0,53Commons,-90,90,2,closed,closed,-3.685455,5.58173,52.7348,1.030457,1003.873,3,yes,yes,degas711,inperson,1,1,0.892857142857143,0.895238095238095
137,BakerBerryCharter,0,BakerBerryCharter,90,-90,2,closed,closed,1.215456,5.268845,-42.29752,1.197449,1006.239,3,yes,yes,degas711,inperson,0.666666666666667,0.666666666666667,0.892857142857143,0.895238095238095
139,BakerBerry2nd,0,BakerBerry2nd,90,90,1,open,open,-3.411499,5.910963,52.81274,0.9606934,1010.792,1,yes,yes,degas711,inperson,1,1,0.911111111111111,0.895238095238095
140,AllenSt,0,AllenSt,-90,90,2,open,open,-1.898926,4.230653,45.05418,1.183472,1013.326,3,yes,yes,degas711,inperson,1,1,0.892857142857143,0.895238095238095
141,neutral,0,Maynard,90,90,0,closed,closed,-1.713837,4.497171,49.5865,1.392151,1015.846,2,na,yes,degas711,inperson,NaN,1,0.875,0.895238095238095
143,Zimmerman,0,Zimmerman,-90,-90,1,closed,closed,2.027486,3.177465,-51.84015,1.127808,1020.524,1,no,no,degas711,inperson,0.666666666666667,0.666666666666667,0.911111111111111,0.895238095238095
144,neutral,0,BakerBerryHistoric2,-90,-90,0,closed,closed,2.05718,6.119068,-56.13513,1.058228,1022.779,2,na,unsure,degas711,inperson,NaN,1,0.875,0.895238095238095
1,neutral,0,RaunerFirst,90,90,0,open,open,-3.632141,5.132877,79.93459,1.865662,704.3969,2,na,yes,degas714,inperson,NaN,1,0.866666666666667,0.899082568807339
3,RaunerFirst,0,RaunerFirst,-90,90,2,closed,closed,-1.881287,6.617387,68.70983,1.197327,719.9341,3,yes,yes,degas714,inperson,1,1,0.884615384615385,0.899082568807339
6,Umplebys,0,Umplebys,90,-90,2,closed,closed,3.964109,4.365428,-80.32303,1.53125,734.2045,3,unsure,unsure,degas714,inperson,0.666666666666667,0.666666666666667,0.884615384615385,0.899082568807339
7,BakerBerryHistoric2,0,BakerBerryHistoric2,-90,90,2,closed,closed,-2.287415,7.413502,70.34547,1.378296,737.6293,3,yes,yes,degas714,inperson,0.666666666666667,0.666666666666667,0.884615384615385,0.899082568807339
8,BakerBerryCharter,0,BakerBerryCharter,-90,-90,1,open,open,2.554806,6.614899,-84.24197,1.698364,741.3745,1,yes,yes,degas714,inperson,1,1,0.924528301886792,0.899082568807339
9,PineEntrance,0,PineEntrance,90,90,1,closed,closed,-3.395935,7.575436,79.41396,1.47583,744.6601,1,yes,yes,degas714,inperson,1,1,0.924528301886792,0.899082568807339
14,Hop2,0,Hop2,-90,-90,1,closed,closed,2.928238,7.543458,-83.81094,1.127747,764.2209,1,yes,yes,degas714,inperson,0.666666666666667,0.666666666666667,0.924528301886792,0.899082568807339
18,neutral,0,Hop4,90,90,0,closed,closed,-3.622925,6.567342,72.98669,1.489868,775.9158,2,na,yes,degas714,inperson,NaN,1,0.866666666666667,0.899082568807339
19,53Commons,0,53Commons,90,-90,2,open,open,2.979479,5.95943,-75.83847,1.349426,778.8394,3,yes,yes,degas714,inperson,1,1,0.884615384615385,0.899082568807339
21,PineBackHall,0,PineBackHall,90,90,1,closed,closed,-2.715424,7.463535,71.62262,1.796021,785.7728,1,no,no,degas714,inperson,1,1,0.924528301886792,0.899082568807339
23,Zimmerman,0,Zimmerman,90,90,1,open,open,-3.735809,5.705354,73.93204,1.085938,791.0632,1,no,no,degas714,inperson,0.333333333333333,0.333333333333333,0.924528301886792,0.899082568807339
24,Fairbanks,0,Fairbanks,-90,-90,1,open,open,2.791599,4.692588,-80.51892,1.169495,793.8477,1,yes,yes,degas714,inperson,1,1,0.924528301886792,0.899082568807339
25,Zimmerman,0,Zimmerman,90,90,1,open,open,-3.202484,5.520013,72.61974,1.015137,796.5486,1,no,no,degas714,inperson,0.333333333333333,0.333333333333333,0.924528301886792,0.899082568807339
26,Maynard,0,Maynard,90,-90,2,closed,closed,2.589087,4.720684,-76.87329,1.336853,799.4725,3,yes,yes,degas714,inperson,1,1,0.884615384615385,0.899082568807339
27,McLaughlinCluster,0,McLaughlinCluster,90,-90,2,open,open,3.456832,6.931157,-79.82065,1.378418,802.563,3,yes,yes,degas714,inperson,0.333333333333333,0.333333333333333,0.884615384615385,0.899082568807339
28,MooreLot,0,MooreLot,90,-90,2,open,open,4.158999,7.560776,-77.83774,1.601074,805.8208,3,unsure,unsure,degas714,inperson,1,1,0.884615384615385,0.899082568807339
30,RaunerBackHall,0,RaunerBackHall,-90,90,2,closed,closed,-3.087433,8.297019,64.90957,1.30896,811.9467,3,yes,yes,degas714,inperson,0.666666666666667,0.666666666666667,0.884615384615385,0.899082568807339
31,Maynard,0,Maynard,90,90,1,closed,closed,-2.7995,8.31508,73.63214,1.503601,814.9539,1,yes,yes,degas714,inperson,1,1,0.924528301886792,0.899082568807339
32,53Commons,0,53Commons,90,90,1,open,open,-3.464813,7.674548,75.33068,1.169556,817.6548,1,yes,yes,degas714,inperson,1,1,0.924528301886792,0.899082568807339
35,neutral,0,53Commons,-90,-90,0,closed,closed,1.739515,3.831609,-85.26669,1.837952,850.5117,2,na,yes,degas714,inperson,NaN,1,0.866666666666667,0.899082568807339
36,MooreLot,0,MooreLot,90,90,1,open,open,-3.229614,6.74002,71.92606,1.879639,854.6882,1,unsure,unsure,degas714,inperson,1,1,0.924528301886792,0.899082568807339
37,AllenSt,0,AllenSt,90,90,1,closed,closed,-2.916534,8.604795,70.95347,1.726685,857.8486,1,yes,yes,degas714,inperson,1,1,0.924528301886792,0.899082568807339
38,BakerBerryCharter,0,BakerBerryCharter,-90,-90,1,open,open,1.637708,9.610889,-85.48526,1.364441,861.2177,1,yes,yes,degas714,inperson,1,1,0.924528301886792,0.899082568807339
39,PineEntrance,0,PineEntrance,90,90,1,closed,closed,-3.889282,8.255803,70.92214,1.893555,865.5336,1,yes,yes,degas714,inperson,1,1,0.924528301886792,0.899082568807339
40,RaunerBackHall,0,RaunerBackHall,-90,-90,1,closed,closed,4.318757,9.582032,-79.17252,1.587219,869.6964,1,yes,yes,degas714,inperson,0.666666666666667,0.666666666666667,0.924528301886792,0.899082568807339
41,Fairbanks,0,Fairbanks,-90,-90,1,open,open,3.646584,6.138366,-82.79117,2.241394,873.7477,1,yes,yes,degas714,inperson,1,1,0.924528301886792,0.899082568807339
43,BakerBerry2nd,0,BakerBerry2nd,-90,-90,1,closed,closed,3.850654,9.598735,-87.42081,1.489807,881.3354,1,yes,yes,degas714,inperson,0.666666666666667,0.666666666666667,0.924528301886792,0.899082568807339
45,AllenSt,0,AllenSt,90,-90,2,closed,closed,3.749933,8.186279,-78.81015,1.545227,887.0992,3,yes,yes,degas714,inperson,1,1,0.884615384615385,0.899082568807339
46,neutral,0,BakerBerry2nd,90,90,0,open,open,-4.333557,9.412401,71.38653,1.615051,890.1622,2,na,yes,degas714,inperson,NaN,0.666666666666667,0.866666666666667,0.899082568807339
47,RollinsChapel3,0,RollinsChapel3,-90,-90,1,open,open,1.403891,9.002699,-77.93216,1.350586,893.0581,1,yes,yes,degas714,inperson,1,1,0.924528301886792,0.899082568807339
48,BakerBerry2nd,0,BakerBerry2nd,-90,90,2,closed,closed,-3.781738,8.959723,65.24978,0.9885864,895.5502,3,yes,yes,degas714,inperson,0.666666666666667,0.666666666666667,0.884615384615385,0.899082568807339
50,BakerBerry2nd,0,BakerBerry2nd,-90,-90,1,closed,closed,3.196857,6.600659,-80.82513,1.350464,901.1608,1,yes,yes,degas714,inperson,0.666666666666667,0.666666666666667,0.924528301886792,0.899082568807339
51,RaunerFirst,0,RaunerFirst,-90,-90,1,closed,closed,3.792489,8.387609,-80.58722,1.15564,903.6808,1,yes,yes,degas714,inperson,1,1,0.924528301886792,0.899082568807339
53,neutral,0,PineBackHall,-90,-90,0,open,open,2.36964,10.06196,-80.86377,1.5177,909.0826,2,na,no,degas714,inperson,NaN,1,0.866666666666667,0.899082568807339
54,neutral,0,RollinsChapel3,90,90,0,closed,closed,-2.151825,11.56393,72.51247,1.36438,911.7556,2,na,yes,degas714,inperson,NaN,1,0.866666666666667,0.899082568807339
55,neutral,0,MooreLot,-90,-90,0,closed,closed,1.165176,7.361935,-82.84299,1.267029,914.2477,2,na,unsure,degas714,inperson,NaN,1,0.866666666666667,0.899082568807339
56,AllenSt,0,AllenSt,90,90,1,closed,closed,-3.254517,7.463821,71.46246,1.155701,916.726,1,yes,yes,degas714,inperson,1,1,0.924528301886792,0.899082568807339
57,Hop4,0,Hop4,-90,-90,1,open,open,1.957598,9.852735,-79.22058,1.350525,919.5244,1,yes,yes,degas714,inperson,1,1,0.924528301886792,0.899082568807339
58,neutral,0,Maynard,-90,-90,0,open,open,3.105271,9.595926,-84.50385,1.224548,922.114,2,na,yes,degas714,inperson,NaN,1,0.866666666666667,0.899082568807339
61,neutral,0,AllenSt,-90,-90,0,open,open,1.449316,9.572491,-84.20929,1.072205,930.3002,2,na,yes,degas714,inperson,NaN,1,0.866666666666667,0.899082568807339
62,neutral,0,McLaughlinCluster,-90,-90,0,closed,closed,0.3094835,7.969227,-80.86182,1.183533,932.7924,2,na,yes,degas714,inperson,NaN,0.333333333333333,0.866666666666667,0.899082568807339
63,Hop2,0,Hop2,-90,-90,1,closed,closed,1.819469,9.674807,-82.48901,0.8353882,935.0616,1,yes,yes,degas714,inperson,0.666666666666667,0.666666666666667,0.924528301886792,0.899082568807339
65,RollinsChapel3,0,RollinsChapel3,-90,-90,1,open,open,0.2651586,10.84259,-76.32379,1.031494,940.9378,1,yes,yes,degas714,inperson,1,1,0.924528301886792,0.899082568807339
66,neutral,0,RaunerBackHall,90,90,0,open,open,-2.537628,12.18488,76.50832,1.545471,945.4337,2,na,yes,degas714,inperson,NaN,0.666666666666667,0.866666666666667,0.899082568807339
67,PineEntrance,0,PineEntrance,90,-90,2,closed,closed,1.959573,11.10284,-75.17026,0.8633423,947.8006,3,yes,yes,degas714,inperson,1,1,0.884615384615385,0.899082568807339
68,BakerBerryHistoric2,0,BakerBerryHistoric2,-90,-90,1,closed,closed,1.144897,12.54362,-78.16675,1.04425,950.5294,1,yes,yes,degas714,inperson,0.666666666666667,0.666666666666667,0.924528301886792,0.899082568807339
69,Maynard,0,Maynard,90,90,1,closed,closed,-4.817505,10.4529,70.22947,1.239258,953.1329,1,yes,yes,degas714,inperson,1,1,0.924528301886792,0.899082568807339
71,Hop4,0,Hop4,-90,-90,1,open,open,0.9978739,11.17301,-87.6601,1.47583,977.2324,1,yes,yes,degas714,inperson,1,1,0.924528301886792,0.899082568807339
72,PineBackHall,0,PineBackHall,90,-90,2,closed,closed,2.134554,12.97642,-85.1821,1.072083,979.8497,3,no,no,degas714,inperson,1,1,0.884615384615385,0.899082568807339
75,AllenSt,0,AllenSt,-90,-90,1,open,open,0.1502593,10.30439,-83.6405,1.127808,990.1517,1,yes,yes,degas714,inperson,1,1,0.924528301886792,0.899082568807339
76,neutral,0,Umplebys,90,90,0,closed,closed,-3.149078,11.88892,71.23605,0.9750977,992.4216,2,na,unsure,degas714,inperson,NaN,0.666666666666667,0.866666666666667,0.899082568807339
77,McLaughlinCluster,0,McLaughlinCluster,-90,-90,1,closed,closed,-2.023895,6.983567,-80.8811,1.141724,994.8992,1,yes,yes,degas714,inperson,0.333333333333333,0.333333333333333,0.924528301886792,0.899082568807339
78,Maynard,0,Maynard,-90,-90,1,open,open,-0.1184387,11.51366,-86.69565,1.267029,998.547,1,yes,yes,degas714,inperson,1,1,0.924528301886792,0.899082568807339
79,neutral,0,PineBackHall,90,90,0,closed,closed,-3.390747,11.85522,67.18988,1.002808,1000.775,2,na,no,degas714,inperson,NaN,1,0.866666666666667,0.899082568807339
80,McLaughlinCluster,0,McLaughlinCluster,-90,-90,1,closed,closed,-0.891571,4.598461,-81.56403,1.016418,1003.183,1,yes,yes,degas714,inperson,0.333333333333333,0.333333333333333,0.924528301886792,0.899082568807339
82,neutral,0,BakerBerryCharter,-90,-90,0,open,open,-1.901093,12.82623,-87.01849,1.127808,1008.265,2,na,yes,degas714,inperson,NaN,1,0.866666666666667,0.899082568807339
86,neutral,0,PineEntrance,90,90,0,closed,closed,-4.149353,13.30696,71.60891,0.8911133,1020.322,2,na,yes,degas714,inperson,NaN,1,0.866666666666667,0.899082568807339
87,BakerBerryHistoric2,0,BakerBerryHistoric2,90,-90,2,open,open,-2.69693,23.26991,-74.47565,1.406311,1023.231,3,yes,yes,degas714,inperson,0.666666666666667,0.666666666666667,0.884615384615385,0.899082568807339
88,RaunerFirst,0,RaunerFirst,90,90,1,open,open,-5.719696,14.09959,65.46822,1.490356,1026.1,1,yes,yes,degas714,inperson,1,1,0.924528301886792,0.899082568807339
90,Hop4,0,Hop4,90,90,1,closed,closed,-6.15799,13.04052,64.77575,1.05835,1031.083,1,yes,yes,degas714,inperson,1,1,0.924528301886792,0.899082568807339
91,53Commons,0,53Commons,-90,-90,1,closed,closed,0.3958699,10.7636,-79.41791,1.378418,1033.91,1,yes,yes,degas714,inperson,1,1,0.924528301886792,0.899082568807339
92,neutral,0,BakerBerry2nd,-90,-90,0,closed,closed,0.001573762,11.38978,-83.57358,0.9606934,1036.235,2,na,yes,degas714,inperson,NaN,0.666666666666667,0.866666666666667,0.899082568807339
95,neutral,0,RaunerFirst,-90,-90,0,closed,closed,2.253323,9.952787,-86.30862,0.9608154,1044.532,2,na,yes,degas714,inperson,NaN,1,0.866666666666667,0.899082568807339
96,RollinsChapel3,0,RollinsChapel3,90,90,1,closed,closed,-3.58548,14.15017,68.75597,1.169678,1047.345,1,yes,yes,degas714,inperson,1,1,0.924528301886792,0.899082568807339
97,neutral,0,AllenSt,90,90,0,closed,closed,-4.928955,12.17234,64.22632,0.8631592,1049.642,2,na,yes,degas714,inperson,NaN,1,0.866666666666667,0.899082568807339
98,PineEntrance,0,PineEntrance,-90,-90,1,open,open,-0.4133606,12.77402,-81.09222,1.433838,1052.496,1,yes,yes,degas714,inperson,1,1,0.924528301886792,0.899082568807339
99,RollinsChapel3,0,RollinsChapel3,90,90,1,closed,closed,-4.03891,13.17749,64.93701,0.9328613,1054.835,1,yes,yes,degas714,inperson,1,1,0.924528301886792,0.899082568807339
103,Hop4,0,Hop4,90,-90,2,closed,closed,-0.2075806,12.94023,-77.48059,0.8635254,1065.973,3,yes,yes,degas714,inperson,1,1,0.884615384615385,0.899082568807339
104,RollinsChapel3,0,RollinsChapel3,90,-90,2,closed,closed,1.535025,13.18868,-76.23462,1.072021,1068.562,3,yes,yes,degas714,inperson,1,1,0.884615384615385,0.899082568807339
105,RaunerBackHall,0,RaunerBackHall,90,90,1,open,open,-5.715851,13.30741,65.10117,1.072021,1071.11,1,yes,yes,degas714,inperson,0.666666666666667,0.666666666666667,0.924528301886792,0.899082568807339
106,Hop2,0,Hop2,90,-90,2,open,open,-0.7054443,13.46,-75.99603,1.044189,1073.7,3,yes,yes,degas714,inperson,0.666666666666667,0.666666666666667,0.884615384615385,0.899082568807339
107,RaunerFirst,0,RaunerFirst,90,90,1,open,open,-5.252533,11.62836,65.40276,1.18396,1093.79,1,yes,yes,degas714,inperson,1,1,0.924528301886792,0.899082568807339
109,neutral,0,RollinsChapel3,-90,-90,0,open,open,-0.09942627,12.3373,-79.39612,0.9869385,1099.317,2,na,yes,degas714,inperson,NaN,1,0.866666666666667,0.899082568807339
110,PineEntrance,0,PineEntrance,-90,-90,1,open,open,-0.03411865,14.20707,-81.73206,1.225098,1102.435,1,yes,yes,degas714,inperson,1,1,0.924528301886792,0.899082568807339
111,BakerBerryHistoric2,0,BakerBerryHistoric2,90,90,1,open,open,-3.177002,20.22355,64.45286,0.9750977,1104.719,1,yes,yes,degas714,inperson,0.666666666666667,0.666666666666667,0.924528301886792,0.899082568807339
112,BakerBerryCharter,0,BakerBerryCharter,90,90,1,closed,closed,-4.575684,19.44304,65.90232,1.170776,1107.351,1,yes,yes,degas714,inperson,1,1,0.924528301886792,0.899082568807339
113,neutral,0,Zimmerman,90,90,0,open,open,-6.358368,14.88085,70.45255,1.18335,1110.051,2,na,no,degas714,inperson,NaN,0.333333333333333,0.866666666666667,0.899082568807339
114,53Commons,0,53Commons,-90,-90,1,closed,closed,1.07076,9.947542,-78.28409,1.072021,1112.71,1,yes,yes,degas714,inperson,1,1,0.924528301886792,0.899082568807339
115,Zimmerman,0,Zimmerman,-90,90,2,closed,closed,-6.107849,13.94973,66.11953,1.11377,1115.271,3,no,no,degas714,inperson,0.333333333333333,0.333333333333333,0.884615384615385,0.899082568807339
116,Fairbanks,0,Fairbanks,90,-90,2,closed,closed,1.270741,9.136497,-74.58813,0.9886475,1117.708,3,yes,yes,degas714,inperson,1,1,0.884615384615385,0.899082568807339
118,neutral,0,53Commons,90,90,0,open,open,-4.041656,11.36197,69.57754,1.351196,1123.486,2,na,yes,degas714,inperson,NaN,1,0.866666666666667,0.899082568807339
119,Maynard,0,Maynard,-90,-90,1,open,open,1.217962,9.58,-83.05688,1.281006,1126.075,1,yes,yes,degas714,inperson,1,1,0.924528301886792,0.899082568807339
121,McLaughlinCluster,0,McLaughlinCluster,-90,90,2,closed,closed,-5.350769,10.64241,67.43124,1.016846,1132.912,3,yes,yes,degas714,inperson,0.333333333333333,0.333333333333333,0.884615384615385,0.899082568807339
122,AllenSt,0,AllenSt,-90,-90,1,open,open,0.3576137,8.205586,-82.76144,1.002441,1135.32,1,yes,yes,degas714,inperson,1,1,0.924528301886792,0.899082568807339
125,BakerBerry2nd,0,BakerBerry2nd,90,-90,2,open,open,1.644272,11.50746,-72.69806,1.113525,1144.703,3,yes,yes,degas714,inperson,0.666666666666667,0.666666666666667,0.884615384615385,0.899082568807339
126,Umplebys,0,Umplebys,-90,-90,1,open,open,-0.2046814,11.42013,-79.83102,1.378418,1147.683,1,unsure,unsure,degas714,inperson,0.666666666666667,0.666666666666667,0.924528301886792,0.899082568807339
128,MooreLot,0,MooreLot,-90,90,2,closed,closed,-8.84201,12.11748,60.89498,1.099976,1153.057,3,unsure,unsure,degas714,inperson,1,1,0.884615384615385,0.899082568807339
129,neutral,0,Hop2,-90,-90,0,closed,closed,0.9230629,9.327875,-79.85892,0.9468994,1155.396,2,na,yes,degas714,inperson,NaN,0.666666666666667,0.866666666666667,0.899082568807339
131,neutral,0,Hop4,-90,-90,0,open,open,0.5256391,10.70903,-78.28235,1.08606,1161.048,2,na,yes,degas714,inperson,NaN,1,0.866666666666667,0.899082568807339
132,MooreLot,0,MooreLot,-90,-90,1,closed,closed,-0.9149475,10.08102,-80.48517,0.9190674,1163.875,1,unsure,unsure,degas714,inperson,1,1,0.924528301886792,0.899082568807339
133,Umplebys,0,Umplebys,-90,-90,1,open,open,-1.605743,11.09978,-77.86008,1.169434,1166.687,1,unsure,unsure,degas714,inperson,0.666666666666667,0.666666666666667,0.924528301886792,0.899082568807339
134,neutral,0,RaunerBackHall,-90,-90,0,closed,closed,-0.4126892,9.156549,-76.00208,0.8353271,1168.844,2,na,yes,degas714,inperson,NaN,0.666666666666667,0.866666666666667,0.899082568807339
137,BakerBerryCharter,0,BakerBerryCharter,90,-90,2,closed,closed,-0.3893127,11.71279,-72.39487,1.114136,1178.284,3,yes,yes,degas714,inperson,1,1,0.884615384615385,0.899082568807339
138,RaunerFirst,0,RaunerFirst,90,-90,2,open,open,0.3114036,11.10026,-71.62463,1.016479,1180.623,3,yes,yes,degas714,inperson,1,1,0.884615384615385,0.899082568807339
141,neutral,0,Maynard,90,90,0,closed,closed,-8.149933,11.05227,62.93243,1.08606,1188.99,2,na,yes,degas714,inperson,NaN,1,0.866666666666667,0.899082568807339
142,BakerBerryCharter,0,BakerBerryCharter,90,90,1,closed,closed,-7.371155,12.78129,62.88668,1.044312,1191.468,1,yes,yes,degas714,inperson,1,1,0.924528301886792,0.899082568807339
143,Zimmerman,0,Zimmerman,-90,-90,1,closed,closed,0.9024748,8.097339,-77.66635,1.141724,1193.988,1,no,no,degas714,inperson,0.333333333333333,0.333333333333333,0.924528301886792,0.899082568807339
144,neutral,0,BakerBerryHistoric2,-90,-90,0,closed,closed,0.1783083,11.59489,-76.6113,1.002441,1196.522,2,na,yes,degas714,inperson,NaN,0.666666666666667,0.866666666666667,0.899082568807339
2,neutral,0,Hop2,90,90,0,open,open,-5.793549,3.018018,71.91784,1.030273,804.1561,2,na,yes,degas715,inperson,NaN,1,0.935483870967742,0.923728813559322
3,RaunerFirst,0,RaunerFirst,-90,90,2,closed,closed,-8.038391,4.15146,63.87303,1.058105,812.4537,3,yes,yes,degas715,inperson,1,1,0.935483870967742,0.923728813559322
4,RaunerBackHall,0,RaunerBackHall,-90,-90,1,closed,closed,5.040472,2.833679,-82.90472,1.197266,818.8163,1,yes,yes,degas715,inperson,1,1,0.910714285714286,0.923728813559322
5,Fairbanks,0,Fairbanks,-90,90,2,open,open,-5.694153,1.967477,60.01618,1.503967,825.1651,3,yes,yes,degas715,inperson,1,1,0.935483870967742,0.923728813559322
6,Umplebys,0,Umplebys,90,-90,2,closed,closed,4.524759,-1.098999,-58.28543,1.016357,830.1351,3,yes,yes,degas715,inperson,1,1,0.935483870967742,0.923728813559322
7,BakerBerryHistoric2,0,BakerBerryHistoric2,-90,90,2,closed,closed,-8.222961,2.466025,78.15788,0.8632813,837.319,3,yes,yes,degas715,inperson,1,1,0.935483870967742,0.923728813559322
9,PineEntrance,0,PineEntrance,90,90,1,closed,closed,-10.46204,2.06586,69.55388,1.364624,851.5199,1,yes,yes,degas715,inperson,1,1,0.910714285714286,0.923728813559322
11,RaunerFirst,0,RaunerFirst,-90,-90,1,closed,closed,9.171557,2.739568,-75.10571,1.113831,861.2794,1,yes,yes,degas715,inperson,1,1,0.910714285714286,0.923728813559322
12,PineBackHall,0,PineBackHall,90,90,1,closed,closed,-10.40875,5.331779,77.00825,1.113708,864.7461,1,yes,yes,degas715,inperson,1,1,0.910714285714286,0.923728813559322
14,Hop2,0,Hop2,-90,-90,1,closed,closed,7.041749,0.9785343,-54.79651,1.030273,875.1599,1,yes,yes,degas715,inperson,1,1,0.910714285714286,0.923728813559322
15,MooreLot,0,MooreLot,90,90,1,open,open,-9.042908,2.769553,63.80774,1.169434,879.3505,1,yes,yes,degas715,inperson,1,1,0.910714285714286,0.923728813559322
16,Hop4,0,Hop4,-90,90,2,open,open,-8.464722,0.8182732,57.45869,1.169678,884.7942,3,yes,yes,degas715,inperson,1,1,0.935483870967742,0.923728813559322
17,RollinsChapel3,0,RollinsChapel3,-90,90,2,open,open,-7.276031,1.997876,60.58542,1.308716,888.9568,3,yes,yes,degas715,inperson,1,1,0.935483870967742,0.923728813559322
18,neutral,0,Hop4,90,90,0,closed,closed,-8.255249,4.800034,82.38247,0.8911743,892.3539,2,na,yes,degas715,inperson,NaN,1,0.935483870967742,0.923728813559322
19,53Commons,0,53Commons,90,-90,2,open,open,8.080856,0.9092241,-62.83228,0.9467773,896.7255,3,yes,yes,degas715,inperson,1,1,0.935483870967742,0.923728813559322
21,PineBackHall,0,PineBackHall,90,90,1,closed,closed,-9.209015,0.4420508,71.33366,0.9468384,903.812,1,yes,yes,degas715,inperson,1,1,0.910714285714286,0.923728813559322
22,neutral,0,BakerBerryHistoric2,90,90,0,open,open,-10.6828,3.319707,73.10092,1.267029,907.3204,2,na,yes,degas715,inperson,NaN,1,0.935483870967742,0.923728813559322
24,Fairbanks,0,Fairbanks,-90,-90,1,open,open,9.035371,-1.560913,-77.55276,0.8493652,913.126,1,yes,yes,degas715,inperson,1,1,0.910714285714286,0.923728813559322
26,Maynard,0,Maynard,90,-90,2,closed,closed,7.755615,-0.737854,-64.59576,0.9050293,919.4606,3,yes,yes,degas715,inperson,1,1,0.935483870967742,0.923728813559322
28,MooreLot,0,MooreLot,90,-90,2,open,open,6.631539,1.455696,-69.04651,1.253113,927.4799,3,yes,yes,degas715,inperson,1,1,0.935483870967742,0.923728813559322
30,RaunerBackHall,0,RaunerBackHall,-90,90,2,closed,closed,-4.634949,5.664609,54.99552,1.00238,936.7939,3,yes,yes,degas715,inperson,1,1,0.935483870967742,0.923728813559322
32,53Commons,0,53Commons,90,90,1,open,open,-5.669708,1.200978,78.67338,0.9050903,954.7955,1,yes,yes,degas715,inperson,1,1,0.910714285714286,0.923728813559322
33,neutral,0,Fairbanks,90,90,0,closed,closed,-5.063629,8.456732,88.45446,1.935486,964.5128,2,na,yes,degas715,inperson,NaN,1,0.935483870967742,0.923728813559322
34,Hop2,0,Hop2,-90,90,2,closed,closed,-7.846191,4.194649,55.55832,1.253052,968.7452,3,yes,yes,degas715,inperson,1,1,0.935483870967742,0.923728813559322
36,MooreLot,0,MooreLot,90,90,1,open,open,-9.627686,2.655978,64.27122,1.072021,994.1956,1,yes,yes,degas715,inperson,1,1,0.910714285714286,0.923728813559322
37,AllenSt,0,AllenSt,90,90,1,closed,closed,-8.645996,5.49056,65.83582,1.114014,996.9802,1,yes,yes,degas715,inperson,1,1,0.910714285714286,0.923728813559322
38,BakerBerryCharter,0,BakerBerryCharter,-90,-90,1,open,open,4.770646,7.370054,-73.87988,1.183472,1000.224,1,yes,yes,degas715,inperson,1,1,0.910714285714286,0.923728813559322
39,PineEntrance,0,PineEntrance,90,90,1,closed,closed,-6.489014,6.977129,65.13351,1.18335,1003.468,1,yes,yes,degas715,inperson,1,1,0.910714285714286,0.923728813559322
40,RaunerBackHall,0,RaunerBackHall,-90,-90,1,closed,closed,6.123976,2.046074,-73.63696,0.8493042,1006.642,1,yes,yes,degas715,inperson,1,1,0.910714285714286,0.923728813559322
41,Fairbanks,0,Fairbanks,-90,-90,1,open,open,5.268354,3.563045,-75.00565,1.044128,1009.58,1,yes,yes,degas715,inperson,1,1,0.910714285714286,0.923728813559322
42,neutral,0,PineEntrance,-90,-90,0,open,open,6.634478,4.774996,-86.69125,1.141724,1012.559,2,na,yes,degas715,inperson,NaN,1,0.935483870967742,0.923728813559322
43,BakerBerry2nd,0,BakerBerry2nd,-90,-90,1,closed,closed,5.696985,5.795485,-88.92923,1.058167,1014.828,1,yes,yes,degas715,inperson,1,1,0.910714285714286,0.923728813559322
44,53Commons,0,53Commons,90,90,1,open,open,-6.757904,8.335613,74.06877,0.8912354,1017.307,1,yes,yes,degas715,inperson,1,1,0.910714285714286,0.923728813559322
45,AllenSt,0,AllenSt,90,-90,2,closed,closed,4.481651,6.519036,-82.75964,0.9467163,1019.729,3,yes,yes,degas715,inperson,1,1,0.935483870967742,0.923728813559322
46,neutral,0,BakerBerry2nd,90,90,0,open,open,-7.377594,6.920854,76.99264,0.9468994,1022.319,2,na,yes,degas715,inperson,NaN,1,0.935483870967742,0.923728813559322
47,RollinsChapel3,0,RollinsChapel3,-90,-90,1,open,open,0.7408683,4.631836,-68.57458,1.044312,1025.159,1,yes,yes,degas715,inperson,1,1,0.910714285714286,0.923728813559322
48,BakerBerry2nd,0,BakerBerry2nd,-90,90,2,closed,closed,-6.134125,5.947016,67.04839,1.141846,1027.721,3,yes,yes,degas715,inperson,1,1,0.935483870967742,0.923728813559322
50,BakerBerry2nd,0,BakerBerry2nd,-90,-90,1,closed,closed,8.039887,1.771287,-78.16245,0.9606934,1034.946,1,yes,yes,degas715,inperson,1,1,0.910714285714286,0.923728813559322
51,RaunerFirst,0,RaunerFirst,-90,-90,1,closed,closed,5.370617,2.850174,-72.84534,0.8911133,1037.397,1,yes,yes,degas715,inperson,1,1,0.910714285714286,0.923728813559322
52,McLaughlinCluster,0,McLaughlinCluster,90,90,1,open,open,-4.853882,11.08456,43.19443,1.364502,1040.348,1,yes,yes,degas715,inperson,0.666666666666667,0.666666666666667,0.910714285714286,0.923728813559322
54,neutral,0,RollinsChapel3,90,90,0,closed,closed,-5.644379,8.519956,72.7898,1.15564,1046.557,2,na,yes,degas715,inperson,NaN,1,0.935483870967742,0.923728813559322
55,neutral,0,MooreLot,-90,-90,0,closed,closed,1.999607,3.311607,-66.61047,1.002441,1049.119,2,na,yes,degas715,inperson,NaN,1,0.935483870967742,0.923728813559322
56,AllenSt,0,AllenSt,90,90,1,closed,closed,-5.552002,5.834373,66.29833,0.8353271,1051.277,1,yes,yes,degas715,inperson,1,1,0.910714285714286,0.923728813559322
57,Hop4,0,Hop4,-90,-90,1,open,open,2.673404,3.208351,-63.15976,1.05835,1053.686,1,yes,yes,degas715,inperson,1,1,0.910714285714286,0.923728813559322
58,neutral,0,Maynard,-90,-90,0,open,open,5.322425,3.739435,-75.72803,1.127563,1056.206,2,na,yes,degas715,inperson,NaN,1,0.935483870967742,0.923728813559322
59,Zimmerman,0,Zimmerman,90,-90,2,open,open,3.996732,3.053054,-68.51642,0.8911133,1058.475,3,yes,yes,degas715,inperson,1,1,0.935483870967742,0.923728813559322
60,BakerBerryHistoric2,0,BakerBerryHistoric2,-90,-90,1,closed,closed,3.374064,3.335809,-65.29926,0.8773193,1060.689,1,yes,yes,degas715,inperson,1,1,0.910714285714286,0.923728813559322
61,neutral,0,AllenSt,-90,-90,0,open,open,6.033502,-1.860291,-74.7522,1.099976,1063.139,2,na,yes,degas715,inperson,NaN,1,0.935483870967742,0.923728813559322
62,neutral,0,McLaughlinCluster,-90,-90,0,closed,closed,5.062315,-0.1340637,-75.36325,0.9468994,1065.45,2,na,yes,degas715,inperson,NaN,0.666666666666667,0.935483870967742,0.923728813559322
65,RollinsChapel3,0,RollinsChapel3,-90,-90,1,open,open,2.476561,1.758818,-60.07059,1.058105,1073.553,1,yes,yes,degas715,inperson,1,1,0.910714285714286,0.923728813559322
66,neutral,0,RaunerBackHall,90,90,0,open,open,-5.043915,2.634074,47.83182,1.044189,1076.1,2,na,yes,degas715,inperson,NaN,1,0.935483870967742,0.923728813559322
67,PineEntrance,0,PineEntrance,90,-90,2,closed,closed,1.613664,2.81897,-54.43643,0.8771973,1078.3,3,yes,yes,degas715,inperson,1,1,0.935483870967742,0.923728813559322
68,BakerBerryHistoric2,0,BakerBerryHistoric2,-90,-90,1,closed,closed,2.238697,2.449776,-65.57962,0.8074951,1080.709,1,yes,yes,degas715,inperson,1,1,0.910714285714286,0.923728813559322
70,Umplebys,0,Umplebys,90,90,1,closed,closed,-6.473785,3.669349,63.17295,0.9050293,1085.999,1,yes,yes,degas715,inperson,1,1,0.910714285714286,0.923728813559322
71,Hop4,0,Hop4,-90,-90,1,open,open,5.151949,-0.4957886,-60.04724,0.9328613,1104.419,1,yes,yes,degas715,inperson,1,1,0.910714285714286,0.923728813559322
72,PineBackHall,0,PineBackHall,90,-90,2,closed,closed,3.199928,3.851699,-62.1395,0.8632813,1107.621,3,yes,yes,degas715,inperson,1,1,0.935483870967742,0.923728813559322
73,Fairbanks,0,Fairbanks,90,90,1,closed,closed,-5.247467,1.506136,51.55602,0.7791748,1110.432,1,yes,yes,degas715,inperson,1,1,0.910714285714286,0.923728813559322
75,AllenSt,0,AllenSt,-90,-90,1,open,open,4.834193,3.145441,-66.01691,0.8632813,1116.057,1,yes,yes,degas715,inperson,1,1,0.910714285714286,0.923728813559322
76,neutral,0,Umplebys,90,90,0,closed,closed,-6.658661,3.771385,69.17221,0.8773193,1118.132,2,na,yes,degas715,inperson,NaN,1,0.935483870967742,0.923728813559322
78,Maynard,0,Maynard,-90,-90,1,open,open,5.633933,1.065091,-68.69559,1.169434,1123.589,1,yes,yes,degas715,inperson,1,1,0.910714285714286,0.923728813559322
79,neutral,0,PineBackHall,90,90,0,closed,closed,-8.871033,4.624122,74.01466,0.9328613,1126.318,2,na,yes,degas715,inperson,NaN,1,0.935483870967742,0.923728813559322
80,McLaughlinCluster,0,McLaughlinCluster,-90,-90,1,closed,closed,6.846784,1.27061,-70.09766,1.030273,1129.2,1,yes,yes,degas715,inperson,0.666666666666667,0.666666666666667,0.910714285714286,0.923728813559322
81,Zimmerman,0,Zimmerman,-90,-90,1,closed,closed,6.812918,2.735404,-76.82224,1.141724,1132.194,1,yes,yes,degas715,inperson,1,1,0.910714285714286,0.923728813559322
82,neutral,0,BakerBerryCharter,-90,-90,0,open,open,8.949419,3.861495,-83.93134,1.253174,1135.048,2,na,yes,degas715,inperson,NaN,1,0.935483870967742,0.923728813559322
83,neutral,0,MooreLot,90,90,0,open,open,-8.584991,6.185208,73.54178,1.156006,1138.542,2,na,yes,degas715,inperson,NaN,1,0.935483870967742,0.923728813559322
86,neutral,0,PineEntrance,90,90,0,closed,closed,-9.88089,3.944579,75.63066,1.155518,1148.497,2,na,yes,degas715,inperson,NaN,1,0.935483870967742,0.923728813559322
87,BakerBerryHistoric2,0,BakerBerryHistoric2,90,-90,2,open,open,12.08914,-0.5992126,-64.08084,1.225342,1151.253,3,yes,yes,degas715,inperson,1,1,0.935483870967742,0.923728813559322
88,RaunerFirst,0,RaunerFirst,90,90,1,open,open,-12.01636,0.9321988,67.89026,1.280884,1153.968,1,yes,yes,degas715,inperson,1,1,0.910714285714286,0.923728813559322
92,neutral,0,BakerBerry2nd,-90,-90,0,closed,closed,5.697605,0.2026039,-63.03976,1.072021,1170.062,2,na,yes,degas715,inperson,NaN,1,0.935483870967742,0.923728813559322
94,Maynard,0,Maynard,-90,90,2,open,open,-9.185669,4.02302,61.25832,1.141602,1178.513,3,yes,yes,degas715,inperson,1,1,0.935483870967742,0.923728813559322
95,neutral,0,RaunerFirst,-90,-90,0,closed,closed,7.801477,5.926013,-85.29874,1.08606,1181.228,2,na,yes,degas715,inperson,NaN,1,0.935483870967742,0.923728813559322
96,RollinsChapel3,0,RollinsChapel3,90,90,1,closed,closed,-8.68988,8.974936,58.03093,0.9355469,1184.655,1,yes,yes,degas715,inperson,1,1,0.910714285714286,0.923728813559322
97,neutral,0,AllenSt,90,90,0,closed,closed,-10.02258,8.240848,64.14948,0.9190674,1187.186,2,na,yes,degas715,inperson,NaN,1,0.935483870967742,0.923728813559322
98,PineEntrance,0,PineEntrance,-90,-90,1,open,open,6.910587,7.594052,-82.98697,1.36438,1190.082,1,yes,yes,degas715,inperson,1,1,0.910714285714286,0.923728813559322
99,RollinsChapel3,0,RollinsChapel3,90,90,1,closed,closed,-6.740173,6.784596,57.03392,0.7657471,1192.24,1,yes,yes,degas715,inperson,1,1,0.910714285714286,0.923728813559322
100,BakerBerryHistoric2,0,BakerBerryHistoric2,90,90,1,open,open,-8.909119,8.140388,57.85658,1.322754,1195.122,1,yes,yes,degas715,inperson,1,1,0.910714285714286,0.923728813559322
101,Umplebys,0,Umplebys,-90,90,2,open,open,-9.856995,6.139937,51.85422,1.447998,1198.101,3,yes,yes,degas715,inperson,1,1,0.935483870967742,0.923728813559322
102,BakerBerry2nd,0,BakerBerry2nd,90,90,1,open,open,-10.84485,4.282164,67.72269,1.044312,1200.788,1,yes,yes,degas715,inperson,1,1,0.910714285714286,0.923728813559322
104,RollinsChapel3,0,RollinsChapel3,90,-90,2,closed,closed,8.231596,3.271151,-59.11807,1.47522,1208.961,3,yes,yes,degas715,inperson,1,1,0.935483870967742,0.923728813559322
105,RaunerBackHall,0,RaunerBackHall,90,90,1,open,open,-9.711884,11.85119,65.12093,1.531494,1211.884,1,yes,yes,degas715,inperson,1,1,0.910714285714286,0.923728813559322
106,Hop2,0,Hop2,90,-90,2,open,open,5.183852,4.355831,-69.64145,1.294678,1214.864,3,yes,yes,degas715,inperson,1,1,0.935483870967742,0.923728813559322
107,RaunerFirst,0,RaunerFirst,90,90,1,open,open,-10.55643,4.576665,73.14429,0.9328613,1231.376,1,yes,yes,degas715,inperson,1,1,0.910714285714286,0.923728813559322
108,PineBackHall,0,PineBackHall,-90,90,2,open,open,-7.760376,6.805359,57.08487,0.9605713,1234.55,3,yes,yes,degas715,inperson,1,1,0.935483870967742,0.923728813559322
109,neutral,0,RollinsChapel3,-90,-90,0,open,open,7.134662,5.538172,-78.85004,0.8494873,1236.681,2,na,yes,degas715,inperson,NaN,1,0.935483870967742,0.923728813559322
110,PineEntrance,0,PineEntrance,-90,-90,1,open,open,7.108124,3.701452,-80.95303,0.9189453,1239.298,1,yes,yes,degas715,inperson,1,1,0.910714285714286,0.923728813559322
111,BakerBerryHistoric2,0,BakerBerryHistoric2,90,90,1,open,open,-10.05695,9.71093,81.10716,1.016479,1241.971,1,yes,yes,degas715,inperson,1,1,0.910714285714286,0.923728813559322
113,neutral,0,Zimmerman,90,90,0,open,open,-7.076599,3.004279,72.30128,0.9327393,1248.723,2,na,yes,degas715,inperson,NaN,1,0.935483870967742,0.923728813559322
117,RaunerBackHall,0,RaunerBackHall,90,-90,2,open,open,5.350579,4.037226,-66.2858,1.225342,1259.722,3,yes,yes,degas715,inperson,1,1,0.935483870967742,0.923728813559322
118,neutral,0,53Commons,90,90,0,open,open,-9.506989,7.809862,76.40402,0.9467773,1261.88,2,na,yes,degas715,inperson,NaN,1,0.935483870967742,0.923728813559322
119,Maynard,0,Maynard,-90,-90,1,open,open,5.97006,3.683585,-62.5209,1.141724,1264.609,1,yes,yes,degas715,inperson,1,1,0.910714285714286,0.923728813559322
120,neutral,0,Fairbanks,-90,-90,0,open,open,8.469827,4.12265,-81.63721,1.183472,1267.755,2,na,yes,degas715,inperson,NaN,1,0.935483870967742,0.923728813559322
121,McLaughlinCluster,0,McLaughlinCluster,-90,90,2,closed,closed,-12.88248,6.334619,77.91503,1.169556,1270.303,3,yes,yes,degas715,inperson,0.666666666666667,0.666666666666667,0.935483870967742,0.923728813559322
122,AllenSt,0,AllenSt,-90,-90,1,open,open,4.416491,3.781958,-75.30435,0.9752197,1272.725,1,yes,yes,degas715,inperson,1,1,0.910714285714286,0.923728813559322
123,MooreLot,0,MooreLot,-90,-90,1,closed,closed,5.567194,2.646232,-72.18848,1.308716,1275.635,1,yes,yes,degas715,inperson,1,1,0.910714285714286,0.923728813559322
125,BakerBerry2nd,0,BakerBerry2nd,90,-90,2,open,open,7.555454,-0.6792603,-67.99216,1.016479,1282.624,3,yes,yes,degas715,inperson,1,1,0.935483870967742,0.923728813559322
126,Umplebys,0,Umplebys,-90,-90,1,open,open,8.10194,0.1921152,-76.94943,1.044312,1285.144,1,yes,yes,degas715,inperson,1,1,0.910714285714286,0.923728813559322
127,RaunerBackHall,0,RaunerBackHall,90,90,1,open,open,-8.460327,4.52958,65.02126,1.072144,1287.58,1,yes,yes,degas715,inperson,1,1,0.910714285714286,0.923728813559322
128,MooreLot,0,MooreLot,-90,90,2,closed,closed,-9.244171,5.724841,62.24854,1.15564,1290.212,3,yes,yes,degas715,inperson,1,1,0.935483870967742,0.923728813559322
129,neutral,0,Hop2,-90,-90,0,closed,closed,7.530816,1.294428,-80.45325,0.9886475,1292.537,2,na,yes,degas715,inperson,NaN,1,0.935483870967742,0.923728813559322
130,neutral,0,McLaughlinCluster,90,90,0,open,open,-9.446106,9.12573,77.30394,1.016357,1294.806,2,na,yes,degas715,inperson,NaN,0.666666666666667,0.935483870967742,0.923728813559322
131,neutral,0,Hop4,-90,-90,0,open,open,8.660758,4.528077,-81.66412,1.072144,1298.51,2,na,yes,degas715,inperson,NaN,1,0.935483870967742,0.923728813559322
132,MooreLot,0,MooreLot,-90,-90,1,closed,closed,6.000699,5.146421,-82.1221,0.9051514,1300.904,1,yes,yes,degas715,inperson,1,1,0.910714285714286,0.923728813559322
133,Umplebys,0,Umplebys,-90,-90,1,open,open,6.758323,0.02993864,-73.85553,0.9884033,1303.842,1,yes,yes,degas715,inperson,1,1,0.910714285714286,0.923728813559322
134,neutral,0,RaunerBackHall,-90,-90,0,closed,closed,7.249404,0.4799779,-76.44281,0.821167,1306.208,2,na,yes,degas715,inperson,NaN,1,0.935483870967742,0.923728813559322
135,Hop2,0,Hop2,90,90,1,open,open,-12.13705,8.060876,72.21165,0.9608154,1308.714,1,yes,yes,degas715,inperson,1,1,0.910714285714286,0.923728813559322
136,53Commons,0,53Commons,-90,90,2,closed,closed,-9.534454,10.22017,69.71862,1.127808,1311.429,3,yes,yes,degas715,inperson,1,1,0.935483870967742,0.923728813559322
138,RaunerFirst,0,RaunerFirst,90,-90,2,open,open,4.705389,3.709564,-71.51917,1.239136,1316.873,3,yes,yes,degas715,inperson,1,1,0.935483870967742,0.923728813559322
140,AllenSt,0,AllenSt,-90,90,2,open,open,-8.10968,5.982192,59.22791,0.9328613,1321.731,3,yes,yes,degas715,inperson,1,1,0.935483870967742,0.923728813559322
141,neutral,0,Maynard,90,90,0,closed,closed,-9.276794,6.765968,74.40534,0.9189453,1324.098,2,na,yes,degas715,inperson,NaN,1,0.935483870967742,0.923728813559322
1,neutral,0,RaunerFirst,90,90,0,open,open,-0.008880615,6.436854,83.51445,1.823914,610.5482,2,na,yes,degas712,inperson,NaN,0.666666666666667,0.806451612903226,0.836206896551724
3,RaunerFirst,0,RaunerFirst,-90,90,2,closed,closed,1.01164,5.8044,81.55197,1.656799,619.5281,3,yes,yes,degas712,inperson,0.666666666666667,0.666666666666667,0.892857142857143,0.836206896551724
5,Fairbanks,0,Fairbanks,-90,90,2,open,open,-0.04354858,5.152918,80.9342,1.573242,626.8234,3,yes,yes,degas712,inperson,NaN,NaN,0.892857142857143,0.836206896551724
6,Umplebys,0,Umplebys,90,-90,2,closed,closed,2.195008,9.771276,-85.66003,1.573303,629.747,3,yes,yes,degas712,inperson,1,1,0.892857142857143,0.836206896551724
8,BakerBerryCharter,0,BakerBerryCharter,-90,-90,1,open,open,2.043811,11.742,-82.99039,1.447998,636.6108,1,yes,yes,degas712,inperson,0.666666666666667,0.666666666666667,0.824561403508772,0.836206896551724
9,PineEntrance,0,PineEntrance,90,90,1,closed,closed,-0.3948975,9.792422,84.23614,1.294861,639.2699,1,yes,yes,degas712,inperson,0.666666666666667,0.666666666666667,0.824561403508772,0.836206896551724
11,RaunerFirst,0,RaunerFirst,-90,-90,1,closed,closed,1.853114,11.10266,-83.34537,1.336853,645.2707,1,yes,yes,degas712,inperson,0.666666666666667,0.666666666666667,0.824561403508772,0.836206896551724
12,PineBackHall,0,PineBackHall,90,90,1,closed,closed,-1.646484,10.41551,86.97806,1.26709,647.7068,1,yes,yes,degas712,inperson,0.666666666666667,0.666666666666667,0.824561403508772,0.836206896551724
14,Hop2,0,Hop2,-90,-90,1,closed,closed,1.755303,11.77436,-89.06857,1.531494,653.6656,1,yes,yes,degas712,inperson,1,1,0.824561403508772,0.836206896551724
15,MooreLot,0,MooreLot,90,90,1,open,open,2.563011,16.4757,84.41406,1.949463,656.8539,1,yes,yes,degas712,inperson,0.333333333333333,0.333333333333333,0.824561403508772,0.836206896551724
16,Hop4,0,Hop4,-90,90,2,open,open,-1.108154,10.59908,79.02867,1.475891,659.7914,3,yes,yes,degas712,inperson,0.333333333333333,0.333333333333333,0.892857142857143,0.836206896551724
17,RollinsChapel3,0,RollinsChapel3,-90,90,2,open,open,-0.2288208,7.88007,80.41659,1.253174,662.2835,3,yes,yes,degas712,inperson,1,1,0.892857142857143,0.836206896551724
18,neutral,0,Hop4,90,90,0,closed,closed,0.2632582,9.469777,77.47047,0.9051514,664.5529,2,na,yes,degas712,inperson,NaN,0.333333333333333,0.806451612903226,0.836206896551724
22,neutral,0,BakerBerryHistoric2,90,90,0,open,open,2.211245,19.57625,81.67507,1.58728,675.3843,2,na,yes,degas712,inperson,NaN,0.666666666666667,0.806451612903226,0.836206896551724
24,Fairbanks,0,Fairbanks,-90,-90,1,open,open,2.15686,7.923785,-81.04614,1.266907,680.6191,1,yes,yes,degas712,inperson,NaN,NaN,0.824561403508772,0.836206896551724
25,Zimmerman,0,Zimmerman,90,90,1,open,open,-4.696564,6.281504,73.18081,1.141785,682.9999,1,yes,yes,degas712,inperson,0.666666666666667,0.666666666666667,0.824561403508772,0.836206896551724
26,Maynard,0,Maynard,90,-90,2,closed,closed,0.9594961,10.37485,-79.48337,1.336731,685.5199,3,yes,yes,degas712,inperson,0.666666666666667,0.666666666666667,0.892857142857143,0.836206896551724
30,RaunerBackHall,0,RaunerBackHall,-90,90,2,closed,closed,-0.6192932,11.09968,73.05055,1.085999,696.6158,3,yes,yes,degas712,inperson,0.333333333333333,0.333333333333333,0.892857142857143,0.836206896551724
31,Maynard,0,Maynard,90,90,1,closed,closed,-0.5158081,11.55203,74.58395,1.601135,699.4282,1,yes,yes,degas712,inperson,0.666666666666667,0.666666666666667,0.824561403508772,0.836206896551724
32,53Commons,0,53Commons,90,90,1,open,open,0.003926688,13.10138,81.42124,1.54541,702.1151,1,yes,yes,degas712,inperson,0.666666666666667,0.666666666666667,0.824561403508772,0.836206896551724
34,Hop2,0,Hop2,-90,90,2,closed,closed,-1.520294,9.471944,86.22826,1.40625,707.2108,3,yes,yes,degas712,inperson,1,1,0.892857142857143,0.836206896551724
36,MooreLot,0,MooreLot,90,90,1,open,open,-0.5484009,11.63647,75.57072,1.573181,718.8915,1,yes,yes,degas712,inperson,0.333333333333333,0.333333333333333,0.824561403508772,0.836206896551724
37,AllenSt,0,AllenSt,90,90,1,closed,closed,-0.1674194,12.66311,79.38359,1.392334,721.5925,1,yes,yes,degas712,inperson,0.666666666666667,0.666666666666667,0.824561403508772,0.836206896551724
39,PineEntrance,0,PineEntrance,90,90,1,closed,closed,-2.136871,13.23153,77.97739,1.127747,726.6185,1,yes,yes,degas712,inperson,0.666666666666667,0.666666666666667,0.824561403508772,0.836206896551724
41,Fairbanks,0,Fairbanks,-90,-90,1,open,open,1.176333,11.03852,-67.28772,1.684753,732.5355,1,yes,yes,degas712,inperson,NaN,NaN,0.824561403508772,0.836206896551724
44,53Commons,0,53Commons,90,90,1,open,open,-0.6454773,6.604131,71.5606,1.267151,741.7103,1,yes,yes,degas712,inperson,0.666666666666667,0.666666666666667,0.824561403508772,0.836206896551724
45,AllenSt,0,AllenSt,90,-90,2,closed,closed,2.171444,13.84298,-75.72748,1.253113,744.1605,3,yes,yes,degas712,inperson,0.666666666666667,0.666666666666667,0.892857142857143,0.836206896551724
46,neutral,0,BakerBerry2nd,90,90,0,open,open,-0.1361694,8.473335,78.92657,1.127991,746.5275,2,na,yes,degas712,inperson,NaN,0.333333333333333,0.806451612903226,0.836206896551724
47,RollinsChapel3,0,RollinsChapel3,-90,-90,1,open,open,-0.3425293,8.266628,-74.74866,1.086121,748.7689,1,yes,yes,degas712,inperson,1,1,0.824561403508772,0.836206896551724
48,BakerBerry2nd,0,BakerBerry2nd,-90,90,2,closed,closed,-1.315002,5.247876,71.16423,1.183533,751.066,3,yes,yes,degas712,inperson,0.333333333333333,0.333333333333333,0.892857142857143,0.836206896551724
50,BakerBerry2nd,0,BakerBerry2nd,-90,-90,1,closed,closed,2.080316,10.36736,-70.31973,1.364502,757.345,1,yes,yes,degas712,inperson,0.333333333333333,0.333333333333333,0.824561403508772,0.836206896551724
52,McLaughlinCluster,0,McLaughlinCluster,90,90,1,open,open,-2.897461,6.785421,70.14182,1.350647,762.7469,1,yes,yes,degas712,inperson,NaN,NaN,0.824561403508772,0.836206896551724
55,neutral,0,MooreLot,-90,-90,0,closed,closed,0.9117154,7.440505,-85.69067,1.197449,775.6389,2,na,yes,degas712,inperson,NaN,0.333333333333333,0.806451612903226,0.836206896551724
56,AllenSt,0,AllenSt,90,90,1,closed,closed,0.2851774,11.20808,73.29864,1.294739,778.6182,1,yes,yes,degas712,inperson,0.666666666666667,0.666666666666667,0.824561403508772,0.836206896551724
57,Hop4,0,Hop4,-90,-90,1,open,open,-2.069,10.63891,-93.85837,1.420044,781.514,1,yes,yes,degas712,inperson,0.333333333333333,0.333333333333333,0.824561403508772,0.836206896551724
58,neutral,0,Maynard,-90,-90,0,open,open,-1.45517,4.771416,-84.38849,1.573303,784.6884,2,na,yes,degas712,inperson,NaN,0.666666666666667,0.806451612903226,0.836206896551724
59,Zimmerman,0,Zimmerman,90,-90,2,open,open,1.460198,2.434344,-78.6377,1.15564,788.1968,3,yes,yes,degas712,inperson,0.666666666666667,0.666666666666667,0.892857142857143,0.836206896551724
60,BakerBerryHistoric2,0,BakerBerryHistoric2,-90,-90,1,closed,closed,0.6313125,8.445526,-83.75897,1.155579,791.8445,1,yes,yes,degas712,inperson,0.666666666666667,0.666666666666667,0.824561403508772,0.836206896551724
61,neutral,0,AllenSt,-90,-90,0,open,open,1.795204,5.475946,-86.27045,1.253174,794.2948,2,na,yes,degas712,inperson,NaN,0.666666666666667,0.806451612903226,0.836206896551724
62,neutral,0,McLaughlinCluster,-90,-90,0,closed,closed,2.75079,6.902008,-83.49188,1.419922,797.3157,2,na,yes,degas712,inperson,NaN,NaN,0.806451612903226,0.836206896551724
63,Hop2,0,Hop2,-90,-90,1,closed,closed,0.8762406,16.17244,-88.53528,1.545593,800.1282,1,yes,yes,degas712,inperson,1,1,0.824561403508772,0.836206896551724
65,RollinsChapel3,0,RollinsChapel3,-90,-90,1,open,open,-0.01751709,1.782494,-74.83044,1.058105,805.6971,1,yes,yes,degas712,inperson,1,1,0.824561403508772,0.836206896551724
66,neutral,0,RaunerBackHall,90,90,0,open,open,-0.2677002,11.54273,74.67714,2.102478,808.941,2,na,yes,degas712,inperson,NaN,0.333333333333333,0.806451612903226,0.836206896551724
67,PineEntrance,0,PineEntrance,90,-90,2,closed,closed,-1.614197,4.650355,-63.9613,0.9050903,811.3915,3,yes,yes,degas712,inperson,0.666666666666667,0.666666666666667,0.892857142857143,0.836206896551724
68,BakerBerryHistoric2,0,BakerBerryHistoric2,-90,-90,1,closed,closed,2.365766,9.544475,-76.07846,1.322571,813.7999,1,yes,yes,degas712,inperson,0.666666666666667,0.666666666666667,0.824561403508772,0.836206896551724
69,Maynard,0,Maynard,90,90,1,closed,closed,-1.016418,11.487,69.89174,1.628906,816.7097,1,yes,yes,degas712,inperson,0.666666666666667,0.666666666666667,0.824561403508772,0.836206896551724
70,Umplebys,0,Umplebys,90,90,1,closed,closed,0.3787347,13.24367,76.45072,1.990967,819.8282,1,yes,yes,degas712,inperson,1,1,0.824561403508772,0.836206896551724
71,Hop4,0,Hop4,-90,-90,1,open,open,0.8311086,8.040603,-81.87811,1.169617,828.9196,1,yes,yes,degas712,inperson,0.333333333333333,0.333333333333333,0.824561403508772,0.836206896551724
