trialIdx,primeName,targetName,targetSide,condition,correctResponse,response,roll,pitch,yaw,rt,timestamp,familiarityPrime,familiarityTarget,subject_id,session_format,explicit_acc_scenewise_prime,explicit_acc_scenewise_target,oc_acc_by_condition,oc_acc
1,BakerBerry2nd,BakerBerry2nd,-90,1,closed,closed,-4.646973,15.60761,-74.6763,1.36084,780.1118,yes,yes,wyeth503,inperson,1,1,0.942307692307692,0.912621359223301
2,NeutralZimmerman,Zimmerman,90,2,open,open,1.070038,7.259223,89.50825,1.083191,797.2462,na,yes,wyeth503,inperson,NaN,1,0.857142857142857,0.912621359223301
3,BakerBerryHistoric2,BakerBerryHistoric2,90,1,open,open,4.535933,17.28517,77.983,1.638367,803.1472,no,no,wyeth503,inperson,1,1,0.942307692307692,0.912621359223301
5,Umplebys,Umplebys,90,1,closed,closed,4.095128,11.93833,66.30195,1.166382,811.7535,yes,yes,wyeth503,inperson,1,1,0.942307692307692,0.912621359223301
8,Zimmerman,Zimmerman_mirror,90,3,open,open,1.922462,4.521175,82.4789,1.295959,824.9041,yes,yes,wyeth503,inperson,1,NaN,0.91304347826087,0.912621359223301
9,Maynard,Maynard_mirror,90,3,closed,closed,0.279519,9.631217,37.52617,1.610901,828.7363,no,no,wyeth503,inperson,1,NaN,0.91304347826087,0.912621359223301
10,RollinsChapel3,RollinsChapel3,90,1,closed,closed,3.982224,10.21088,77.38818,1.38855,833.4156,yes,yes,wyeth503,inperson,1,1,0.942307692307692,0.912621359223301
13,NeutralFairbanks,Fairbanks,-90,2,open,open,1.089849,1.692785,-95.49432,1.249878,847.4838,na,yes,wyeth503,inperson,NaN,1,0.857142857142857,0.912621359223301
14,PineBackHall,PineBackHall,90,1,closed,closed,5.158465,12.37463,58.37263,1.110779,850.6771,yes,yes,wyeth503,inperson,0.666666666666667,0.666666666666667,0.942307692307692,0.912621359223301
16,Hop2,Hop2,-90,1,closed,closed,-1.841919,11.66213,-72.83832,1.013855,859.0637,yes,yes,wyeth503,inperson,1,1,0.942307692307692,0.912621359223301
17,Maynard,Maynard,-90,1,open,open,0.9749323,3.269014,-89.85269,1.069519,862.3959,no,no,wyeth503,inperson,1,1,0.942307692307692,0.912621359223301
19,Hop4,Hop4,-90,1,open,open,0.003660862,4.811511,-81.37134,1.083069,869.0389,yes,yes,wyeth503,inperson,1,1,0.942307692307692,0.912621359223301
20,Hop2,Hop2,-90,1,closed,closed,0.3662349,6.151287,-80.41522,1.013672,871.8991,yes,yes,wyeth503,inperson,1,1,0.942307692307692,0.912621359223301
23,Umplebys,Umplebys,90,1,closed,closed,3.473105,10.44663,76.98967,1.069153,885.2961,yes,yes,wyeth503,inperson,1,1,0.942307692307692,0.912621359223301
24,AllenSt,AllenSt,90,1,closed,closed,2.860296,9.609236,75.78732,0.9581299,888.6008,yes,yes,wyeth503,inperson,1,1,0.942307692307692,0.912621359223301
25,53Commons,53Commons,90,1,open,open,3.639928,9.228068,77.19791,1.027588,891.5027,yes,yes,wyeth503,inperson,1,1,0.942307692307692,0.912621359223301
26,BakerBerryCharter,BakerBerryCharter_mirror,90,3,closed,closed,3.523432,10.33861,78.6598,1.002625,894.8101,no,no,wyeth503,inperson,1,NaN,0.91304347826087,0.912621359223301
27,PineEntrance,PineEntrance_mirror,90,3,closed,closed,3.782442,11.45379,66.17873,0.9507446,898.0519,yes,yes,wyeth503,inperson,1,NaN,0.91304347826087,0.912621359223301
28,NeutralAllenSt,AllenSt,-90,2,open,open,3.27414,4.736323,-82.74866,1.11084,901.3954,na,yes,wyeth503,inperson,NaN,1,0.857142857142857,0.912621359223301
29,RaunerFirst,RaunerFirst,90,1,open,open,2.133638,7.930489,72.46413,1.249634,904.5057,unsure,unsure,wyeth503,inperson,1,1,0.942307692307692,0.912621359223301
30,NeutralMaynard,Maynard,90,2,closed,closed,1.464514,6.972158,81.18018,1.180481,907.5109,na,no,wyeth503,inperson,NaN,1,0.857142857142857,0.912621359223301
34,RaunerBackHall,RaunerBackHall,-90,1,closed,closed,1.69757,4.175082,-78.72629,1.027649,919.8421,no,no,wyeth503,inperson,1,1,0.942307692307692,0.912621359223301
35,McLaughlinCluster,McLaughlinCluster_mirror,-90,3,closed,closed,-0.01602173,4.602975,-77.02722,1.245178,962.7963,no,no,wyeth503,inperson,1,NaN,0.91304347826087,0.912621359223301
36,NeutralRaunerBackHall,RaunerBackHall,90,2,open,open,2.085859,5.841951,76.67127,1.249756,966.4578,na,no,wyeth503,inperson,NaN,1,0.857142857142857,0.912621359223301
38,MooreLot,MooreLot_mirror,90,3,open,open,0.6301748,6.177025,74.4994,1.412231,973.902,no,no,wyeth503,inperson,1,NaN,0.91304347826087,0.912621359223301
39,BakerBerryHistoric2,BakerBerryHistoric2,90,1,open,open,-1.303986,7.090325,52.50791,1.30542,977.0816,no,no,wyeth503,inperson,1,1,0.942307692307692,0.912621359223301
40,BakerBerryCharter,BakerBerryCharter,-90,1,open,open,1.204956,4.780573,-75.22003,1.541382,980.5666,no,no,wyeth503,inperson,1,1,0.942307692307692,0.912621359223301
42,BakerBerry2nd,BakerBerry2nd,-90,1,closed,closed,0.8254485,4.507113,-80.67627,0.9303589,986.9813,yes,yes,wyeth503,inperson,1,1,0.942307692307692,0.912621359223301
43,53Commons,53Commons,90,1,open,open,-0.9950562,8.707004,73.55099,0.9304199,989.7026,yes,yes,wyeth503,inperson,1,1,0.942307692307692,0.912621359223301
44,NeutralRaunerFirst,RaunerFirst,-90,2,closed,closed,0.2070522,8.118879,-51.56027,1.083313,992.6931,na,unsure,wyeth503,inperson,NaN,1,0.857142857142857,0.912621359223301
45,BakerBerry2nd,BakerBerry2nd_mirror,90,3,open,open,-3.423615,9.454564,77.78338,1.011963,995.8432,yes,yes,wyeth503,inperson,1,NaN,0.91304347826087,0.912621359223301
46,NeutralUmplebys,Umplebys,-90,2,open,open,2.837018,4.369218,-74.55893,1.041321,998.8154,na,yes,wyeth503,inperson,NaN,1,0.857142857142857,0.912621359223301
48,RollinsChapel3,RollinsChapel3_mirror,-90,3,open,open,3.929897,1.554916,-87.48062,1.465393,1005.141,yes,yes,wyeth503,inperson,1,NaN,0.91304347826087,0.912621359223301
51,PineEntrance,PineEntrance,-90,1,open,open,3.058401,2.455099,-86.10416,1.277466,1014.905,yes,yes,wyeth503,inperson,1,1,0.942307692307692,0.912621359223301
52,NeutralMcLaughlinCluster,McLaughlinCluster,-90,2,closed,closed,-0.04174805,6.284475,-74.71777,1.499817,1018.055,na,no,wyeth503,inperson,NaN,1,0.857142857142857,0.912621359223301
53,BakerBerryCharter,BakerBerryCharter,-90,1,open,open,1.624789,3.396607,-75.0838,1.458008,1021.193,no,no,wyeth503,inperson,1,1,0.942307692307692,0.912621359223301
55,Hop4,Hop4,-90,1,open,open,2.971115,1.88886,-75.62283,0.8748779,1027.207,yes,yes,wyeth503,inperson,1,1,0.942307692307692,0.912621359223301
59,NeutralHop2,Hop2,90,2,open,open,-1.146606,8.654394,71.48763,1.138428,1040.938,na,yes,wyeth503,inperson,NaN,1,0.857142857142857,0.912621359223301
60,RaunerBackHall,RaunerBackHall,-90,1,closed,closed,-0.7871094,5.453379,-26.56171,1.221924,1044.451,no,no,wyeth503,inperson,1,1,0.942307692307692,0.912621359223301
61,NeutralBakerBerry2nd,BakerBerry2nd,90,2,open,open,-0.07400513,8.826229,75.25434,1.055542,1047.587,na,yes,wyeth503,inperson,NaN,1,0.857142857142857,0.912621359223301
62,NeutralRollinsChapel3,RollinsChapel3,-90,2,open,open,0.6076085,4.037479,-70.6369,1.013794,1051.367,na,yes,wyeth503,inperson,NaN,1,0.857142857142857,0.912621359223301
63,McLaughlinCluster,McLaughlinCluster,90,1,open,open,-0.6917725,8.884212,88.42295,1.319214,1055.574,no,no,wyeth503,inperson,1,1,0.942307692307692,0.912621359223301
64,Fairbanks,Fairbanks,90,1,closed,closed,0.7379879,8.420014,83.59227,1.235962,1059.615,yes,yes,wyeth503,inperson,1,1,0.942307692307692,0.912621359223301
65,McLaughlinCluster,McLaughlinCluster,90,1,open,open,0.8803012,8.432977,45.72083,1.694092,1064.724,no,no,wyeth503,inperson,1,1,0.942307692307692,0.912621359223301
67,Hop2,Hop2_mirror,90,3,open,open,0.4575255,6.389693,73.29221,1.163818,1071.872,yes,yes,wyeth503,inperson,1,NaN,0.91304347826087,0.912621359223301
69,PineEntrance,PineEntrance,-90,1,open,open,4.653303,3.349622,-75.53137,1.54126,1079.223,yes,yes,wyeth503,inperson,1,1,0.942307692307692,0.912621359223301
70,Maynard,Maynard,-90,1,open,open,3.203176,2.480656,-70.29422,1.096924,1082.375,no,no,wyeth503,inperson,1,1,0.942307692307692,0.912621359223301
71,NeutralBakerBerryHistoric2,BakerBerryHistoric2,-90,2,closed,closed,-0.02316284,11.62852,-55.79221,1.235718,1111.073,na,no,wyeth503,inperson,NaN,1,0.857142857142857,0.912621359223301
72,Umplebys,Umplebys_mirror,-90,3,open,open,-1.141663,3.653711,-70.73004,1.239746,1115.298,yes,yes,wyeth503,inperson,1,NaN,0.91304347826087,0.912621359223301
74,RollinsChapel3,RollinsChapel3,-90,1,open,open,1.234181,2.255304,-61.03604,0.8609619,1122.448,yes,yes,wyeth503,inperson,1,1,0.942307692307692,0.912621359223301
75,AllenSt,AllenSt,-90,1,open,open,0.6242061,1.950643,-73.74158,1.013794,1125.961,yes,yes,wyeth503,inperson,1,1,0.942307692307692,0.912621359223301
77,BakerBerryCharter,BakerBerryCharter_mirror,-90,3,open,open,-0.5046692,4.868474,-66.55615,0.9997559,1133.875,no,no,wyeth503,inperson,1,NaN,0.91304347826087,0.912621359223301
80,NeutralPineBackHall,PineBackHall,90,2,closed,closed,-2.46582,2.49246,80.55541,0.9719238,1144.566,na,yes,wyeth503,inperson,NaN,0.666666666666667,0.857142857142857,0.912621359223301
81,NeutralRaunerBackHall,RaunerBackHall,-90,2,closed,closed,2.016343,-0.644989,-57.1015,0.9165039,1147.649,na,no,wyeth503,inperson,NaN,1,0.857142857142857,0.912621359223301
82,RollinsChapel3,RollinsChapel3_mirror,90,3,closed,closed,-2.198364,2.064481,68.66437,1.402832,1151.315,yes,yes,wyeth503,inperson,1,NaN,0.91304347826087,0.912621359223301
83,NeutralBakerBerryCharter,BakerBerryCharter,-90,2,open,open,4.33183,2.86298,-70.45023,1.249634,1155.008,na,no,wyeth503,inperson,NaN,1,0.857142857142857,0.912621359223301
84,McLaughlinCluster,McLaughlinCluster,-90,1,closed,closed,1.932958,-0.2077637,-59.27625,1.18042,1158.021,no,no,wyeth503,inperson,1,1,0.942307692307692,0.912621359223301
85,Maynard,Maynard_mirror,-90,3,open,open,2.474537,-0.6109009,-67.42313,0.9858398,1161.145,no,no,wyeth503,inperson,1,NaN,0.91304347826087,0.912621359223301
88,Fairbanks,Fairbanks,-90,1,open,open,3.556689,-1.156555,-69.42554,0.9997559,1171.461,yes,yes,wyeth503,inperson,1,1,0.942307692307692,0.912621359223301
90,RaunerBackHall,RaunerBackHall_mirror,-90,3,closed,closed,0.2846462,5.527673,-53.67957,0.8608398,1178.75,no,no,wyeth503,inperson,1,NaN,0.91304347826087,0.912621359223301
91,Maynard,Maynard,90,1,closed,closed,-1.002777,5.260005,72.71832,1.05542,1182.124,no,no,wyeth503,inperson,1,1,0.942307692307692,0.912621359223301
93,Hop4,Hop4,90,1,closed,closed,-0.1690979,6.402333,72.74245,1,1188.289,yes,yes,wyeth503,inperson,1,1,0.942307692307692,0.912621359223301
96,PineEntrance,PineEntrance,90,1,closed,closed,-1.155365,6.532342,63.25756,0.819458,1197.758,yes,yes,wyeth503,inperson,1,1,0.942307692307692,0.912621359223301
97,NeutralZimmerman,Zimmerman,-90,2,closed,closed,4.165227,2.589872,-69.30429,1.360596,1201.451,na,yes,wyeth503,inperson,NaN,1,0.857142857142857,0.912621359223301
98,53Commons,53Commons_mirror,90,3,open,open,-2.20575,5.999831,67.3066,1.138794,1204.353,yes,yes,wyeth503,inperson,1,NaN,0.91304347826087,0.912621359223301
100,BakerBerryHistoric2,BakerBerryHistoric2,-90,1,closed,closed,3.245204,3.93019,-58.12564,1.152588,1210.74,no,no,wyeth503,inperson,1,1,0.942307692307692,0.912621359223301
104,Neutral53Commons,53Commons,90,2,open,open,-3.264221,6.286478,73.58805,1.055054,1222.736,na,yes,wyeth503,inperson,NaN,1,0.857142857142857,0.912621359223301
105,McLaughlinCluster,McLaughlinCluster,-90,1,closed,closed,4.446315,1.515826,-63.50888,1.194214,1225.819,no,no,wyeth503,inperson,1,1,0.942307692307692,0.912621359223301
106,53Commons,53Commons,-90,1,closed,closed,5.867173,2.993726,-76.15143,1.44397,1228.971,yes,yes,wyeth503,inperson,1,1,0.942307692307692,0.912621359223301
107,Hop2,Hop2_mirror,-90,3,closed,closed,-1.590027,6.191462,-61.3667,0.8609619,1253.13,yes,yes,wyeth503,inperson,1,NaN,0.91304347826087,0.912621359223301
108,BakerBerry2nd,BakerBerry2nd_mirror,-90,3,closed,closed,-1.166321,8.055772,-53.81473,1.055664,1256.393,yes,yes,wyeth503,inperson,1,NaN,0.91304347826087,0.912621359223301
109,NeutralHop2,Hop2,-90,2,closed,closed,-0.9470825,5.474309,-64.26187,0.90271,1259.142,na,yes,wyeth503,inperson,NaN,1,0.857142857142857,0.912621359223301
110,NeutralHop4,Hop4,-90,2,open,open,-0.2487488,3.985663,-59.83655,1.180542,1262.696,na,yes,wyeth503,inperson,NaN,1,0.857142857142857,0.912621359223301
111,NeutralMaynard,Maynard,-90,2,open,open,0.7627102,3.118844,-72.28732,0.9442139,1265.265,na,no,wyeth503,inperson,NaN,1,0.857142857142857,0.912621359223301
114,RaunerFirst,RaunerFirst,-90,1,closed,closed,-0.629425,2.039836,-66.65427,0.9443359,1274.665,unsure,unsure,wyeth503,inperson,1,1,0.942307692307692,0.912621359223301
115,McLaughlinCluster,McLaughlinCluster_mirror,90,3,open,open,-0.9013672,8.098697,68.23667,1.138672,1277.747,no,no,wyeth503,inperson,1,NaN,0.91304347826087,0.912621359223301
117,RaunerFirst,RaunerFirst_mirror,90,3,open,open,-3.276764,8.062436,73.81725,1.194214,1284.093,unsure,unsure,wyeth503,inperson,1,NaN,0.91304347826087,0.912621359223301
118,NeutralAllenSt,AllenSt,90,2,closed,closed,0.2438498,8.148146,72.86098,0.9997559,1287.175,na,yes,wyeth503,inperson,NaN,1,0.857142857142857,0.912621359223301
120,BakerBerryCharter,BakerBerryCharter,90,1,closed,closed,-3.350891,11.00268,72.19019,0.958252,1292.798,no,no,wyeth503,inperson,1,1,0.942307692307692,0.912621359223301
121,Hop4,Hop4_mirror,-90,3,open,open,2.462967,2.834302,-78.87952,1.291504,1295.908,yes,yes,wyeth503,inperson,1,NaN,0.91304347826087,0.912621359223301
122,NeutralRaunerFirst,RaunerFirst,90,2,open,open,-1.410583,7.331739,68.58421,1.166382,1298.782,na,unsure,wyeth503,inperson,NaN,1,0.857142857142857,0.912621359223301
124,Zimmerman,Zimmerman,90,1,open,open,-0.3015442,6.857533,69.59082,1.083008,1304.933,yes,yes,wyeth503,inperson,1,1,0.942307692307692,0.912621359223301
125,RollinsChapel3,RollinsChapel3,-90,1,open,open,0.7661615,3.006391,-60.73737,0.8748779,1307.668,yes,yes,wyeth503,inperson,1,1,0.942307692307692,0.912621359223301
129,Umplebys,Umplebys,-90,1,open,open,2.579063,4.469765,-62.74411,0.8470459,1319.012,yes,yes,wyeth503,inperson,1,1,0.942307692307692,0.912621359223301
130,NeutralMooreLot,MooreLot,-90,2,closed,closed,-0.9606934,4.128076,-52.33774,1.08313,1321.734,na,no,wyeth503,inperson,NaN,1,0.857142857142857,0.912621359223301
133,53Commons,53Commons,-90,1,closed,closed,1.465092,2.882538,-76.03973,1.110962,1329.495,yes,yes,wyeth503,inperson,1,1,0.942307692307692,0.912621359223301
134,Hop2,Hop2,90,1,open,open,-4.039856,6.938315,69.07372,0.944458,1332.092,yes,yes,wyeth503,inperson,1,1,0.942307692307692,0.912621359223301
135,AllenSt,AllenSt,-90,1,open,open,-0.01358032,2.909797,-71.64355,1.44397,1335.146,yes,yes,wyeth503,inperson,1,1,0.942307692307692,0.912621359223301
136,NeutralPineEntrance,PineEntrance,-90,2,open,open,3.821207,3.398076,-78.53656,1.097046,1337.742,na,yes,wyeth503,inperson,NaN,1,0.857142857142857,0.912621359223301
138,Maynard,Maynard,90,1,closed,closed,-0.4756775,8.554942,57.8016,0.9443359,1343.741,no,no,wyeth503,inperson,1,1,0.942307692307692,0.912621359223301
139,BakerBerryCharter,BakerBerryCharter,90,1,closed,closed,-0.6656189,9.580847,66.69201,0.8748779,1346.351,no,no,wyeth503,inperson,1,1,0.942307692307692,0.912621359223301
140,RaunerFirst,RaunerFirst,-90,1,closed,closed,0.9351429,5.402525,-51.70605,0.805542,1348.989,unsure,unsure,wyeth503,inperson,1,1,0.942307692307692,0.912621359223301
141,PineEntrance,PineEntrance_mirror,-90,3,open,open,0.04977131,2.836468,-77.15372,1.458008,1352.293,yes,yes,wyeth503,inperson,1,NaN,0.91304347826087,0.912621359223301
142,BakerBerryHistoric2,BakerBerryHistoric2,-90,1,closed,closed,-0.4720764,3.987174,-73.83121,1.096924,1354.862,no,no,wyeth503,inperson,1,1,0.942307692307692,0.912621359223301
1,BakerBerry2nd,BakerBerry2nd,-90,1,closed,closed,9.522717,3.864906,-75.12646,1.991089,608.7067,yes,yes,wyeth504,inperson,1,1,0.91044776119403,0.886363636363636
2,NeutralZimmerman,Zimmerman,90,2,open,open,-5.857788,2.422319,84.23598,1.37854,614.7416,na,yes,wyeth504,inperson,NaN,1,0.828571428571429,0.886363636363636
3,BakerBerryHistoric2,BakerBerryHistoric2,90,1,open,open,-5.901276,2.586544,83.73031,1.712769,619.6702,unsure,unsure,wyeth504,inperson,NaN,NaN,0.91044776119403,0.886363636363636
4,Fairbanks,Fairbanks_mirror,-90,3,open,open,11.36316,-0.7182922,-74.9104,1.381531,623.0841,yes,yes,wyeth504,inperson,1,NaN,0.9,0.886363636363636
5,Umplebys,Umplebys,90,1,closed,closed,-5.093689,3.161938,88.82016,1.42041,626.2308,yes,yes,wyeth504,inperson,NaN,NaN,0.91044776119403,0.886363636363636
6,NeutralMooreLot,MooreLot,90,2,open,open,-4.767517,2.915295,84.22592,1.462097,631.487,na,yes,wyeth504,inperson,NaN,1,0.828571428571429,0.886363636363636
8,Zimmerman,Zimmerman_mirror,90,3,open,open,-6.409882,3.237727,87.20132,1.378235,638.6429,yes,yes,wyeth504,inperson,1,NaN,0.9,0.886363636363636
9,Maynard,Maynard_mirror,90,3,closed,closed,-6.461456,2.125054,85.25708,1.331665,641.673,yes,yes,wyeth504,inperson,NaN,NaN,0.9,0.886363636363636
10,RollinsChapel3,RollinsChapel3,90,1,closed,closed,-4.168762,4.103559,81.86217,1.629211,645.2651,yes,yes,wyeth504,inperson,1,1,0.91044776119403,0.886363636363636
13,NeutralFairbanks,Fairbanks,-90,2,open,open,10.92283,2.694782,-79.67352,1.838074,655.2742,na,yes,wyeth504,inperson,NaN,1,0.828571428571429,0.886363636363636
14,PineBackHall,PineBackHall,90,1,closed,closed,-5.037445,4.350132,82.48736,1.016418,657.627,yes,yes,wyeth504,inperson,1,1,0.91044776119403,0.886363636363636
15,RaunerFirst,RaunerFirst,90,1,open,open,-5.571686,5.47717,83.53835,1.294983,660.6482,yes,yes,wyeth504,inperson,1,1,0.91044776119403,0.886363636363636
16,Hop2,Hop2,-90,1,closed,closed,10.08489,3.422688,-81.93341,1.517578,663.53,yes,yes,wyeth504,inperson,1,1,0.91044776119403,0.886363636363636
17,Maynard,Maynard,-90,1,open,open,10.4211,3.088807,-79.51016,1.099915,666.3145,yes,yes,wyeth504,inperson,NaN,NaN,0.91044776119403,0.886363636363636
18,NeutralBakerBerryCharter,BakerBerryCharter,90,2,closed,closed,-3.15506,4.827854,84.71314,1.294861,669.0012,na,yes,wyeth504,inperson,NaN,NaN,0.828571428571429,0.886363636363636
19,Hop4,Hop4,-90,1,open,open,9.787122,2.921339,-78.84793,0.9190063,671.4374,yes,yes,wyeth504,inperson,NaN,NaN,0.91044776119403,0.886363636363636
21,NeutralHop4,Hop4,90,2,closed,closed,-4.114929,3.570266,81.0001,1.5177,677.1932,na,yes,wyeth504,inperson,NaN,NaN,0.828571428571429,0.886363636363636
22,NeutralPineEntrance,PineEntrance,90,2,closed,closed,-5.187286,3.469503,83.37813,1.15564,679.837,na,yes,wyeth504,inperson,NaN,1,0.828571428571429,0.886363636363636
23,Umplebys,Umplebys,90,1,closed,closed,-6.736511,0.7805229,77.62686,0.8911133,682.0229,yes,yes,wyeth504,inperson,NaN,NaN,0.91044776119403,0.886363636363636
25,53Commons,53Commons,90,1,open,open,-5.141083,2.428439,77.77857,1.322815,688.2323,yes,yes,wyeth504,inperson,NaN,NaN,0.91044776119403,0.886363636363636
26,BakerBerryCharter,BakerBerryCharter_mirror,90,3,closed,closed,-4.764923,3.082186,77.57606,1.05481,690.9994,yes,yes,wyeth504,inperson,NaN,NaN,0.9,0.886363636363636
27,PineEntrance,PineEntrance_mirror,90,3,closed,closed,-7.872467,1.205852,72.92463,0.5961914,693.28,yes,yes,wyeth504,inperson,1,NaN,0.9,0.886363636363636
28,NeutralAllenSt,AllenSt,-90,2,open,open,9.874138,0.5946167,-70.48898,1.392395,696.1787,na,yes,wyeth504,inperson,NaN,NaN,0.828571428571429,0.886363636363636
29,RaunerFirst,RaunerFirst,90,1,open,open,-4.113739,3.440311,73.01818,0.8493652,698.4481,yes,yes,wyeth504,inperson,1,1,0.91044776119403,0.886363636363636
32,MooreLot,MooreLot,-90,1,closed,closed,9.891002,2.219935,-75.9505,1.113953,707.7648,yes,yes,wyeth504,inperson,1,1,0.91044776119403,0.886363636363636
34,RaunerBackHall,RaunerBackHall,-90,1,closed,closed,10.40251,0.7647038,-71.8259,0.9605713,712.6042,yes,yes,wyeth504,inperson,1,1,0.91044776119403,0.886363636363636
35,McLaughlinCluster,McLaughlinCluster_mirror,-90,3,closed,closed,10.21948,-2.455536,-81.40613,1.923706,746.0342,yes,yes,wyeth504,inperson,NaN,NaN,0.9,0.886363636363636
36,NeutralRaunerBackHall,RaunerBackHall,90,2,open,open,-4.300934,2.900861,84.03019,1.155945,748.8915,na,yes,wyeth504,inperson,NaN,1,0.828571428571429,0.886363636363636
37,BakerBerryHistoric2,BakerBerryHistoric2_mirror,-90,3,closed,closed,10.61109,1.943941,-80.18359,1.345093,752.0187,unsure,unsure,wyeth504,inperson,NaN,NaN,0.9,0.886363636363636
38,MooreLot,MooreLot_mirror,90,3,open,open,-5.519623,0.2859703,77.16196,1.726074,755.6102,yes,yes,wyeth504,inperson,1,NaN,0.9,0.886363636363636
39,BakerBerryHistoric2,BakerBerryHistoric2,90,1,open,open,-7.643402,2.344575,77.20586,1.169739,758.3668,unsure,unsure,wyeth504,inperson,NaN,NaN,0.91044776119403,0.886363636363636
40,BakerBerryCharter,BakerBerryCharter,-90,1,open,open,10.08287,0.1981331,-71.10086,1.044373,760.9843,yes,yes,wyeth504,inperson,NaN,NaN,0.91044776119403,0.886363636363636
41,RollinsChapel3,RollinsChapel3,90,1,closed,closed,-5.393188,4.737569,74.09879,1.12793,763.365,yes,yes,wyeth504,inperson,1,1,0.91044776119403,0.886363636363636
42,BakerBerry2nd,BakerBerry2nd,-90,1,closed,closed,10.0721,-0.2398376,-66.8869,0.8494873,765.6483,yes,yes,wyeth504,inperson,1,1,0.91044776119403,0.886363636363636
43,53Commons,53Commons,90,1,open,open,-4.034943,2.403165,66.3536,0.8353882,767.9175,yes,yes,wyeth504,inperson,NaN,NaN,0.91044776119403,0.886363636363636
44,NeutralRaunerFirst,RaunerFirst,-90,2,closed,closed,8.255474,1.123755,-71.27005,1.197693,770.5161,na,yes,wyeth504,inperson,NaN,1,0.828571428571429,0.886363636363636
45,BakerBerry2nd,BakerBerry2nd_mirror,90,3,open,open,-4.497009,3.611015,75.11315,1.045105,772.8698,yes,yes,wyeth504,inperson,1,NaN,0.9,0.886363636363636
47,Zimmerman,Zimmerman,-90,1,closed,closed,9.509729,0.7462803,-72.87933,1.239197,778.5474,yes,yes,wyeth504,inperson,1,1,0.91044776119403,0.886363636363636
49,PineBackHall,PineBackHall,90,1,closed,closed,-3.095154,3.506215,69.13658,1.824036,788.8793,yes,yes,wyeth504,inperson,1,1,0.91044776119403,0.886363636363636
50,RaunerBackHall,RaunerBackHall_mirror,90,3,open,open,-4.011108,3.430168,75.00121,1.483154,791.8241,yes,yes,wyeth504,inperson,1,NaN,0.9,0.886363636363636
51,PineEntrance,PineEntrance,-90,1,open,open,9.292107,2.504521,-75.39047,1.559387,795.2631,yes,yes,wyeth504,inperson,1,1,0.91044776119403,0.886363636363636
52,NeutralMcLaughlinCluster,McLaughlinCluster,-90,2,closed,closed,7.848371,1.759237,-72.19086,1.823975,798.6932,na,yes,wyeth504,inperson,NaN,NaN,0.828571428571429,0.886363636363636
53,BakerBerryCharter,BakerBerryCharter,-90,1,open,open,10.57895,2.911577,-74.6944,1.350525,801.5474,yes,yes,wyeth504,inperson,NaN,NaN,0.91044776119403,0.886363636363636
55,Hop4,Hop4,-90,1,open,open,10.45004,1.722047,-70.46548,1.281067,807.6398,yes,yes,wyeth504,inperson,NaN,NaN,0.91044776119403,0.886363636363636
56,PineBackHall,PineBackHall_mirror,-90,3,open,open,5.948879,11.79945,-71.26254,2.303772,811.1687,yes,yes,wyeth504,inperson,1,NaN,0.9,0.886363636363636
58,AllenSt,AllenSt,90,1,closed,closed,-5.476349,6.566732,72.62771,1.475769,817.8544,yes,yes,wyeth504,inperson,NaN,NaN,0.91044776119403,0.886363636363636
59,NeutralHop2,Hop2,90,2,open,open,-6.484894,5.387087,74.03175,1.44812,821.1185,na,yes,wyeth504,inperson,NaN,1,0.828571428571429,0.886363636363636
60,RaunerBackHall,RaunerBackHall,-90,1,closed,closed,11.19958,3.331183,-73.47479,1.280945,824.5576,yes,yes,wyeth504,inperson,1,1,0.91044776119403,0.886363636363636
61,NeutralBakerBerry2nd,BakerBerry2nd,90,2,open,open,-6.678894,3.648577,73.80463,1.308899,827.4105,na,yes,wyeth504,inperson,NaN,1,0.828571428571429,0.886363636363636
63,McLaughlinCluster,McLaughlinCluster,90,1,open,open,-4.303497,3.771167,73.1945,1.587341,833.9267,yes,yes,wyeth504,inperson,NaN,NaN,0.91044776119403,0.886363636363636
66,MooreLot,MooreLot,-90,1,closed,closed,8.802182,0.2549629,-67.49554,1.239197,843.1433,yes,yes,wyeth504,inperson,1,1,0.91044776119403,0.886363636363636
68,RaunerFirst,RaunerFirst_mirror,-90,3,closed,closed,11.41872,3.857589,-68.13898,1.192505,850.5888,yes,yes,wyeth504,inperson,1,NaN,0.9,0.886363636363636
69,PineEntrance,PineEntrance,-90,1,open,open,10.05628,2.794153,-74.54745,1.127869,852.9556,yes,yes,wyeth504,inperson,1,1,0.91044776119403,0.886363636363636
70,Maynard,Maynard,-90,1,open,open,10.53862,3.689881,-71.86963,0.9605103,855.2666,yes,yes,wyeth504,inperson,NaN,NaN,0.91044776119403,0.886363636363636
71,NeutralBakerBerryHistoric2,BakerBerryHistoric2,-90,2,closed,closed,8.054952,4.874629,-71.97079,1.726501,871.9979,na,unsure,wyeth504,inperson,NaN,NaN,0.828571428571429,0.886363636363636
72,Umplebys,Umplebys_mirror,-90,3,open,open,8.114893,3.111951,-71.91272,1.181396,874.6551,yes,yes,wyeth504,inperson,NaN,NaN,0.9,0.886363636363636
74,RollinsChapel3,RollinsChapel3,-90,1,open,open,7.821197,1.892338,-63.30212,0.9329224,881.338,yes,yes,wyeth504,inperson,1,1,0.91044776119403,0.886363636363636
75,AllenSt,AllenSt,-90,1,open,open,9.177501,1.761024,-65.51523,0.9476318,883.6359,yes,yes,wyeth504,inperson,NaN,NaN,0.91044776119403,0.886363636363636
76,PineBackHall,PineBackHall,-90,1,open,open,10.5705,5.868461,-75.86041,1.239136,886.2942,yes,yes,wyeth504,inperson,1,1,0.91044776119403,0.886363636363636
77,BakerBerryCharter,BakerBerryCharter_mirror,-90,3,open,open,8.727771,3.805391,-67.2771,1.169495,888.9951,yes,yes,wyeth504,inperson,NaN,NaN,0.9,0.886363636363636
78,Zimmerman,Zimmerman,90,1,open,open,-5.330231,6.187043,75.12028,1.921509,892.434,yes,yes,wyeth504,inperson,1,1,0.91044776119403,0.886363636363636
80,NeutralPineBackHall,PineBackHall,90,2,closed,closed,-5.767731,6.805538,74.93546,1.15564,899.785,na,yes,wyeth504,inperson,NaN,1,0.828571428571429,0.886363636363636
81,NeutralRaunerBackHall,RaunerBackHall,-90,2,closed,closed,9.473199,2.333186,-60.13132,0.8633423,901.8455,na,yes,wyeth504,inperson,NaN,1,0.828571428571429,0.886363636363636
82,RollinsChapel3,RollinsChapel3_mirror,90,3,closed,closed,-4.782471,3.537904,68.36449,1.113892,904.087,yes,yes,wyeth504,inperson,1,NaN,0.9,0.886363636363636
83,NeutralBakerBerryCharter,BakerBerryCharter,-90,2,open,open,9.572975,2.183703,-65.81915,1.322876,907.3726,na,yes,wyeth504,inperson,NaN,NaN,0.828571428571429,0.886363636363636
84,McLaughlinCluster,McLaughlinCluster,-90,1,closed,closed,8.496833,1.3599,-62.93622,1.211243,910.0317,yes,yes,wyeth504,inperson,NaN,NaN,0.91044776119403,0.886363636363636
85,Maynard,Maynard_mirror,-90,3,open,open,9.441444,1.372443,-64.16315,1.266968,912.6213,yes,yes,wyeth504,inperson,NaN,NaN,0.9,0.886363636363636
86,Fairbanks,Fairbanks_mirror,90,3,closed,closed,-5.739441,3.885675,68.97939,1.308838,915.4058,yes,yes,wyeth504,inperson,1,NaN,0.9,0.886363636363636
88,Fairbanks,Fairbanks,-90,1,open,open,10.64168,-1.246704,-64.91144,1.072144,920.9468,yes,yes,wyeth504,inperson,1,1,0.91044776119403,0.886363636363636
89,BakerBerry2nd,BakerBerry2nd,90,1,open,open,-6.661041,4.588692,70.58536,1.016479,923.439,yes,yes,wyeth504,inperson,1,1,0.91044776119403,0.886363636363636
90,RaunerBackHall,RaunerBackHall_mirror,-90,3,closed,closed,9.814325,0.2482636,-61.89676,1.211426,926.0284,yes,yes,wyeth504,inperson,1,NaN,0.9,0.886363636363636
91,Maynard,Maynard,90,1,closed,closed,-6.378326,4.127931,69.65975,1.629028,929.1055,yes,yes,wyeth504,inperson,NaN,NaN,0.91044776119403,0.886363636363636
92,RaunerBackHall,RaunerBackHall,90,1,open,open,-5.606628,4.384969,71.71232,1.406189,931.7784,yes,yes,wyeth504,inperson,1,1,0.91044776119403,0.886363636363636
94,Umplebys,Umplebys,-90,1,open,open,10.11229,-0.3054199,-62.67172,1.25293,937.2498,yes,yes,wyeth504,inperson,NaN,NaN,0.91044776119403,0.886363636363636
96,PineEntrance,PineEntrance,90,1,closed,closed,-7.122711,3.574966,66.66923,0.9880371,942.7631,yes,yes,wyeth504,inperson,1,1,0.91044776119403,0.886363636363636
97,NeutralZimmerman,Zimmerman,-90,2,closed,closed,9.726942,1.225544,-67.91589,1.211243,945.283,na,yes,wyeth504,inperson,NaN,1,0.828571428571429,0.886363636363636
98,53Commons,53Commons_mirror,90,3,open,open,-4.882904,4.358532,73.30461,1.322449,947.9143,yes,yes,wyeth504,inperson,NaN,NaN,0.9,0.886363636363636
100,BakerBerryHistoric2,BakerBerryHistoric2,-90,1,closed,closed,12.1234,0.2280043,-64.01855,1.058289,953.7201,unsure,unsure,wyeth504,inperson,NaN,NaN,0.91044776119403,0.886363636363636
101,PineBackHall,PineBackHall,-90,1,open,open,12.31685,3.304819,-70.63373,1.350586,956.6019,yes,yes,wyeth504,inperson,1,1,0.91044776119403,0.886363636363636
102,PineEntrance,PineEntrance,90,1,closed,closed,-5.179749,3.832832,63.38725,1.517639,959.5256,yes,yes,wyeth504,inperson,1,1,0.91044776119403,0.886363636363636
103,MooreLot,MooreLot,90,1,open,open,-5.070801,4.761174,71.24368,1.378418,962.1848,yes,yes,wyeth504,inperson,1,1,0.91044776119403,0.886363636363636
104,Neutral53Commons,53Commons,90,2,open,open,-5.825684,3.667128,67.38094,1.615295,966.2363,na,yes,wyeth504,inperson,NaN,NaN,0.828571428571429,0.886363636363636
105,McLaughlinCluster,McLaughlinCluster,-90,1,closed,closed,10.934,-4.039093,-60.51569,1.211365,969.3826,yes,yes,wyeth504,inperson,NaN,NaN,0.91044776119403,0.886363636363636
106,53Commons,53Commons,-90,1,closed,closed,11.05995,-3.490295,-64.86679,1.503784,972.1531,yes,yes,wyeth504,inperson,NaN,NaN,0.91044776119403,0.886363636363636
107,Hop2,Hop2_mirror,-90,3,closed,closed,10.51864,0.1749479,-67.17554,1.099976,997.5057,yes,yes,wyeth504,inperson,1,NaN,0.9,0.886363636363636
108,BakerBerry2nd,BakerBerry2nd_mirror,-90,3,closed,closed,9.045345,0.9111618,-62.47736,1.072083,1001.696,yes,yes,wyeth504,inperson,1,NaN,0.9,0.886363636363636
109,NeutralHop2,Hop2,-90,2,closed,closed,9.827778,0.6172835,-62.64478,1.169556,1004.133,na,yes,wyeth504,inperson,NaN,1,0.828571428571429,0.886363636363636
110,NeutralHop4,Hop4,-90,2,open,open,10.09218,1.124959,-63.48868,1.211548,1006.764,na,yes,wyeth504,inperson,NaN,NaN,0.828571428571429,0.886363636363636
111,NeutralMaynard,Maynard,-90,2,open,open,9.449448,1.003888,-64.94934,1.211304,1009.367,na,yes,wyeth504,inperson,NaN,NaN,0.828571428571429,0.886363636363636
113,AllenSt,AllenSt_mirror,90,3,closed,closed,-6.029907,2.640002,73.65845,1.239197,1014.742,yes,yes,wyeth504,inperson,NaN,NaN,0.9,0.886363636363636
114,RaunerFirst,RaunerFirst,-90,1,closed,closed,10.59565,-3.36734,-58.39343,0.9887695,1017.136,yes,yes,wyeth504,inperson,1,1,0.91044776119403,0.886363636363636
116,MooreLot,MooreLot,90,1,open,open,-7.037323,2.921812,67.09735,1.531433,1023.053,yes,yes,wyeth504,inperson,1,1,0.91044776119403,0.886363636363636
117,RaunerFirst,RaunerFirst_mirror,90,3,open,open,-8.154755,5.836321,74.53545,1.893555,1026.269,yes,yes,wyeth504,inperson,1,NaN,0.9,0.886363636363636
118,NeutralAllenSt,AllenSt,90,2,closed,closed,-5.279663,1.751074,64.91079,1.169434,1029.861,na,yes,wyeth504,inperson,NaN,NaN,0.828571428571429,0.886363636363636
119,NeutralBakerBerry2nd,BakerBerry2nd,-90,2,closed,closed,11.42524,0.07570456,-71.05801,1.15564,1032.158,na,yes,wyeth504,inperson,NaN,1,0.828571428571429,0.886363636363636
120,BakerBerryCharter,BakerBerryCharter,90,1,closed,closed,-7.76059,3.453624,58.82313,0.9747314,1035.193,yes,yes,wyeth504,inperson,NaN,NaN,0.91044776119403,0.886363636363636
121,Hop4,Hop4_mirror,-90,3,open,open,9.980745,7.283634,-76.95218,1.447754,1037.852,yes,yes,wyeth504,inperson,NaN,NaN,0.9,0.886363636363636
122,NeutralRaunerFirst,RaunerFirst,90,2,open,open,-7.0466,5.818245,66.46759,1.281006,1041.138,na,yes,wyeth504,inperson,NaN,1,0.828571428571429,0.886363636363636
123,Hop2,Hop2,90,1,open,open,-4.386047,2.615119,62.73716,1.420044,1044.062,yes,yes,wyeth504,inperson,1,1,0.91044776119403,0.886363636363636
124,Zimmerman,Zimmerman,90,1,open,open,-6.734589,4.761857,65.5265,1.768188,1047.097,yes,yes,wyeth504,inperson,1,1,0.91044776119403,0.886363636363636
125,RollinsChapel3,RollinsChapel3,-90,1,open,open,10.094,-0.1487427,-62.65631,1.155762,1049.937,yes,yes,wyeth504,inperson,1,1,0.91044776119403,0.886363636363636
126,PineBackHall,PineBackHall_mirror,90,3,closed,closed,-5.523773,3.532599,58.02919,0.7797852,1051.97,yes,yes,wyeth504,inperson,1,NaN,0.9,0.886363636363636
128,NeutralFairbanks,Fairbanks,90,2,closed,closed,-5.785522,5.447374,72.51498,1.336548,1058.082,na,yes,wyeth504,inperson,NaN,1,0.828571428571429,0.886363636363636
129,Umplebys,Umplebys,-90,1,open,open,9.060152,1.320759,-62.58887,1.030396,1060.643,yes,yes,wyeth504,inperson,NaN,NaN,0.91044776119403,0.886363636363636
130,NeutralMooreLot,MooreLot,-90,2,closed,closed,8.642396,2.419505,-66.82861,1.099854,1062.996,na,yes,wyeth504,inperson,NaN,1,0.828571428571429,0.886363636363636
131,NeutralBakerBerryHistoric2,BakerBerryHistoric2,90,2,open,open,-3.420319,7.832366,78.43705,1.378296,1065.683,na,unsure,wyeth504,inperson,NaN,NaN,0.828571428571429,0.886363636363636
132,Fairbanks,Fairbanks,-90,1,open,open,11.33922,0.05267357,-63.52301,0.9606934,1068.12,yes,yes,wyeth504,inperson,1,1,0.91044776119403,0.886363636363636
133,53Commons,53Commons,-90,1,closed,closed,9.137507,-0.4230347,-55.89893,0.9049072,1070.347,yes,yes,wyeth504,inperson,NaN,NaN,0.91044776119403,0.886363636363636
134,Hop2,Hop2,90,1,open,open,-5.796295,4.734653,70.83443,1.002441,1072.575,yes,yes,wyeth504,inperson,1,1,0.91044776119403,0.886363636363636
135,AllenSt,AllenSt,-90,1,open,open,8.826322,1.163389,-62.43741,0.9747314,1074.942,yes,yes,wyeth504,inperson,NaN,NaN,0.91044776119403,0.886363636363636
136,NeutralPineEntrance,PineEntrance,-90,2,open,open,8.821586,2.36092,-68.60239,1.183472,1077.517,na,yes,wyeth504,inperson,NaN,1,0.828571428571429,0.886363636363636
137,NeutralRollinsChapel3,RollinsChapel3,90,2,closed,closed,-4.238617,7.934794,74.61749,1.58728,1080.678,na,yes,wyeth504,inperson,NaN,1,0.828571428571429,0.886363636363636
138,Maynard,Maynard,90,1,closed,closed,-4.932739,4.621724,67.94611,1.015991,1083.128,yes,yes,wyeth504,inperson,NaN,NaN,0.91044776119403,0.886363636363636
139,BakerBerryCharter,BakerBerryCharter,90,1,closed,closed,-4.132751,3.693624,52.66804,0.9468994,1085.397,yes,yes,wyeth504,inperson,NaN,NaN,0.91044776119403,0.886363636363636
141,PineEntrance,PineEntrance_mirror,-90,3,open,open,8.026534,2.138554,-58.65515,1.05835,1090.646,yes,yes,wyeth504,inperson,1,NaN,0.9,0.886363636363636
142,BakerBerryHistoric2,BakerBerryHistoric2,-90,1,closed,closed,8.562743,1.365071,-54.77478,1.030396,1092.943,unsure,unsure,wyeth504,inperson,NaN,NaN,0.91044776119403,0.886363636363636
144,Zimmerman,Zimmerman_mirror,-90,3,closed,closed,9.712801,3.689544,-67.23016,1.225098,1098.387,yes,yes,wyeth504,inperson,1,NaN,0.9,0.886363636363636
1,BakerBerry2nd,BakerBerry2nd,-90,1,closed,closed,4.604836,4.065612,-97.23404,1.448059,740.4823,yes,yes,wyeth512,inperson,1,1,0.819672131147541,0.850393700787402
2,NeutralZimmerman,Zimmerman,90,2,open,open,-1.382843,-0.02484131,83.70038,1.54541,746.8096,na,unsure,wyeth512,inperson,NaN,0.666666666666667,0.878787878787879,0.850393700787402
3,BakerBerryHistoric2,BakerBerryHistoric2,90,1,open,open,-2.381775,5.695224,94.58537,1.364502,754.0075,no,no,wyeth512,inperson,1,1,0.819672131147541,0.850393700787402
4,Fairbanks,Fairbanks_mirror,-90,3,open,open,2.642911,4.566133,-79.77594,1.565552,758.4129,unsure,unsure,wyeth512,inperson,0.333333333333333,NaN,0.878787878787879,0.850393700787402
5,Umplebys,Umplebys,90,1,closed,closed,-0.9292908,2.735366,99.34495,1.267151,762.6035,no,no,wyeth512,inperson,1,1,0.819672131147541,0.850393700787402
8,Zimmerman,Zimmerman_mirror,90,3,open,open,-0.2989807,4.978481,88.54493,1.351074,774.9194,unsure,unsure,wyeth512,inperson,0.666666666666667,NaN,0.878787878787879,0.850393700787402
9,Maynard,Maynard_mirror,90,3,closed,closed,-0.6730042,9.890156,88.65464,1.180786,778.0354,yes,yes,wyeth512,inperson,0.666666666666667,NaN,0.878787878787879,0.850393700787402
10,RollinsChapel3,RollinsChapel3,90,1,closed,closed,1.687186,7.596374,79.08333,1.336243,781.3072,yes,yes,wyeth512,inperson,1,1,0.819672131147541,0.850393700787402
13,NeutralFairbanks,Fairbanks,-90,2,open,open,4.521813,5.000886,-65.21954,1.197571,790.7458,na,unsure,wyeth512,inperson,NaN,0.333333333333333,0.878787878787879,0.850393700787402
15,RaunerFirst,RaunerFirst,90,1,open,open,-1.597992,8.731055,80.90017,1.392334,799.3636,yes,yes,wyeth512,inperson,1,1,0.819672131147541,0.850393700787402
16,Hop2,Hop2,-90,1,closed,closed,5.466111,9.008609,-84.09644,1.19751,802.7747,yes,yes,wyeth512,inperson,1,1,0.819672131147541,0.850393700787402
17,Maynard,Maynard,-90,1,open,open,5.551108,5.225525,-86.40533,1.322693,805.8376,yes,yes,wyeth512,inperson,0.666666666666667,0.666666666666667,0.819672131147541,0.850393700787402
18,NeutralBakerBerryCharter,BakerBerryCharter,90,2,closed,closed,-0.723114,6.291957,79.54526,1.392456,808.8866,na,yes,wyeth512,inperson,NaN,0.666666666666667,0.878787878787879,0.850393700787402
19,Hop4,Hop4,-90,1,open,open,6.049577,6.068755,-80.80054,0.9888306,811.4484,yes,yes,wyeth512,inperson,1,1,0.819672131147541,0.850393700787402
20,Hop2,Hop2,-90,1,closed,closed,7.180231,6.858426,-83.68054,0.9885254,814.6087,yes,yes,wyeth512,inperson,1,1,0.819672131147541,0.850393700787402
21,NeutralHop4,Hop4,90,2,closed,closed,-1.8526,6.285595,88.12006,1.072021,817.4108,na,yes,wyeth512,inperson,NaN,1,0.878787878787879,0.850393700787402
22,NeutralPineEntrance,PineEntrance,90,2,closed,closed,-2.38858,8.501851,90.48748,1.197388,820.2734,na,no,wyeth512,inperson,NaN,1,0.878787878787879,0.850393700787402
24,AllenSt,AllenSt,90,1,closed,closed,-0.9121704,3.049033,80.68929,1.183838,826.2327,unsure,unsure,wyeth512,inperson,0.666666666666667,0.666666666666667,0.819672131147541,0.850393700787402
25,53Commons,53Commons,90,1,open,open,-0.1529236,1.580671,88.68538,1.127869,828.7384,yes,yes,wyeth512,inperson,0.666666666666667,0.666666666666667,0.819672131147541,0.850393700787402
26,BakerBerryCharter,BakerBerryCharter_mirror,90,3,closed,closed,-4.272522,-0.2373657,89.64675,0.9298096,831.3945,yes,yes,wyeth512,inperson,0.666666666666667,NaN,0.878787878787879,0.850393700787402
27,PineEntrance,PineEntrance_mirror,90,3,closed,closed,-1.120819,5.304709,94.87607,1.043091,834.1221,no,no,wyeth512,inperson,1,NaN,0.878787878787879,0.850393700787402
29,RaunerFirst,RaunerFirst,90,1,open,open,-2.290863,1.014355,82.66174,1.072083,840.4183,yes,yes,wyeth512,inperson,1,1,0.819672131147541,0.850393700787402
30,NeutralMaynard,Maynard,90,2,closed,closed,-1.131287,3.378872,84.58632,1.225525,843.2438,na,yes,wyeth512,inperson,NaN,0.666666666666667,0.878787878787879,0.850393700787402
31,NeutralPineBackHall,PineBackHall,-90,2,open,open,4.626581,7.377481,-92.90811,1.266968,846.0455,na,unsure,wyeth512,inperson,NaN,1,0.878787878787879,0.850393700787402
32,MooreLot,MooreLot,-90,1,closed,closed,4.266998,12.0578,-85.42514,1.058289,848.4542,no,no,wyeth512,inperson,0.333333333333333,0.333333333333333,0.819672131147541,0.850393700787402
33,AllenSt,AllenSt_mirror,-90,3,open,open,7.283258,4.674139,-85.24646,1.12384,851.2206,unsure,unsure,wyeth512,inperson,0.666666666666667,NaN,0.878787878787879,0.850393700787402
34,RaunerBackHall,RaunerBackHall,-90,1,closed,closed,7.718445,4.738719,-82.51181,0.9884033,853.7685,yes,yes,wyeth512,inperson,1,1,0.819672131147541,0.850393700787402
35,McLaughlinCluster,McLaughlinCluster_mirror,-90,3,closed,closed,5.824715,-2.312592,-70.22302,1.10199,872.7186,yes,yes,wyeth512,inperson,1,NaN,0.878787878787879,0.850393700787402
36,NeutralRaunerBackHall,RaunerBackHall,90,2,open,open,-2.084564,0.07976074,84.74278,1.253418,875.4705,na,yes,wyeth512,inperson,NaN,1,0.878787878787879,0.850393700787402
37,BakerBerryHistoric2,BakerBerryHistoric2_mirror,-90,3,closed,closed,10.04796,5.693791,-86.97028,0.9694824,878.0685,no,no,wyeth512,inperson,1,NaN,0.878787878787879,0.850393700787402
40,BakerBerryCharter,BakerBerryCharter,-90,1,open,open,4.483358,3.783174,-81.58646,1.267029,887.8848,yes,yes,wyeth512,inperson,0.666666666666667,0.666666666666667,0.819672131147541,0.850393700787402
41,RollinsChapel3,RollinsChapel3,90,1,closed,closed,1.831027,9.797304,86.12946,1.281067,890.5162,yes,yes,wyeth512,inperson,1,1,0.819672131147541,0.850393700787402
42,BakerBerry2nd,BakerBerry2nd,-90,1,closed,closed,6.056549,2.819262,-88.27295,1.127686,893.1612,yes,yes,wyeth512,inperson,1,1,0.819672131147541,0.850393700787402
43,53Commons,53Commons,90,1,open,open,-2.412567,-0.6833191,90.66633,1.113892,895.7787,yes,yes,wyeth512,inperson,0.666666666666667,0.666666666666667,0.819672131147541,0.850393700787402
44,NeutralRaunerFirst,RaunerFirst,-90,2,closed,closed,4.700836,3.652117,-83.7243,1.253174,898.5965,na,yes,wyeth512,inperson,NaN,1,0.878787878787879,0.850393700787402
45,BakerBerry2nd,BakerBerry2nd_mirror,90,3,open,open,-0.922699,0.222343,89.74352,1.183228,901.3257,yes,yes,wyeth512,inperson,1,NaN,0.878787878787879,0.850393700787402
48,RollinsChapel3,RollinsChapel3_mirror,-90,3,open,open,8.314771,2.052899,-85.92563,1.338989,909.9948,yes,yes,wyeth512,inperson,1,NaN,0.878787878787879,0.850393700787402
49,PineBackHall,PineBackHall,90,1,closed,closed,-2.571533,1.307711,85.29779,1.11377,912.4868,unsure,unsure,wyeth512,inperson,1,1,0.819672131147541,0.850393700787402
50,RaunerBackHall,RaunerBackHall_mirror,90,3,open,open,-3.141785,-0.7961731,83.61296,0.8583984,914.8905,yes,yes,wyeth512,inperson,1,NaN,0.878787878787879,0.850393700787402
51,PineEntrance,PineEntrance,-90,1,open,open,6.761987,2.670666,-86.28351,1.058167,917.4104,no,no,wyeth512,inperson,1,1,0.819672131147541,0.850393700787402
52,NeutralMcLaughlinCluster,McLaughlinCluster,-90,2,closed,closed,4.72409,1.149254,-74.90424,1.239136,920.0079,na,yes,wyeth512,inperson,NaN,1,0.878787878787879,0.850393700787402
53,BakerBerryCharter,BakerBerryCharter,-90,1,open,open,9.192732,0.8331139,-80.90051,0.8771973,922.3192,yes,yes,wyeth512,inperson,0.666666666666667,0.666666666666667,0.819672131147541,0.850393700787402
55,Hop4,Hop4,-90,1,open,open,8.796117,1.241592,-72.09933,0.8494263,927.3237,yes,yes,wyeth512,inperson,1,1,0.819672131147541,0.850393700787402
56,PineBackHall,PineBackHall_mirror,-90,3,open,open,4.56724,2.683195,-77.10089,1.190063,929.9196,unsure,unsure,wyeth512,inperson,1,NaN,0.878787878787879,0.850393700787402
58,AllenSt,AllenSt,90,1,closed,closed,-0.1852722,-0.5342102,86.30953,1.210876,937.0927,unsure,unsure,wyeth512,inperson,0.666666666666667,0.666666666666667,0.819672131147541,0.850393700787402
59,NeutralHop2,Hop2,90,2,open,open,-1.586212,-0.2124939,79.57001,1.294861,939.84,na,yes,wyeth512,inperson,NaN,1,0.878787878787879,0.850393700787402
61,NeutralBakerBerry2nd,BakerBerry2nd,90,2,open,open,-1.011078,-1.258118,84.70605,1.211304,945.3951,na,yes,wyeth512,inperson,NaN,1,0.878787878787879,0.850393700787402
62,NeutralRollinsChapel3,RollinsChapel3,-90,2,open,open,4.357311,-0.7280884,-81.02951,1.086365,947.9602,na,yes,wyeth512,inperson,NaN,1,0.878787878787879,0.850393700787402
65,McLaughlinCluster,McLaughlinCluster,90,1,open,open,-0.2513428,2.522304,74.2813,1.615234,957.5527,yes,yes,wyeth512,inperson,1,1,0.819672131147541,0.850393700787402
66,MooreLot,MooreLot,-90,1,closed,closed,4.759268,1.982955,-67.09946,1.211609,960.4487,no,no,wyeth512,inperson,0.333333333333333,0.333333333333333,0.819672131147541,0.850393700787402
67,Hop2,Hop2_mirror,90,3,open,open,-1.810608,-1.749084,90.15147,1.116394,963.472,yes,yes,wyeth512,inperson,1,NaN,0.878787878787879,0.850393700787402
69,PineEntrance,PineEntrance,-90,1,open,open,6.509093,1.443441,-80.53543,1.072083,968.8136,no,no,wyeth512,inperson,1,1,0.819672131147541,0.850393700787402
70,Maynard,Maynard,-90,1,open,open,7.568529,-2.804352,-73.66113,1.183411,971.3893,yes,yes,wyeth512,inperson,0.666666666666667,0.666666666666667,0.819672131147541,0.850393700787402
71,NeutralBakerBerryHistoric2,BakerBerryHistoric2,-90,2,closed,closed,7.076274,-5.254211,-72.78906,1.141724,993.1454,na,no,wyeth512,inperson,NaN,1,0.878787878787879,0.850393700787402
72,Umplebys,Umplebys_mirror,-90,3,open,open,8.025486,-0.357605,-77.68738,1.197754,996.2226,no,no,wyeth512,inperson,1,NaN,0.878787878787879,0.850393700787402
73,BakerBerryHistoric2,BakerBerryHistoric2_mirror,90,3,open,open,-1.862396,0.6712877,75.49476,1.280945,999.1046,no,no,wyeth512,inperson,1,NaN,0.878787878787879,0.850393700787402
74,RollinsChapel3,RollinsChapel3,-90,1,open,open,4.858754,0.4022767,-74.63272,1.016541,1001.499,yes,yes,wyeth512,inperson,1,1,0.819672131147541,0.850393700787402
75,AllenSt,AllenSt,-90,1,open,open,8.642205,-0.7152405,-78.42258,1.085999,1004.047,unsure,unsure,wyeth512,inperson,0.666666666666667,0.666666666666667,0.819672131147541,0.850393700787402
76,PineBackHall,PineBackHall,-90,1,open,open,5.486008,3.974281,-84.40491,1.128418,1006.526,unsure,unsure,wyeth512,inperson,1,1,0.819672131147541,0.850393700787402
77,BakerBerryCharter,BakerBerryCharter_mirror,-90,3,open,open,5.887637,0.8034617,-77.24512,1.016296,1009.087,yes,yes,wyeth512,inperson,0.666666666666667,NaN,0.878787878787879,0.850393700787402
79,BakerBerry2nd,BakerBerry2nd,90,1,open,open,-1.818329,-2.601135,77.88003,0.9887085,1014.266,yes,yes,wyeth512,inperson,1,1,0.819672131147541,0.850393700787402
80,NeutralPineBackHall,PineBackHall,90,2,closed,closed,-1.284912,0.02597404,82.30196,1.211365,1016.967,na,unsure,wyeth512,inperson,NaN,1,0.878787878787879,0.850393700787402
81,NeutralRaunerBackHall,RaunerBackHall,-90,2,closed,closed,6.695418,0.6495457,-73.9436,1.127686,1019.584,na,yes,wyeth512,inperson,NaN,1,0.878787878787879,0.850393700787402
83,NeutralBakerBerryCharter,BakerBerryCharter,-90,2,open,open,7.468153,1.78826,-81.15787,1.086182,1025.432,na,yes,wyeth512,inperson,NaN,0.666666666666667,0.878787878787879,0.850393700787402
84,McLaughlinCluster,McLaughlinCluster,-90,1,closed,closed,4.748662,-1.887665,-56.54013,1.2948,1028.049,yes,yes,wyeth512,inperson,1,1,0.819672131147541,0.850393700787402
85,Maynard,Maynard_mirror,-90,3,open,open,4.79694,0.1040057,-53.6322,1.002563,1030.444,yes,yes,wyeth512,inperson,0.666666666666667,NaN,0.878787878787879,0.850393700787402
86,Fairbanks,Fairbanks_mirror,90,3,closed,closed,-3.029816,-0.3076782,75.52665,1.211304,1032.978,unsure,unsure,wyeth512,inperson,0.333333333333333,NaN,0.878787878787879,0.850393700787402
89,BakerBerry2nd,BakerBerry2nd,90,1,open,open,-4.050568,-1.770325,79.05276,0.918335,1040.37,yes,yes,wyeth512,inperson,1,1,0.819672131147541,0.850393700787402
90,RaunerBackHall,RaunerBackHall_mirror,-90,3,closed,closed,7.187111,2.471478,-68.64883,0.8911133,1042.417,yes,yes,wyeth512,inperson,1,NaN,0.878787878787879,0.850393700787402
91,Maynard,Maynard,90,1,closed,closed,-2.278992,-1.291168,75.82248,1.141846,1044.839,yes,yes,wyeth512,inperson,0.666666666666667,0.666666666666667,0.819672131147541,0.850393700787402
92,RaunerBackHall,RaunerBackHall,90,1,open,open,-2.47171,-0.0869751,81.61771,1.086304,1047.137,yes,yes,wyeth512,inperson,1,1,0.819672131147541,0.850393700787402
94,Umplebys,Umplebys,-90,1,open,open,4.490599,1.479342,-66.68924,1.085938,1052.288,no,no,wyeth512,inperson,1,1,0.819672131147541,0.850393700787402
95,MooreLot,MooreLot_mirror,-90,3,closed,closed,7.51125,1.225113,-79.19437,1.030396,1054.627,no,no,wyeth512,inperson,0.333333333333333,NaN,0.878787878787879,0.850393700787402
96,PineEntrance,PineEntrance,90,1,closed,closed,-2.374847,0.2801323,81.69566,1.072266,1057.077,no,no,wyeth512,inperson,1,1,0.819672131147541,0.850393700787402
98,53Commons,53Commons_mirror,90,3,open,open,-2.103943,-0.6539001,76.18053,1.030151,1062.019,yes,yes,wyeth512,inperson,0.666666666666667,NaN,0.878787878787879,0.850393700787402
99,RaunerBackHall,RaunerBackHall,90,1,open,open,-1.457642,0.5687206,81.95185,1.072144,1064.47,yes,yes,wyeth512,inperson,1,1,0.819672131147541,0.850393700787402
102,PineEntrance,PineEntrance,90,1,closed,closed,-3.16629,1.326868,70.82634,1.266968,1072.336,no,no,wyeth512,inperson,1,1,0.819672131147541,0.850393700787402
105,McLaughlinCluster,McLaughlinCluster,-90,1,closed,closed,3.918174,-0.0279541,-55.59265,1.281128,1080.049,yes,yes,wyeth512,inperson,1,1,0.819672131147541,0.850393700787402
107,Hop2,Hop2_mirror,-90,3,closed,closed,5.596357,-3.378845,-67.5047,0.9886475,1097.382,yes,yes,wyeth512,inperson,1,NaN,0.878787878787879,0.850393700787402
108,BakerBerry2nd,BakerBerry2nd_mirror,-90,3,closed,closed,5.909723,-0.2813416,-70.67285,1.058228,1099.693,yes,yes,wyeth512,inperson,1,NaN,0.878787878787879,0.850393700787402
109,NeutralHop2,Hop2,-90,2,closed,closed,6.023901,0.8858675,-69.0686,1.099854,1101.99,na,yes,wyeth512,inperson,NaN,1,0.878787878787879,0.850393700787402
110,NeutralHop4,Hop4,-90,2,open,open,3.878088,-0.2038879,-65.64471,0.9885254,1104.357,na,yes,wyeth512,inperson,NaN,1,0.878787878787879,0.850393700787402
111,NeutralMaynard,Maynard,-90,2,open,open,4.80179,0.01685328,-65.19238,1.183472,1106.849,na,yes,wyeth512,inperson,NaN,0.666666666666667,0.878787878787879,0.850393700787402
112,NeutralUmplebys,Umplebys,90,2,closed,closed,-0.2275696,-0.3778992,81.45966,1.19751,1109.258,na,no,wyeth512,inperson,NaN,1,0.878787878787879,0.850393700787402
113,AllenSt,AllenSt_mirror,90,3,closed,closed,-2.131195,-0.8483887,77.36179,1.113892,1111.708,unsure,unsure,wyeth512,inperson,0.666666666666667,NaN,0.878787878787879,0.850393700787402
114,RaunerFirst,RaunerFirst,-90,1,closed,closed,5.264135,0.5104657,-71.77734,1.308838,1114.395,yes,yes,wyeth512,inperson,1,1,0.819672131147541,0.850393700787402
115,McLaughlinCluster,McLaughlinCluster_mirror,90,3,open,open,-2.525757,1.547282,77.48001,1.225342,1117.027,yes,yes,wyeth512,inperson,1,NaN,0.878787878787879,0.850393700787402
117,RaunerFirst,RaunerFirst_mirror,90,3,open,open,-1.802216,2.179479,82.07111,1.378418,1122.317,yes,yes,wyeth512,inperson,1,NaN,0.878787878787879,0.850393700787402
118,NeutralAllenSt,AllenSt,90,2,closed,closed,-1.894592,1.7673,82.33907,1.016968,1124.726,na,unsure,wyeth512,inperson,NaN,0.666666666666667,0.878787878787879,0.850393700787402
119,NeutralBakerBerry2nd,BakerBerry2nd,-90,2,closed,closed,6.150869,-0.5448608,-69.69809,1.030396,1127.218,na,yes,wyeth512,inperson,NaN,1,0.878787878787879,0.850393700787402
120,BakerBerryCharter,BakerBerryCharter,90,1,closed,closed,-1.811981,-1.875031,72.1775,0.9747314,1129.529,yes,yes,wyeth512,inperson,0.666666666666667,0.666666666666667,0.819672131147541,0.850393700787402
121,Hop4,Hop4_mirror,-90,3,open,open,5.968557,-2.2612,-59.45059,0.7519531,1131.854,yes,yes,wyeth512,inperson,1,NaN,0.878787878787879,0.850393700787402
122,NeutralRaunerFirst,RaunerFirst,90,2,open,open,-1.996429,-2.289185,73.55453,1.169678,1134.624,na,yes,wyeth512,inperson,NaN,1,0.878787878787879,0.850393700787402
123,Hop2,Hop2,90,1,open,open,-2.129974,-1.546875,73.55699,0.9748535,1136.894,yes,yes,wyeth512,inperson,1,1,0.819672131147541,0.850393700787402
124,Zimmerman,Zimmerman,90,1,open,open,-2.720612,1.101027,79.35074,1.127808,1139.567,unsure,unsure,wyeth512,inperson,0.666666666666667,0.666666666666667,0.819672131147541,0.850393700787402
125,RollinsChapel3,RollinsChapel3,-90,1,open,open,5.528099,1.348675,-66.91843,1.072266,1142.003,yes,yes,wyeth512,inperson,1,1,0.819672131147541,0.850393700787402
126,PineBackHall,PineBackHall_mirror,90,3,closed,closed,-3.72049,-1.223755,71.81361,0.8076172,1144.189,unsure,unsure,wyeth512,inperson,1,NaN,0.878787878787879,0.850393700787402
128,NeutralFairbanks,Fairbanks,90,2,closed,closed,-2.766632,-1.173309,80.98338,1.267456,1149.452,na,unsure,wyeth512,inperson,NaN,0.333333333333333,0.878787878787879,0.850393700787402
129,Umplebys,Umplebys,-90,1,open,open,4.636237,-1.179932,-61.11182,0.9328613,1151.61,no,no,wyeth512,inperson,1,1,0.819672131147541,0.850393700787402
130,NeutralMooreLot,MooreLot,-90,2,closed,closed,2.368873,-1.04599,-50.67038,1.183472,1154.13,na,no,wyeth512,inperson,NaN,0.333333333333333,0.878787878787879,0.850393700787402
131,NeutralBakerBerryHistoric2,BakerBerryHistoric2,90,2,open,open,-3.06366,-0.06002808,76.80828,1.08606,1156.385,na,no,wyeth512,inperson,NaN,1,0.878787878787879,0.850393700787402
132,Fairbanks,Fairbanks,-90,1,open,open,6.643791,-1.246429,-64.7836,1.141846,1158.919,unsure,unsure,wyeth512,inperson,0.333333333333333,0.333333333333333,0.819672131147541,0.850393700787402
134,Hop2,Hop2,90,1,open,open,-4.625488,-1.051392,71.97609,0.8631592,1163.402,yes,yes,wyeth512,inperson,1,1,0.819672131147541,0.850393700787402
135,AllenSt,AllenSt,-90,1,open,open,6.504605,-0.7055054,-71.52844,1.058228,1165.782,unsure,unsure,wyeth512,inperson,0.666666666666667,0.666666666666667,0.819672131147541,0.850393700787402
136,NeutralPineEntrance,PineEntrance,-90,2,open,open,6.683457,1.80271,-71.19049,1.058228,1168.01,na,no,wyeth512,inperson,NaN,1,0.878787878787879,0.850393700787402
137,NeutralRollinsChapel3,RollinsChapel3,90,2,closed,closed,-0.2651978,0.7265691,66.32173,1.253296,1170.502,na,yes,wyeth512,inperson,NaN,1,0.878787878787879,0.850393700787402
139,BakerBerryCharter,BakerBerryCharter,90,1,closed,closed,-4.363037,-1.643921,66.81705,1.044312,1175.194,yes,yes,wyeth512,inperson,0.666666666666667,0.666666666666667,0.819672131147541,0.850393700787402
141,PineEntrance,PineEntrance_mirror,-90,3,open,open,5.142817,1.674348,-70.50961,1.225464,1180.276,no,no,wyeth512,inperson,1,NaN,0.878787878787879,0.850393700787402
1,BakerBerry2nd,BakerBerry2nd,-90,1,closed,closed,-1.931702,7.230491,-97.0831,1.527283,666.5907,yes,yes,wyeth514,inperson,1,1,0.808510638297872,0.826086956521739
2,NeutralZimmerman,Zimmerman,90,2,open,open,-3.988922,5.002638,83.91367,1.680115,673.9761,na,no,wyeth514,inperson,NaN,0.666666666666667,0.863636363636364,0.826086956521739
3,BakerBerryHistoric2,BakerBerryHistoric2,90,1,open,open,8.010755,21.29262,94.87146,1.471924,682.5013,no,no,wyeth514,inperson,0,0,0.808510638297872,0.826086956521739
4,Fairbanks,Fairbanks_mirror,-90,3,open,open,3.396192,2.031697,-105.3966,1.467651,687.2048,yes,yes,wyeth514,inperson,1,NaN,0.826086956521739,0.826086956521739
5,Umplebys,Umplebys,90,1,closed,closed,10.20757,8.948774,103.1157,1.458252,690.8149,unsure,unsure,wyeth514,inperson,0.666666666666667,0.666666666666667,0.808510638297872,0.826086956521739
9,Maynard,Maynard_mirror,90,3,closed,closed,-6.388824,7.5896,82.04751,1.222839,704.6903,no,no,wyeth514,inperson,1,NaN,0.826086956521739,0.826086956521739
10,RollinsChapel3,RollinsChapel3,90,1,closed,closed,-7.073761,8.137166,72.5642,1.610596,707.7449,yes,yes,wyeth514,inperson,1,1,0.808510638297872,0.826086956521739
13,NeutralFairbanks,Fairbanks,-90,2,open,open,0.354924,3.847833,-94.69739,1.33313,717.6471,na,yes,wyeth514,inperson,NaN,1,0.863636363636364,0.826086956521739
21,NeutralHop4,Hop4,90,2,closed,closed,15.97268,17.29695,95.09922,1.471924,748.2505,na,yes,wyeth514,inperson,NaN,0.333333333333333,0.863636363636364,0.826086956521739
23,Umplebys,Umplebys,90,1,closed,closed,4.168521,12.03165,93.99248,1.277344,756.9023,unsure,unsure,wyeth514,inperson,0.666666666666667,0.666666666666667,0.808510638297872,0.826086956521739
24,AllenSt,AllenSt,90,1,closed,closed,-3.083008,9.004917,93.80611,1.111023,759.5406,yes,yes,wyeth514,inperson,0.333333333333333,0.333333333333333,0.808510638297872,0.826086956521739
26,BakerBerryCharter,BakerBerryCharter_mirror,90,3,closed,closed,-6.857452,10.99253,82.22794,1.186035,766.0164,no,no,wyeth514,inperson,0.666666666666667,NaN,0.826086956521739,0.826086956521739
28,NeutralAllenSt,AllenSt,-90,2,open,open,-1.616455,2.558164,-88.04486,2.666077,772.8658,na,yes,wyeth514,inperson,NaN,0.333333333333333,0.863636363636364,0.826086956521739
29,RaunerFirst,RaunerFirst,90,1,open,open,-5.586029,12.46253,80.1855,1.721985,776.6981,no,no,wyeth514,inperson,0.666666666666667,0.666666666666667,0.808510638297872,0.826086956521739
32,MooreLot,MooreLot,-90,1,closed,closed,-0.3204956,6.844907,-104.89,1.124939,791.113,no,no,wyeth514,inperson,0,0,0.808510638297872,0.826086956521739
33,AllenSt,AllenSt_mirror,-90,3,open,open,-0.4575806,3.586815,-93.14801,1.28186,793.9357,yes,yes,wyeth514,inperson,0.333333333333333,NaN,0.826086956521739,0.826086956521739
35,McLaughlinCluster,McLaughlinCluster_mirror,-90,3,closed,closed,-0.7814636,-3.977783,-71.70947,1.560364,808.9918,no,no,wyeth514,inperson,0.333333333333333,NaN,0.826086956521739,0.826086956521739
40,BakerBerryCharter,BakerBerryCharter,-90,1,open,open,-5.398071,17.94972,-85.69888,1.138611,823.2626,no,no,wyeth514,inperson,0.666666666666667,0.666666666666667,0.808510638297872,0.826086956521739
42,BakerBerry2nd,BakerBerry2nd,-90,1,closed,closed,5.070512,11.57682,-65.87601,2.582581,830.3438,yes,yes,wyeth514,inperson,1,1,0.808510638297872,0.826086956521739
43,53Commons,53Commons,90,1,open,open,5.573503,7.955711,93.71979,1.292603,833.2469,yes,yes,wyeth514,inperson,0.666666666666667,0.666666666666667,0.808510638297872,0.826086956521739
47,Zimmerman,Zimmerman,-90,1,closed,closed,1.853208,3.841224,-96.44604,1.249634,856.8795,no,no,wyeth514,inperson,0.666666666666667,0.666666666666667,0.808510638297872,0.826086956521739
48,RollinsChapel3,RollinsChapel3_mirror,-90,3,open,open,2.17537,2.38967,-94.96674,1.34375,859.7781,yes,yes,wyeth514,inperson,1,NaN,0.826086956521739,0.826086956521739
50,RaunerBackHall,RaunerBackHall_mirror,90,3,open,open,-9.332245,6.297434,80.62389,1.643433,865.7674,no,no,wyeth514,inperson,0.333333333333333,NaN,0.826086956521739,0.826086956521739
51,PineEntrance,PineEntrance,-90,1,open,open,-2.324524,3.12903,-98.02411,1.346924,870.5576,yes,yes,wyeth514,inperson,1,1,0.808510638297872,0.826086956521739
53,BakerBerryCharter,BakerBerryCharter,-90,1,open,open,-0.1026611,4.654319,-84.16586,1.402588,877.0015,no,no,wyeth514,inperson,0.666666666666667,0.666666666666667,0.808510638297872,0.826086956521739
56,PineBackHall,PineBackHall_mirror,-90,3,open,open,1.876727,26.93898,-74.42419,2.364807,886.322,yes,yes,wyeth514,inperson,0.333333333333333,NaN,0.826086956521739,0.826086956521739
59,NeutralHop2,Hop2,90,2,open,open,-6.877777,1.757825,78.01464,2.249634,896.7463,na,yes,wyeth514,inperson,NaN,1,0.863636363636364,0.826086956521739
60,RaunerBackHall,RaunerBackHall,-90,1,closed,closed,-10.18353,22.10144,-90.74841,0.9859009,899.1343,no,no,wyeth514,inperson,0.333333333333333,0.333333333333333,0.808510638297872,0.826086956521739
61,NeutralBakerBerry2nd,BakerBerry2nd,90,2,open,open,-9.424774,5.366357,80.33878,1.20813,901.8886,na,yes,wyeth514,inperson,NaN,1,0.863636363636364,0.826086956521739
62,NeutralRollinsChapel3,RollinsChapel3,-90,2,open,open,-2.340973,6.075553,-76.03113,1.013794,904.2676,na,yes,wyeth514,inperson,NaN,1,0.863636363636364,0.826086956521739
63,McLaughlinCluster,McLaughlinCluster,90,1,open,open,-8.983521,14.04597,64.64913,1.041443,906.4753,no,no,wyeth514,inperson,0.333333333333333,0.333333333333333,0.808510638297872,0.826086956521739
69,PineEntrance,PineEntrance,-90,1,open,open,-0.9794617,7.818679,-88.9726,0.9719849,931.0342,yes,yes,wyeth514,inperson,1,1,0.808510638297872,0.826086956521739
70,Maynard,Maynard,-90,1,open,open,0.9267676,7.874104,-99.58298,1.444214,933.7557,no,no,wyeth514,inperson,1,1,0.808510638297872,0.826086956521739
71,NeutralBakerBerryHistoric2,BakerBerryHistoric2,-90,2,closed,closed,-7.832214,24.88634,-86.64423,1.097168,948.6558,na,no,wyeth514,inperson,NaN,0,0.863636363636364,0.826086956521739
72,Umplebys,Umplebys_mirror,-90,3,open,open,-1.159088,9.865973,-83.11777,1.091064,951.3016,unsure,unsure,wyeth514,inperson,0.666666666666667,NaN,0.826086956521739,0.826086956521739
74,RollinsChapel3,RollinsChapel3,-90,1,open,open,-1.670471,5.382882,-69.18472,0.7359619,955.8697,yes,yes,wyeth514,inperson,1,1,0.808510638297872,0.826086956521739
75,AllenSt,AllenSt,-90,1,open,open,0.2143106,7.674972,-77.95435,1.013733,957.7858,yes,yes,wyeth514,inperson,0.333333333333333,0.333333333333333,0.808510638297872,0.826086956521739
76,PineBackHall,PineBackHall,-90,1,open,open,0.3361559,9.457218,-81.1488,0.625061,959.6742,yes,yes,wyeth514,inperson,0.333333333333333,0.333333333333333,0.808510638297872,0.826086956521739
77,BakerBerryCharter,BakerBerryCharter_mirror,-90,3,open,open,-2.084534,11.09808,-77.22906,1.235962,961.9097,no,no,wyeth514,inperson,0.666666666666667,NaN,0.826086956521739,0.826086956521739
80,NeutralPineBackHall,PineBackHall,90,2,closed,closed,-7.991394,9.606223,79.70134,1.249817,970.6569,na,yes,wyeth514,inperson,NaN,0.333333333333333,0.863636363636364,0.826086956521739
81,NeutralRaunerBackHall,RaunerBackHall,-90,2,closed,closed,3.141623,11.86043,-73.38559,1.166443,972.9895,na,no,wyeth514,inperson,NaN,0.333333333333333,0.863636363636364,0.826086956521739
83,NeutralBakerBerryCharter,BakerBerryCharter,-90,2,open,open,-1.650085,16.74002,-79.49585,1.360901,978.46,na,no,wyeth514,inperson,NaN,0.666666666666667,0.863636363636364,0.826086956521739
84,McLaughlinCluster,McLaughlinCluster,-90,1,closed,closed,0.332963,3.734557,-72.08112,1.346985,981.098,no,no,wyeth514,inperson,0.333333333333333,0.333333333333333,0.808510638297872,0.826086956521739
