trialIdx,primeName,targetName,targetSide,condition,correctResponse,response,roll,pitch,yaw,rt,timestamp,familiarityPrime,familiarityTarget,subject_id,session_format,explicit_acc_scenewise_prime,explicit_acc_scenewise_target,oc_acc_by_condition,oc_acc
1,BakerBerry2nd,BakerBerry2nd,-90,1,closed,closed,-0.06384277,2.040658,-96.40994,1.141479,643.8613,yes,yes,akers608,inperson,0.666666666666667,0.666666666666667,0.907407407407407,0.942307692307692
2,NeutralZimmerman,Zimmerman,90,2,open,open,-2.700287,3.546027,88.02567,1.016663,648.7504,na,yes,akers608,inperson,NaN,0.333333333333333,1,0.942307692307692
3,BakerBerryHistoric2,BakerBerryHistoric2,90,1,open,open,-1.511597,6.154571,83.76661,1.016541,651.173,no,no,akers608,inperson,1,1,0.907407407407407,0.942307692307692
5,Umplebys,Umplebys,90,1,closed,closed,-0.2200928,4.294242,87.92146,0.8770752,657.4557,no,no,akers608,inperson,1,1,0.907407407407407,0.942307692307692
6,NeutralMooreLot,MooreLot,90,2,open,open,-3.492126,5.104971,85.43999,1.197571,660.0518,na,yes,akers608,inperson,NaN,0.666666666666667,1,0.942307692307692
9,Maynard,Maynard_mirror,90,3,closed,closed,-9.529938,2.949808,87.71706,1.218567,668.8301,unsure,unsure,akers608,inperson,0.666666666666667,NaN,0.954545454545455,0.942307692307692
11,Zimmerman,Zimmerman,-90,1,closed,closed,1.536747,3.449967,-80.24695,1.016418,674.5245,yes,yes,akers608,inperson,0.333333333333333,0.333333333333333,0.907407407407407,0.942307692307692
14,PineBackHall,PineBackHall,90,1,closed,closed,-2.995941,7.015542,89.32719,1.058289,684.526,no,no,akers608,inperson,1,1,0.907407407407407,0.942307692307692
15,RaunerFirst,RaunerFirst,90,1,open,open,-2.929657,5.61615,74.10029,1.141785,687.1991,no,no,akers608,inperson,1,1,0.907407407407407,0.942307692307692
18,NeutralBakerBerryCharter,BakerBerryCharter,90,2,closed,closed,-1.943024,5.477062,81.43313,0.90448,695.6854,na,yes,akers608,inperson,NaN,0.666666666666667,1,0.942307692307692
21,NeutralHop4,Hop4,90,2,closed,closed,-3.298584,6.503848,82.23483,0.9331665,703.371,na,no,akers608,inperson,NaN,0.666666666666667,1,0.942307692307692
22,NeutralPineEntrance,PineEntrance,90,2,closed,closed,-4.928711,5.796615,82.37384,0.9049072,705.7024,na,yes,akers608,inperson,NaN,0.666666666666667,1,0.942307692307692
23,Umplebys,Umplebys,90,1,closed,closed,-4.145508,4.197387,84.5331,1.002563,708.0415,no,no,akers608,inperson,1,1,0.907407407407407,0.942307692307692
24,AllenSt,AllenSt,90,1,closed,closed,-2.286163,4.824927,82.37013,1.447937,711.007,yes,yes,akers608,inperson,1,1,0.907407407407407,0.942307692307692
25,53Commons,53Commons,90,1,open,open,-3.557678,2.806233,84.12424,1.002808,713.5548,yes,yes,akers608,inperson,0.666666666666667,0.666666666666667,0.907407407407407,0.942307692307692
26,BakerBerryCharter,BakerBerryCharter_mirror,90,3,closed,closed,-6.270172,4.070125,86.28981,1.161316,716.2338,yes,yes,akers608,inperson,0.666666666666667,NaN,0.954545454545455,0.942307692307692
27,PineEntrance,PineEntrance_mirror,90,3,closed,closed,-7.921356,5.25163,87.62798,1.038208,718.9013,yes,yes,akers608,inperson,0.666666666666667,NaN,0.954545454545455,0.942307692307692
29,RaunerFirst,RaunerFirst,90,1,open,open,-1.944153,5.099539,75.5458,1.336548,724.371,no,no,akers608,inperson,1,1,0.907407407407407,0.942307692307692
30,NeutralMaynard,Maynard,90,2,closed,closed,0.7490719,10.74419,82.73185,1.336792,727.0626,na,unsure,akers608,inperson,NaN,0.666666666666667,1,0.942307692307692
36,NeutralRaunerBackHall,RaunerBackHall,90,2,open,open,-1.754333,5.06138,86.96458,1.141602,754.3707,na,no,akers608,inperson,NaN,0.333333333333333,1,0.942307692307692
37,BakerBerryHistoric2,BakerBerryHistoric2_mirror,-90,3,closed,closed,0.1814553,9.128854,-82.96942,1.234192,756.8718,no,no,akers608,inperson,1,NaN,0.954545454545455,0.942307692307692
38,MooreLot,MooreLot_mirror,90,3,open,open,-1.519775,4.840134,80.69312,1.044861,759.2813,yes,yes,akers608,inperson,0.666666666666667,NaN,0.954545454545455,0.942307692307692
39,BakerBerryHistoric2,BakerBerryHistoric2,90,1,open,open,-1.101624,5.812405,86.45386,1.030334,761.7592,no,no,akers608,inperson,1,1,0.907407407407407,0.942307692307692
40,BakerBerryCharter,BakerBerryCharter,-90,1,open,open,-1.126526,10.39655,-87.54865,1.253052,764.307,yes,yes,akers608,inperson,0.666666666666667,0.666666666666667,0.907407407407407,0.942307692307692
43,53Commons,53Commons,90,1,open,open,-0.161499,5.613273,88.81973,0.9885864,772.5215,yes,yes,akers608,inperson,0.666666666666667,0.666666666666667,0.907407407407407,0.942307692307692
44,NeutralRaunerFirst,RaunerFirst,-90,2,closed,closed,0.4292913,7.61737,-86.26514,1.267151,774.9839,na,no,akers608,inperson,NaN,1,1,0.942307692307692
45,BakerBerry2nd,BakerBerry2nd_mirror,90,3,open,open,-2.474579,5.70602,82.10508,1.215637,777.5082,yes,yes,akers608,inperson,0.666666666666667,NaN,0.954545454545455,0.942307692307692
47,Zimmerman,Zimmerman,-90,1,closed,closed,0.1027871,6.765119,-89.02414,1.391968,782.8071,yes,yes,akers608,inperson,0.333333333333333,0.333333333333333,0.907407407407407,0.942307692307692
49,PineBackHall,PineBackHall,90,1,closed,closed,-2.496796,5.41382,78.99405,1.294983,787.9755,no,no,akers608,inperson,1,1,0.907407407407407,0.942307692307692
51,PineEntrance,PineEntrance,-90,1,open,open,2.083943,4.085772,-77.02139,1.127869,793.3365,yes,yes,akers608,inperson,0.666666666666667,0.666666666666667,0.907407407407407,0.942307692307692
52,NeutralMcLaughlinCluster,McLaughlinCluster,-90,2,closed,closed,0.8167374,3.836229,-89.41241,1.364197,796.0325,na,yes,akers608,inperson,NaN,0.666666666666667,1,0.942307692307692
54,Neutral53Commons,53Commons,-90,2,closed,closed,1.273398,4.740019,-80.61118,1.712524,801.8594,na,yes,akers608,inperson,NaN,0.666666666666667,1,0.942307692307692
55,Hop4,Hop4,-90,1,open,open,0.6657218,5.208436,-78.5567,1.0578,804.3377,no,no,akers608,inperson,0.666666666666667,0.666666666666667,0.907407407407407,0.942307692307692
58,AllenSt,AllenSt,90,1,closed,closed,-4.737091,6.15574,71.28864,1.336609,813.7623,yes,yes,akers608,inperson,1,1,0.907407407407407,0.942307692307692
59,NeutralHop2,Hop2,90,2,open,open,-4.213867,3.682537,71.30996,1.128113,816.4235,na,no,akers608,inperson,NaN,1,1,0.942307692307692
60,RaunerBackHall,RaunerBackHall,-90,1,closed,closed,1.443855,6.097322,-81.49277,1.085754,818.8319,no,no,akers608,inperson,0.333333333333333,0.333333333333333,0.907407407407407,0.942307692307692
61,NeutralBakerBerry2nd,BakerBerry2nd,90,2,open,open,-2.296173,4.337499,74.90862,0.9886475,821.1332,na,yes,akers608,inperson,NaN,0.666666666666667,1,0.942307692307692
62,NeutralRollinsChapel3,RollinsChapel3,-90,2,open,open,2.25194,1.643912,-74.64822,1.057922,823.451,na,yes,akers608,inperson,NaN,0.666666666666667,1,0.942307692307692
63,McLaughlinCluster,McLaughlinCluster,90,1,open,open,-2.357635,6.127296,80.20084,1.03009,825.8179,yes,yes,akers608,inperson,0.666666666666667,0.666666666666667,0.907407407407407,0.942307692307692
64,Fairbanks,Fairbanks,90,1,closed,closed,-3.252869,4.542507,77.48151,1.308594,828.7555,unsure,unsure,akers608,inperson,0.666666666666667,0.666666666666667,0.907407407407407,0.942307692307692
66,MooreLot,MooreLot,-90,1,closed,closed,3.065036,5.355195,-80.17999,1.294434,836.4268,yes,yes,akers608,inperson,0.666666666666667,0.666666666666667,0.907407407407407,0.942307692307692
67,Hop2,Hop2_mirror,90,3,open,open,-1.790833,4.600928,76.317,1.05603,838.7917,no,no,akers608,inperson,1,NaN,0.954545454545455,0.942307692307692
70,Maynard,Maynard,-90,1,open,open,0.3540757,2.880029,-76.8916,1.489746,847.3935,unsure,unsure,akers608,inperson,0.666666666666667,0.666666666666667,0.907407407407407,0.942307692307692
71,NeutralBakerBerryHistoric2,BakerBerryHistoric2,-90,2,closed,closed,5.575269,5.208242,-79.54086,1.141418,856.1483,na,no,akers608,inperson,NaN,1,1,0.942307692307692
72,Umplebys,Umplebys_mirror,-90,3,open,open,1.976648,4.05556,-70.57526,0.9745483,858.5012,no,no,akers608,inperson,1,NaN,0.954545454545455,0.942307692307692
73,BakerBerryHistoric2,BakerBerryHistoric2_mirror,90,3,open,open,-2.974701,8.693427,72.81547,1.099854,861.1188,no,no,akers608,inperson,1,NaN,0.954545454545455,0.942307692307692
75,AllenSt,AllenSt,-90,1,open,open,3.658949,5.454438,-62.1225,1.545593,866.4232,yes,yes,akers608,inperson,1,1,0.907407407407407,0.942307692307692
76,PineBackHall,PineBackHall,-90,1,open,open,0.534143,2.966885,-77.90491,1.183105,868.9429,no,no,akers608,inperson,1,1,0.907407407407407,0.942307692307692
78,Zimmerman,Zimmerman,90,1,open,open,-3.163605,3.14743,75.89493,0.9047241,873.8715,yes,yes,akers608,inperson,0.333333333333333,0.333333333333333,0.907407407407407,0.942307692307692
81,NeutralRaunerBackHall,RaunerBackHall,-90,2,closed,closed,1.378454,4.10781,-66.90118,1.336731,881.2365,na,no,akers608,inperson,NaN,0.333333333333333,1,0.942307692307692
82,RollinsChapel3,RollinsChapel3_mirror,90,3,closed,closed,-4.436768,6.55923,71.09059,1.503845,884.021,yes,yes,akers608,inperson,0.666666666666667,NaN,0.954545454545455,0.942307692307692
83,NeutralBakerBerryCharter,BakerBerryCharter,-90,2,open,open,0.9401715,4.995313,-73.68887,1.11377,886.6106,na,yes,akers608,inperson,NaN,0.666666666666667,1,0.942307692307692
86,Fairbanks,Fairbanks_mirror,90,3,closed,closed,-2.528107,6.285498,72.38306,1.072144,894.7968,unsure,unsure,akers608,inperson,0.666666666666667,NaN,0.954545454545455,0.942307692307692
87,NeutralMcLaughlinCluster,McLaughlinCluster,90,2,open,open,-1.74823,6.650783,70.77904,1.11377,897.275,na,yes,akers608,inperson,NaN,0.666666666666667,1,0.942307692307692
88,Fairbanks,Fairbanks,-90,1,open,open,2.857788,1.917982,-74.32993,1.267151,899.8646,unsure,unsure,akers608,inperson,0.666666666666667,0.666666666666667,0.907407407407407,0.942307692307692
90,RaunerBackHall,RaunerBackHall_mirror,-90,3,closed,closed,4.158684,1.282052,-73.05029,1.029968,904.403,no,no,akers608,inperson,0.333333333333333,NaN,0.954545454545455,0.942307692307692
92,RaunerBackHall,RaunerBackHall,90,1,open,open,-2.485229,3.018597,77.58877,1.127808,910.4178,no,no,akers608,inperson,0.333333333333333,0.333333333333333,0.907407407407407,0.942307692307692
93,Hop4,Hop4,90,1,closed,closed,-3.856293,2.942627,80.60803,1.058472,912.7849,no,no,akers608,inperson,0.666666666666667,0.666666666666667,0.907407407407407,0.942307692307692
94,Umplebys,Umplebys,-90,1,open,open,1.609357,4.977957,-72.09018,1.225281,916.0425,no,no,akers608,inperson,1,1,0.907407407407407,0.942307692307692
96,PineEntrance,PineEntrance,90,1,closed,closed,-1.16272,3.942431,79.10699,0.862854,921.1516,yes,yes,akers608,inperson,0.666666666666667,0.666666666666667,0.907407407407407,0.942307692307692
97,NeutralZimmerman,Zimmerman,-90,2,closed,closed,2.27861,2.097954,-70.88089,1.26709,923.8806,na,yes,akers608,inperson,NaN,0.333333333333333,1,0.942307692307692
98,53Commons,53Commons_mirror,90,3,open,open,-2.574982,1.002247,70.89848,0.7941895,925.8995,yes,yes,akers608,inperson,0.666666666666667,NaN,0.954545454545455,0.942307692307692
99,RaunerBackHall,RaunerBackHall,90,1,open,open,-4.313324,3.010244,74.72466,1.433716,928.6835,no,no,akers608,inperson,0.333333333333333,0.333333333333333,0.907407407407407,0.942307692307692
100,BakerBerryHistoric2,BakerBerryHistoric2,-90,1,closed,closed,2.495962,3.927221,-77.58041,1.030212,930.981,no,no,akers608,inperson,1,1,0.907407407407407,0.942307692307692
102,PineEntrance,PineEntrance,90,1,closed,closed,-2.105896,3.760448,69.12666,0.7658081,935.659,yes,yes,akers608,inperson,0.666666666666667,0.666666666666667,0.907407407407407,0.942307692307692
103,MooreLot,MooreLot,90,1,open,open,-0.5749512,4.498752,72.36161,1.016296,938.0535,yes,yes,akers608,inperson,0.666666666666667,0.666666666666667,0.907407407407407,0.942307692307692
104,Neutral53Commons,53Commons,90,2,open,open,-3.245392,2.722427,75.79359,0.8353271,940.2114,na,yes,akers608,inperson,NaN,0.666666666666667,1,0.942307692307692
105,McLaughlinCluster,McLaughlinCluster,-90,1,closed,closed,-1.030518,0.9256368,-75.76575,1.127441,942.62,yes,yes,akers608,inperson,0.666666666666667,0.666666666666667,0.907407407407407,0.942307692307692
108,BakerBerry2nd,BakerBerry2nd_mirror,-90,3,closed,closed,2.032733,4.94562,-74.3024,1.086243,960.2596,yes,yes,akers608,inperson,0.666666666666667,NaN,0.954545454545455,0.942307692307692
109,NeutralHop2,Hop2,-90,2,closed,closed,-1.741791,4.549742,-74.3605,0.9884033,962.4871,na,no,akers608,inperson,NaN,1,1,0.942307692307692
111,NeutralMaynard,Maynard,-90,2,open,open,0.7372006,5.012116,-80.85632,1.183411,967.3878,na,unsure,akers608,inperson,NaN,0.666666666666667,1,0.942307692307692
112,NeutralUmplebys,Umplebys,90,2,closed,closed,-2.475677,3.170494,82.01659,1.169678,970.1168,na,no,akers608,inperson,NaN,1,1,0.942307692307692
113,AllenSt,AllenSt_mirror,90,3,closed,closed,-3.857056,3.063818,73.24783,1.40625,972.7899,yes,yes,akers608,inperson,1,NaN,0.954545454545455,0.942307692307692
114,RaunerFirst,RaunerFirst,-90,1,closed,closed,2.343247,2.342172,-70.91104,1.141418,975.2817,no,no,akers608,inperson,1,1,0.907407407407407,0.942307692307692
115,McLaughlinCluster,McLaughlinCluster_mirror,90,3,open,open,-4.458252,4.338428,69.65333,1.044067,977.5649,yes,yes,akers608,inperson,0.666666666666667,NaN,0.954545454545455,0.942307692307692
116,MooreLot,MooreLot,90,1,open,open,-1.909821,2.804925,71.64586,1.072449,979.9737,yes,yes,akers608,inperson,0.666666666666667,0.666666666666667,0.907407407407407,0.942307692307692
117,RaunerFirst,RaunerFirst_mirror,90,3,open,open,-4.103546,3.473605,70.33088,1.239136,982.4379,no,no,akers608,inperson,1,NaN,0.954545454545455,0.942307692307692
118,NeutralAllenSt,AllenSt,90,2,closed,closed,-3.620453,1.191424,68.00593,1.141602,985.0131,na,yes,akers608,inperson,NaN,1,1,0.942307692307692
120,BakerBerryCharter,BakerBerryCharter,90,1,closed,closed,-4.434357,1.587186,75.04497,1.099731,990.1646,yes,yes,akers608,inperson,0.666666666666667,0.666666666666667,0.907407407407407,0.942307692307692
121,Hop4,Hop4_mirror,-90,3,open,open,-0.7992249,2.3327,-61.31631,1.294495,992.9769,no,no,akers608,inperson,0.666666666666667,NaN,0.954545454545455,0.942307692307692
122,NeutralRaunerFirst,RaunerFirst,90,2,open,open,-3.988953,2.079491,69.51173,1.225342,995.4274,na,no,akers608,inperson,NaN,1,1,0.942307692307692
123,Hop2,Hop2,90,1,open,open,-4.707611,1.04624,71.96847,0.9745483,997.6688,no,no,akers608,inperson,1,1,0.907407407407407,0.942307692307692
124,Zimmerman,Zimmerman,90,1,open,open,-4.162781,1.297497,74.88253,0.9050293,999.8826,yes,yes,akers608,inperson,0.333333333333333,0.333333333333333,0.907407407407407,0.942307692307692
125,RollinsChapel3,RollinsChapel3,-90,1,open,open,0.5570308,3.288178,-68.32684,1.08606,1002.263,yes,yes,akers608,inperson,0.666666666666667,0.666666666666667,0.907407407407407,0.942307692307692
126,PineBackHall,PineBackHall_mirror,90,3,closed,closed,-2.820374,1.7803,63.08341,1.016296,1004.519,no,no,akers608,inperson,1,NaN,0.954545454545455,0.942307692307692
127,Hop4,Hop4,90,1,closed,closed,-2.749481,2.889041,69.49032,0.9605103,1006.718,no,no,akers608,inperson,0.666666666666667,0.666666666666667,0.907407407407407,0.942307692307692
128,NeutralFairbanks,Fairbanks,90,2,closed,closed,-3.052399,2.385603,65.78451,1.461731,1009.503,na,unsure,akers608,inperson,NaN,0.666666666666667,1,0.942307692307692
130,NeutralMooreLot,MooreLot,-90,2,closed,closed,-0.1069641,3.648212,-68.62714,1.266968,1014.71,na,yes,akers608,inperson,NaN,0.666666666666667,1,0.942307692307692
131,NeutralBakerBerryHistoric2,BakerBerryHistoric2,90,2,open,open,-3.480621,6.022229,77.48496,1.113281,1017.313,na,no,akers608,inperson,NaN,1,1,0.942307692307692
133,53Commons,53Commons,-90,1,closed,closed,-1.884857,1.943909,-68.10202,1.016113,1022.13,yes,yes,akers608,inperson,0.666666666666667,0.666666666666667,0.907407407407407,0.942307692307692
134,Hop2,Hop2,90,1,open,open,-1.069855,3.159418,62.92269,1.002502,1024.428,no,no,akers608,inperson,1,1,0.907407407407407,0.942307692307692
135,AllenSt,AllenSt,-90,1,open,open,-0.1778259,1.952696,-72.03455,1.36438,1027.045,yes,yes,akers608,inperson,1,1,0.907407407407407,0.942307692307692
137,NeutralRollinsChapel3,RollinsChapel3,90,2,closed,closed,-2.17157,6.319537,73.55795,1.587158,1032.349,na,yes,akers608,inperson,NaN,0.666666666666667,1,0.942307692307692
139,BakerBerryCharter,BakerBerryCharter,90,1,closed,closed,-2.909271,0.7850947,68.15319,0.890625,1038.531,yes,yes,akers608,inperson,0.666666666666667,0.666666666666667,0.907407407407407,0.942307692307692
140,RaunerFirst,RaunerFirst,-90,1,closed,closed,1.122391,1.406736,-71.62,1.211182,1040.939,no,no,akers608,inperson,1,1,0.907407407407407,0.942307692307692
142,BakerBerryHistoric2,BakerBerryHistoric2,-90,1,closed,closed,-1.227905,5.843864,-71.75125,1.141968,1046.23,no,no,akers608,inperson,1,1,0.907407407407407,0.942307692307692
143,Umplebys,Umplebys_mirror,90,3,closed,closed,-2.212402,4.249901,73.03763,1.281006,1048.75,no,no,akers608,inperson,1,NaN,0.954545454545455,0.942307692307692
144,Zimmerman,Zimmerman_mirror,-90,3,closed,closed,-1.191559,2.27772,-65.90872,1.18335,1051.158,yes,yes,akers608,inperson,0.333333333333333,NaN,0.954545454545455,0.942307692307692
1,BakerBerry2nd,BakerBerry2nd,-90,1,closed,closed,-4.364655,-3.696167,-71.63174,1.433899,659.8516,yes,yes,akers610,inperson,1,1,0.843137254901961,0.845454545454545
2,NeutralZimmerman,Zimmerman,90,2,open,open,-6.950409,0.5339894,73.4642,1.378784,667.4285,na,no,akers610,inperson,NaN,0.666666666666667,0.838709677419355,0.845454545454545
4,Fairbanks,Fairbanks_mirror,-90,3,open,open,-1.458099,-6.220795,-69.40921,1.10199,677.5519,yes,yes,akers610,inperson,0.666666666666667,NaN,0.857142857142857,0.845454545454545
5,Umplebys,Umplebys,90,1,closed,closed,-5.39032,0.8911248,81.00259,1.169556,681.1302,no,no,akers610,inperson,1,1,0.843137254901961,0.845454545454545
6,NeutralMooreLot,MooreLot,90,2,open,open,-4.580414,0.8688318,78.14413,1.0849,685.7988,na,unsure,akers610,inperson,NaN,1,0.838709677419355,0.845454545454545
7,Fairbanks,Fairbanks,90,1,closed,closed,-5.224426,-0.1096191,75.72756,1.07196,689.5162,yes,yes,akers610,inperson,0.666666666666667,0.666666666666667,0.843137254901961,0.845454545454545
8,Zimmerman,Zimmerman_mirror,90,3,open,open,-3.954987,-2.395538,62.29696,1.374329,694.2317,no,no,akers610,inperson,0.666666666666667,NaN,0.857142857142857,0.845454545454545
9,Maynard,Maynard_mirror,90,3,closed,closed,-5.356445,-1.809448,64.42939,0.9829712,696.9829,unsure,unsure,akers610,inperson,1,NaN,0.857142857142857,0.845454545454545
10,RollinsChapel3,RollinsChapel3,90,1,closed,closed,-5.162811,0.9140611,72.51144,1.10022,700.4918,yes,yes,akers610,inperson,0.666666666666667,0.666666666666667,0.843137254901961,0.845454545454545
13,NeutralFairbanks,Fairbanks,-90,2,open,open,-4.012299,-5.465393,-66.59366,1.809814,710.7587,na,yes,akers610,inperson,NaN,0.666666666666667,0.838709677419355,0.845454545454545
14,PineBackHall,PineBackHall,90,1,closed,closed,-5.367706,1.242355,68.9649,0.9331055,713.2924,yes,yes,akers610,inperson,0.666666666666667,0.666666666666667,0.843137254901961,0.845454545454545
18,NeutralBakerBerryCharter,BakerBerryCharter,90,2,closed,closed,-8.637543,-1.543549,24.68697,1.309082,726.2213,na,yes,akers610,inperson,NaN,0.666666666666667,0.838709677419355,0.845454545454545
19,Hop4,Hop4,-90,1,open,open,-2.967682,-0.4139099,-74.53198,0.8919678,728.3802,no,no,akers610,inperson,1,1,0.843137254901961,0.845454545454545
20,Hop2,Hop2,-90,1,closed,closed,-2.824158,-2.721985,-61.49982,0.8494263,730.8853,unsure,unsure,akers610,inperson,1,1,0.843137254901961,0.845454545454545
22,NeutralPineEntrance,PineEntrance,90,2,closed,closed,-5.694061,5.462184,68.26502,1.211182,736.9315,na,yes,akers610,inperson,NaN,1,0.838709677419355,0.845454545454545
23,Umplebys,Umplebys,90,1,closed,closed,-5.854065,1.840914,62.63147,0.821167,738.9084,no,no,akers610,inperson,1,1,0.843137254901961,0.845454545454545
24,AllenSt,AllenSt,90,1,closed,closed,-6.01416,0.5010659,67.84148,0.7658691,741.15,yes,yes,akers610,inperson,0.666666666666667,0.666666666666667,0.843137254901961,0.845454545454545
25,53Commons,53Commons,90,1,open,open,-6.109833,-1.331848,65.06042,0.8912354,743.67,yes,yes,akers610,inperson,NaN,NaN,0.843137254901961,0.845454545454545
27,PineEntrance,PineEntrance_mirror,90,3,closed,closed,-7.444153,1.88654,56.40978,0.7335205,748.5588,yes,yes,akers610,inperson,1,NaN,0.857142857142857,0.845454545454545
29,RaunerFirst,RaunerFirst,90,1,open,open,-6.758789,1.898351,59.42235,1.364502,754.1829,yes,yes,akers610,inperson,1,1,0.843137254901961,0.845454545454545
30,NeutralMaynard,Maynard,90,2,closed,closed,-5.630859,2.214157,64.09321,1.448242,756.9359,na,unsure,akers610,inperson,NaN,1,0.838709677419355,0.845454545454545
31,NeutralPineBackHall,PineBackHall,-90,2,open,open,-3.944733,6.243659,-88.73822,1.587341,760.9302,na,yes,akers610,inperson,NaN,0.666666666666667,0.838709677419355,0.845454545454545
34,RaunerBackHall,RaunerBackHall,-90,1,closed,closed,-5.450592,-0.1993408,-80.81726,1.085999,769.4139,yes,yes,akers610,inperson,1,1,0.843137254901961,0.845454545454545
35,McLaughlinCluster,McLaughlinCluster_mirror,-90,3,closed,closed,-4.03183,-9.784607,-78.44202,1.012878,780.1587,unsure,unsure,akers610,inperson,0.666666666666667,NaN,0.857142857142857,0.845454545454545
36,NeutralRaunerBackHall,RaunerBackHall,90,2,open,open,-7.310822,3.66211,70.99624,1.294861,783.3467,na,yes,akers610,inperson,NaN,1,0.838709677419355,0.845454545454545
37,BakerBerryHistoric2,BakerBerryHistoric2_mirror,-90,3,closed,closed,-4.477661,-2.318298,-64.34332,0.953064,785.4833,yes,yes,akers610,inperson,1,NaN,0.857142857142857,0.845454545454545
44,NeutralRaunerFirst,RaunerFirst,-90,2,closed,closed,-2.872437,1.027223,-75.50769,1.239258,805.3522,na,yes,akers610,inperson,NaN,1,0.838709677419355,0.845454545454545
45,BakerBerry2nd,BakerBerry2nd_mirror,90,3,open,open,-9.100952,4.272886,62.72533,1.320496,807.9952,yes,yes,akers610,inperson,1,NaN,0.857142857142857,0.845454545454545
46,NeutralUmplebys,Umplebys,-90,2,open,open,-5.284485,-0.4617004,-72.9126,1.075745,810.8159,na,no,akers610,inperson,NaN,1,0.838709677419355,0.845454545454545
47,Zimmerman,Zimmerman,-90,1,closed,closed,-3.053375,0.4073247,-78.57806,1.155396,813.4294,no,no,akers610,inperson,0.666666666666667,0.666666666666667,0.843137254901961,0.845454545454545
48,RollinsChapel3,RollinsChapel3_mirror,-90,3,open,open,-3.30246,-1.862579,-71.02518,1.461853,816.0887,yes,yes,akers610,inperson,0.666666666666667,NaN,0.857142857142857,0.845454545454545
49,PineBackHall,PineBackHall,90,1,closed,closed,-10.31735,7.161203,60.80512,1.600708,818.8313,yes,yes,akers610,inperson,0.666666666666667,0.666666666666667,0.843137254901961,0.845454545454545
50,RaunerBackHall,RaunerBackHall_mirror,90,3,open,open,-6.806793,4.523043,55.8649,0.9512329,820.9243,yes,yes,akers610,inperson,1,NaN,0.857142857142857,0.845454545454545
51,PineEntrance,PineEntrance,-90,1,open,open,-5.424927,0.3211495,-78.0856,1.058105,823.152,yes,yes,akers610,inperson,1,1,0.843137254901961,0.845454545454545
53,BakerBerryCharter,BakerBerryCharter,-90,1,open,open,-4.373047,-1.940948,-69.97687,1.085876,828.2386,yes,yes,akers610,inperson,0.666666666666667,0.666666666666667,0.843137254901961,0.845454545454545
55,Hop4,Hop4,-90,1,open,open,-4.741943,-3.112701,-68.22195,1.2948,833.4905,no,no,akers610,inperson,1,1,0.843137254901961,0.845454545454545
58,AllenSt,AllenSt,90,1,closed,closed,-1.572449,-1.481171,64.432,1.489807,842.3196,yes,yes,akers610,inperson,0.666666666666667,0.666666666666667,0.843137254901961,0.845454545454545
59,NeutralHop2,Hop2,90,2,open,open,-5.698273,-0.7986755,66.29484,1.183044,844.7832,na,unsure,akers610,inperson,NaN,1,0.838709677419355,0.845454545454545
60,RaunerBackHall,RaunerBackHall,-90,1,closed,closed,-2.711273,1.906434,-57.8436,1.18335,847.1085,yes,yes,akers610,inperson,1,1,0.843137254901961,0.845454545454545
61,NeutralBakerBerry2nd,BakerBerry2nd,90,2,open,open,-4.574738,1.286604,68.34702,1.002686,849.3737,na,yes,akers610,inperson,NaN,1,0.838709677419355,0.845454545454545
62,NeutralRollinsChapel3,RollinsChapel3,-90,2,open,open,-2.834473,-3.010742,-66.04517,1.016174,851.6568,na,yes,akers610,inperson,NaN,0.666666666666667,0.838709677419355,0.845454545454545
63,McLaughlinCluster,McLaughlinCluster,90,1,open,open,-5.51062,2.719549,49.91166,1.141663,854.0657,unsure,unsure,akers610,inperson,0.666666666666667,0.666666666666667,0.843137254901961,0.845454545454545
65,McLaughlinCluster,McLaughlinCluster,90,1,open,open,-4.475769,3.084967,72.08588,0.9332886,858.7717,unsure,unsure,akers610,inperson,0.666666666666667,0.666666666666667,0.843137254901961,0.845454545454545
67,Hop2,Hop2_mirror,90,3,open,open,-4.52829,-0.4337769,60.79406,0.9138794,863.5696,unsure,unsure,akers610,inperson,1,NaN,0.857142857142857,0.845454545454545
68,RaunerFirst,RaunerFirst_mirror,-90,3,closed,closed,-2.683868,-1.60849,-55.00375,0.9862671,865.7955,yes,yes,akers610,inperson,1,NaN,0.857142857142857,0.845454545454545
69,PineEntrance,PineEntrance,-90,1,open,open,-0.6642456,-0.7151794,-69.10251,1.016663,867.9539,yes,yes,akers610,inperson,1,1,0.843137254901961,0.845454545454545
70,Maynard,Maynard,-90,1,open,open,-3.144409,-1.456146,-65.30371,0.9606934,870.2231,unsure,unsure,akers610,inperson,1,1,0.843137254901961,0.845454545454545
71,NeutralBakerBerryHistoric2,BakerBerryHistoric2,-90,2,closed,closed,-2.411804,2.097444,-50.96661,1.072205,879.8699,na,yes,akers610,inperson,NaN,1,0.838709677419355,0.845454545454545
72,Umplebys,Umplebys_mirror,-90,3,open,open,-2.37384,-0.1210022,-63.24399,0.9697266,882.3017,no,no,akers610,inperson,1,NaN,0.857142857142857,0.845454545454545
73,BakerBerryHistoric2,BakerBerryHistoric2_mirror,90,3,open,open,-6.030945,8.56295,53.29194,1.253296,884.9888,yes,yes,akers610,inperson,1,NaN,0.857142857142857,0.845454545454545
74,RollinsChapel3,RollinsChapel3,-90,1,open,open,-6.987976,-0.552948,-65.29523,0.8910522,887.2581,yes,yes,akers610,inperson,0.666666666666667,0.666666666666667,0.843137254901961,0.845454545454545
75,AllenSt,AllenSt,-90,1,open,open,-2.325317,-1.83548,-68.64148,1.002136,889.555,yes,yes,akers610,inperson,0.666666666666667,0.666666666666667,0.843137254901961,0.845454545454545
76,PineBackHall,PineBackHall,-90,1,open,open,-2.679169,3.269191,-75.47891,1.183167,891.894,yes,yes,akers610,inperson,0.666666666666667,0.666666666666667,0.843137254901961,0.845454545454545
77,BakerBerryCharter,BakerBerryCharter_mirror,-90,3,open,open,-3.048126,-0.8006897,-68.70596,0.7518311,893.8992,yes,yes,akers610,inperson,0.666666666666667,NaN,0.857142857142857,0.845454545454545
80,NeutralPineBackHall,PineBackHall,90,2,closed,closed,-8.642975,4.622841,65.36338,1.322449,902.0156,na,yes,akers610,inperson,NaN,0.666666666666667,0.838709677419355,0.845454545454545
81,NeutralRaunerBackHall,RaunerBackHall,-90,2,closed,closed,-3.382751,1.665875,-65.17963,1.04303,904.2014,na,yes,akers610,inperson,NaN,1,0.838709677419355,0.845454545454545
82,RollinsChapel3,RollinsChapel3_mirror,90,3,closed,closed,-8.199951,4.446136,56.35939,1.197205,906.7214,yes,yes,akers610,inperson,0.666666666666667,NaN,0.857142857142857,0.845454545454545
83,NeutralBakerBerryCharter,BakerBerryCharter,-90,2,open,open,1.291341,2.739909,-27.40097,1.183472,910.3691,na,yes,akers610,inperson,NaN,0.666666666666667,0.838709677419355,0.845454545454545
85,Maynard,Maynard_mirror,-90,3,open,open,-2.330109,-0.1328125,-67.01675,0.8910522,915.5342,unsure,unsure,akers610,inperson,1,NaN,0.857142857142857,0.845454545454545
86,Fairbanks,Fairbanks_mirror,90,3,closed,closed,-10.51337,1.017147,50.94875,1.531372,918.444,yes,yes,akers610,inperson,0.666666666666667,NaN,0.857142857142857,0.845454545454545
87,NeutralMcLaughlinCluster,McLaughlinCluster,90,2,open,open,-10.59213,8.002319,60.99893,1.058289,920.9362,na,unsure,akers610,inperson,NaN,0.666666666666667,0.838709677419355,0.845454545454545
88,Fairbanks,Fairbanks,-90,1,open,open,-1.284973,-4.669739,-62.55206,0.9327393,923.2612,yes,yes,akers610,inperson,0.666666666666667,0.666666666666667,0.843137254901961,0.845454545454545
89,BakerBerry2nd,BakerBerry2nd,90,1,open,open,-9.523804,3.095928,60.58195,0.75177,925.2382,yes,yes,akers610,inperson,1,1,0.843137254901961,0.845454545454545
92,RaunerBackHall,RaunerBackHall,90,1,open,open,-8.029999,4.729513,57.16413,0.9190063,932.2133,yes,yes,akers610,inperson,1,1,0.843137254901961,0.845454545454545
93,Hop4,Hop4,90,1,closed,closed,-8.730347,7.354536,62.83511,0.8910522,934.5522,no,no,akers610,inperson,1,1,0.843137254901961,0.845454545454545
94,Umplebys,Umplebys,-90,1,open,open,-3.937164,0.290715,-65.86197,0.9192505,936.6267,no,no,akers610,inperson,1,1,0.843137254901961,0.845454545454545
96,PineEntrance,PineEntrance,90,1,closed,closed,-9.464294,8.465665,57.11485,1.030212,941.903,yes,yes,akers610,inperson,1,1,0.843137254901961,0.845454545454545
97,NeutralZimmerman,Zimmerman,-90,2,closed,closed,-1.52951,-1.492737,-53.89258,1.09967,944.2281,na,no,akers610,inperson,NaN,0.666666666666667,0.838709677419355,0.845454545454545
98,53Commons,53Commons_mirror,90,3,open,open,-7.83609,4.860839,58.77406,0.765564,946.2051,yes,yes,akers610,inperson,NaN,NaN,0.857142857142857,0.845454545454545
100,BakerBerryHistoric2,BakerBerryHistoric2,-90,1,closed,closed,-2.677979,2.82733,-64.35056,1.072083,950.8689,yes,yes,akers610,inperson,1,1,0.843137254901961,0.845454545454545
101,PineBackHall,PineBackHall,-90,1,open,open,-2.845978,1.182358,-72.69717,0.9187622,952.9018,yes,yes,akers610,inperson,0.666666666666667,0.666666666666667,0.843137254901961,0.845454545454545
108,BakerBerry2nd,BakerBerry2nd_mirror,-90,3,closed,closed,-2.026733,-1.089996,-49.37265,1.072144,981.9438,yes,yes,akers610,inperson,1,NaN,0.857142857142857,0.845454545454545
109,NeutralHop2,Hop2,-90,2,closed,closed,-1.726746,-0.7260437,-54.33569,1.015808,984.9506,na,unsure,akers610,inperson,NaN,1,0.838709677419355,0.845454545454545
110,NeutralHop4,Hop4,-90,2,open,open,-2.469666,-1.62796,-63.78098,0.8910522,986.9837,na,no,akers610,inperson,NaN,1,0.838709677419355,0.845454545454545
111,NeutralMaynard,Maynard,-90,2,open,open,-0.7969055,-4.091309,-70.89807,1.002563,989.3364,na,unsure,akers610,inperson,NaN,1,0.838709677419355,0.845454545454545
113,AllenSt,AllenSt_mirror,90,3,closed,closed,-7.567047,0.8595076,65.93581,0.9189453,993.7499,yes,yes,akers610,inperson,0.666666666666667,NaN,0.857142857142857,0.845454545454545
114,RaunerFirst,RaunerFirst,-90,1,closed,closed,-2.375458,-0.3109436,-51.483,1.252625,996.4088,yes,yes,akers610,inperson,1,1,0.843137254901961,0.845454545454545
115,McLaughlinCluster,McLaughlinCluster_mirror,90,3,open,open,-9.22406,2.600747,64.62428,0.7798462,998.3025,unsure,unsure,akers610,inperson,0.666666666666667,NaN,0.857142857142857,0.845454545454545
116,MooreLot,MooreLot,90,1,open,open,-6.804016,2.24444,70.97195,0.8353882,1000.279,unsure,unsure,akers610,inperson,1,1,0.843137254901961,0.845454545454545
118,NeutralAllenSt,AllenSt,90,2,closed,closed,-7.66864,0.9645334,62.23083,1.266724,1005.041,na,yes,akers610,inperson,NaN,0.666666666666667,0.838709677419355,0.845454545454545
121,Hop4,Hop4_mirror,-90,3,open,open,-4.410034,0.3889237,-53.9231,0.9187622,1011.821,no,no,akers610,inperson,1,NaN,0.857142857142857,0.845454545454545
123,Hop2,Hop2,90,1,open,open,-8.245453,5.588978,69.47954,0.9052124,1016.722,unsure,unsure,akers610,inperson,1,1,0.843137254901961,0.845454545454545
124,Zimmerman,Zimmerman,90,1,open,open,-7.103821,0.985639,64.36301,0.9469604,1018.935,no,no,akers610,inperson,0.666666666666667,0.666666666666667,0.843137254901961,0.845454545454545
125,RollinsChapel3,RollinsChapel3,-90,1,open,open,-6.729492,-0.6535645,-64.85971,0.9194946,1021.024,yes,yes,akers610,inperson,0.666666666666667,0.666666666666667,0.843137254901961,0.845454545454545
126,PineBackHall,PineBackHall_mirror,90,3,closed,closed,-9.956604,2.830601,69.45865,0.8074341,1022.959,yes,yes,akers610,inperson,0.666666666666667,NaN,0.857142857142857,0.845454545454545
127,Hop4,Hop4,90,1,closed,closed,-8.415405,3.689175,58.08086,0.862915,1027.525,no,no,akers610,inperson,1,1,0.843137254901961,0.845454545454545
131,NeutralBakerBerryHistoric2,BakerBerryHistoric2,90,2,open,open,-8.025238,4.625572,51.04426,1.35022,1037.048,na,yes,akers610,inperson,NaN,1,0.838709677419355,0.845454545454545
134,Hop2,Hop2,90,1,open,open,-7.475922,5.600701,66.84262,0.765625,1043.842,unsure,unsure,akers610,inperson,1,1,0.843137254901961,0.845454545454545
136,NeutralPineEntrance,PineEntrance,-90,2,open,open,-1.622833,-3.566803,-76.09885,1.253052,1048.632,na,yes,akers610,inperson,NaN,1,0.838709677419355,0.845454545454545
137,NeutralRollinsChapel3,RollinsChapel3,90,2,closed,closed,-7.3461,4.671294,59.84,1.294556,1051.082,na,yes,akers610,inperson,NaN,0.666666666666667,0.838709677419355,0.845454545454545
139,BakerBerryCharter,BakerBerryCharter,90,1,closed,closed,-7.260773,5.048438,59.40217,0.737793,1055.788,yes,yes,akers610,inperson,0.666666666666667,0.666666666666667,0.843137254901961,0.845454545454545
141,PineEntrance,PineEntrance_mirror,-90,3,open,open,-4.554047,-2.017914,-68.44452,0.8352051,1060.939,yes,yes,akers610,inperson,1,NaN,0.857142857142857,0.845454545454545
142,BakerBerryHistoric2,BakerBerryHistoric2,-90,1,closed,closed,-3.611877,-0.4173584,-68.71213,0.8908691,1063.083,yes,yes,akers610,inperson,1,1,0.843137254901961,0.845454545454545
1,BakerBerry2nd,BakerBerry2nd,-90,1,closed,closed,2.555395,16.72876,-91.30862,1.615051,734.3458,yes,yes,akers611,inperson,1,1,0.970149253731343,0.959349593495935
3,BakerBerryHistoric2,BakerBerryHistoric2,90,1,open,open,-6.11908,20.1014,73.76038,1.963196,752.712,yes,yes,akers611,inperson,1,1,0.970149253731343,0.959349593495935
4,Fairbanks,Fairbanks_mirror,-90,3,open,open,1.206169,13.34634,-68.32571,2.689087,768.6132,unsure,unsure,akers611,inperson,1,NaN,1,0.959349593495935
5,Umplebys,Umplebys,90,1,closed,closed,-5.519684,19.26648,74.49535,1.78186,784.5682,yes,yes,akers611,inperson,1,1,0.970149253731343,0.959349593495935
7,Fairbanks,Fairbanks,90,1,closed,closed,-3.808441,20.74362,74.56369,1.810181,798.1737,unsure,unsure,akers611,inperson,1,1,0.970149253731343,0.959349593495935
9,Maynard,Maynard_mirror,90,3,closed,closed,-6.564362,19.04945,56.94139,1.789917,812.1542,yes,yes,akers611,inperson,1,NaN,1,0.959349593495935
10,RollinsChapel3,RollinsChapel3,90,1,closed,closed,-4.417419,24.78063,64.39883,1.461731,815.7184,yes,yes,akers611,inperson,1,1,0.970149253731343,0.959349593495935
11,Zimmerman,Zimmerman,-90,1,closed,closed,2.164386,17.26319,-79.1319,1.559326,821.3431,yes,yes,akers611,inperson,1,1,0.970149253731343,0.959349593495935
12,53Commons,53Commons_mirror,-90,3,closed,closed,7.860958,18.34264,-67.43683,2.057922,828.4969,yes,yes,akers611,inperson,1,NaN,1,0.959349593495935
14,PineBackHall,PineBackHall,90,1,closed,closed,-6.020477,22.34715,65.4015,1.587219,839.3637,unsure,unsure,akers611,inperson,1,1,0.970149253731343,0.959349593495935
15,RaunerFirst,RaunerFirst,90,1,open,open,-5.332489,20.51641,65.99918,1.560181,842.8313,yes,yes,akers611,inperson,1,1,0.970149253731343,0.959349593495935
16,Hop2,Hop2,-90,1,closed,closed,2.35999,14.7313,-70.58908,1.197327,850.5015,yes,yes,akers611,inperson,1,1,0.970149253731343,0.959349593495935
17,Maynard,Maynard,-90,1,open,open,1.53863,17.90127,-71.9856,2.325012,856.7388,yes,yes,akers611,inperson,1,1,0.970149253731343,0.959349593495935
18,NeutralBakerBerryCharter,BakerBerryCharter,90,2,closed,closed,-5.519592,22.35602,58.1253,2.771118,862.3722,na,unsure,akers611,inperson,NaN,0.666666666666667,0.909090909090909,0.959349593495935
19,Hop4,Hop4,-90,1,open,open,2.06638,19.48126,-74.09204,1.239136,871.0594,yes,yes,akers611,inperson,0.666666666666667,0.666666666666667,0.970149253731343,0.959349593495935
20,Hop2,Hop2,-90,1,closed,closed,1.024207,17.8374,-72.07999,1.503601,876.6838,yes,yes,akers611,inperson,1,1,0.970149253731343,0.959349593495935
21,NeutralHop4,Hop4,90,2,closed,closed,-4.155853,22.16052,64.11369,1.350342,883.6574,na,yes,akers611,inperson,NaN,0.666666666666667,0.909090909090909,0.959349593495935
22,NeutralPineEntrance,PineEntrance,90,2,closed,closed,-3.981476,21.40725,66.7848,1.712952,890.8488,na,yes,akers611,inperson,NaN,1,0.909090909090909,0.959349593495935
23,Umplebys,Umplebys,90,1,closed,closed,-3.407104,20.22566,63.69987,1.336304,895.9998,yes,yes,akers611,inperson,1,1,0.970149253731343,0.959349593495935
24,AllenSt,AllenSt,90,1,closed,closed,-5.493286,17.35051,60.86761,1.655579,906.4139,yes,yes,akers611,inperson,1,1,0.970149253731343,0.959349593495935
25,53Commons,53Commons,90,1,open,open,-4.583252,16.82729,69.4027,1.545532,918.4429,yes,yes,akers611,inperson,1,1,0.970149253731343,0.959349593495935
26,BakerBerryCharter,BakerBerryCharter_mirror,90,3,closed,closed,-4.681976,19.73422,55.17332,1.174072,927.7057,unsure,unsure,akers611,inperson,0.666666666666667,NaN,1,0.959349593495935
28,NeutralAllenSt,AllenSt,-90,2,open,open,3.069007,15.97647,-76.30756,1.448608,937.9749,na,yes,akers611,inperson,NaN,1,0.909090909090909,0.959349593495935
29,RaunerFirst,RaunerFirst,90,1,open,open,-3.823181,19.90995,61.18486,1.2948,944.5594,yes,yes,akers611,inperson,1,1,0.970149253731343,0.959349593495935
30,NeutralMaynard,Maynard,90,2,closed,closed,-3.772461,18.79859,61.55604,1.559631,949.6385,na,yes,akers611,inperson,NaN,1,0.909090909090909,0.959349593495935
32,MooreLot,MooreLot,-90,1,closed,closed,1.357662,17.66615,-71.55029,1.350464,971.9134,yes,yes,akers611,inperson,0.333333333333333,0.333333333333333,0.970149253731343,0.959349593495935
33,AllenSt,AllenSt_mirror,-90,3,open,open,0.6246449,17.29476,-69.2196,1.160278,975.9974,yes,yes,akers611,inperson,1,NaN,1,0.959349593495935
34,RaunerBackHall,RaunerBackHall,-90,1,closed,closed,1.031043,18.70129,-67.37354,1.225159,981.8726,unsure,unsure,akers611,inperson,1,1,0.970149253731343,0.959349593495935
35,McLaughlinCluster,McLaughlinCluster_mirror,-90,3,closed,closed,0.8688446,14.13454,-69.57355,1.933167,1008.685,yes,yes,akers611,inperson,1,NaN,1,0.959349593495935
36,NeutralRaunerBackHall,RaunerBackHall,90,2,open,open,-4.419434,18.97881,63.89864,1.642822,1016.548,na,unsure,akers611,inperson,NaN,1,0.909090909090909,0.959349593495935
37,BakerBerryHistoric2,BakerBerryHistoric2_mirror,-90,3,closed,closed,1.156843,18.86026,-76.53912,2.219849,1028.666,yes,yes,akers611,inperson,1,NaN,1,0.959349593495935
38,MooreLot,MooreLot_mirror,90,3,open,open,-7.494995,18.34697,57.47977,2.360718,1039.464,yes,yes,akers611,inperson,0.333333333333333,NaN,1,0.959349593495935
39,BakerBerryHistoric2,BakerBerryHistoric2,90,1,open,open,-6.104034,20.9657,57.99292,1.336792,1045.242,yes,yes,akers611,inperson,1,1,0.970149253731343,0.959349593495935
40,BakerBerryCharter,BakerBerryCharter,-90,1,open,open,1.396613,19.75805,-74.51788,1.48938,1049.766,unsure,unsure,akers611,inperson,0.666666666666667,0.666666666666667,0.970149253731343,0.959349593495935
41,RollinsChapel3,RollinsChapel3,90,1,closed,closed,-4.368591,23.85461,56.34759,1.22522,1057.841,yes,yes,akers611,inperson,1,1,0.970149253731343,0.959349593495935
42,BakerBerry2nd,BakerBerry2nd,-90,1,closed,closed,-0.06976318,20.60921,-84.45108,1.30896,1061.823,yes,yes,akers611,inperson,1,1,0.970149253731343,0.959349593495935
43,53Commons,53Commons,90,1,open,open,-4.132233,20.12984,59.43145,1.099854,1068.951,yes,yes,akers611,inperson,1,1,0.970149253731343,0.959349593495935
44,NeutralRaunerFirst,RaunerFirst,-90,2,closed,closed,1.466671,19.27629,-78.77982,1.420654,1075.04,na,yes,akers611,inperson,NaN,1,0.909090909090909,0.959349593495935
45,BakerBerry2nd,BakerBerry2nd_mirror,90,3,open,open,-3.66098,19.90059,53.25642,1.275757,1084.447,yes,yes,akers611,inperson,1,NaN,1,0.959349593495935
46,NeutralUmplebys,Umplebys,-90,2,open,open,2.910831,18.80442,-75.59613,1.322754,1093.667,na,yes,akers611,inperson,NaN,1,0.909090909090909,0.959349593495935
47,Zimmerman,Zimmerman,-90,1,closed,closed,3.062313,17.57163,-69.97757,1.489868,1104.095,yes,yes,akers611,inperson,1,1,0.970149253731343,0.959349593495935
49,PineBackHall,PineBackHall,90,1,closed,closed,-5.307648,21.65104,56.13343,1.294556,1121.702,unsure,unsure,akers611,inperson,1,1,0.970149253731343,0.959349593495935
51,PineEntrance,PineEntrance,-90,1,open,open,2.007757,18.61487,-74.70102,1.308838,1135.849,yes,yes,akers611,inperson,1,1,0.970149253731343,0.959349593495935
52,NeutralMcLaughlinCluster,McLaughlinCluster,-90,2,closed,closed,0.9568961,7.528854,-65.53992,1.253174,1143.169,na,yes,akers611,inperson,NaN,1,0.909090909090909,0.959349593495935
53,BakerBerryCharter,BakerBerryCharter,-90,1,open,open,1.132443,16.82921,-71.67728,1.2948,1148.181,unsure,unsure,akers611,inperson,0.666666666666667,0.666666666666667,0.970149253731343,0.959349593495935
54,Neutral53Commons,53Commons,-90,2,closed,closed,0.9128541,16.8267,-77.58493,1.517822,1154.349,na,yes,akers611,inperson,NaN,1,0.909090909090909,0.959349593495935
55,Hop4,Hop4,-90,1,open,open,2.633106,18.81524,-72.43243,1.044434,1161.283,yes,yes,akers611,inperson,0.666666666666667,0.666666666666667,0.970149253731343,0.959349593495935
56,PineBackHall,PineBackHall_mirror,-90,3,open,open,0.7705364,21.09621,-48.25891,1.51709,1166.281,unsure,unsure,akers611,inperson,1,NaN,1,0.959349593495935
60,RaunerBackHall,RaunerBackHall,-90,1,closed,closed,3.004214,18.2458,-60.0751,1.587158,1191.404,unsure,unsure,akers611,inperson,1,1,0.970149253731343,0.959349593495935
61,NeutralBakerBerry2nd,BakerBerry2nd,90,2,open,open,-2.068085,19.2645,59.30079,1.183716,1195.445,na,yes,akers611,inperson,NaN,1,0.909090909090909,0.959349593495935
62,NeutralRollinsChapel3,RollinsChapel3,-90,2,open,open,0.6787651,17.11778,-71.65222,0.9189453,1200.581,na,yes,akers611,inperson,NaN,1,0.909090909090909,0.959349593495935
64,Fairbanks,Fairbanks,90,1,closed,closed,-2.841522,19.1134,60.63926,1.309082,1212.944,unsure,unsure,akers611,inperson,1,1,0.970149253731343,0.959349593495935
66,MooreLot,MooreLot,-90,1,closed,closed,-0.6847229,17.94836,-70.01682,1.294922,1222.662,yes,yes,akers611,inperson,0.333333333333333,0.333333333333333,0.970149253731343,0.959349593495935
68,RaunerFirst,RaunerFirst_mirror,-90,3,closed,closed,0.2367065,18.17648,-60.20151,1.045288,1235.925,yes,yes,akers611,inperson,1,NaN,1,0.959349593495935
69,PineEntrance,PineEntrance,-90,1,open,open,-1.307587,19.33221,-75.99756,1.461792,1243.234,yes,yes,akers611,inperson,1,1,0.970149253731343,0.959349593495935
70,Maynard,Maynard,-90,1,open,open,-0.2739868,16.94688,-72.26044,1.489868,1249.652,yes,yes,akers611,inperson,1,1,0.970149253731343,0.959349593495935
71,NeutralBakerBerryHistoric2,BakerBerryHistoric2,-90,2,closed,closed,0.3285186,20.41679,-71.42993,1.12793,1266.836,na,yes,akers611,inperson,NaN,1,0.909090909090909,0.959349593495935
72,Umplebys,Umplebys_mirror,-90,3,open,open,0.9877631,18.35464,-55.60889,1.104614,1276.739,yes,yes,akers611,inperson,1,NaN,1,0.959349593495935
74,RollinsChapel3,RollinsChapel3,-90,1,open,open,-1.730865,16.31875,-61.08325,0.8630371,1289.27,yes,yes,akers611,inperson,1,1,0.970149253731343,0.959349593495935
75,AllenSt,AllenSt,-90,1,open,open,-1.886292,19.18188,-68.94247,1.400757,1294.137,yes,yes,akers611,inperson,1,1,0.970149253731343,0.959349593495935
76,PineBackHall,PineBackHall,-90,1,open,open,-1.120789,21.62995,-70.39502,1.107666,1298.661,unsure,unsure,akers611,inperson,1,1,0.970149253731343,0.959349593495935
77,BakerBerryCharter,BakerBerryCharter_mirror,-90,3,open,open,-2.233063,20.37095,-60.78558,0.7879639,1303.715,unsure,unsure,akers611,inperson,0.666666666666667,NaN,1,0.959349593495935
78,Zimmerman,Zimmerman,90,1,open,open,-4.244995,20.66887,58.87943,2.102173,1308.83,yes,yes,akers611,inperson,1,1,0.970149253731343,0.959349593495935
80,NeutralPineBackHall,PineBackHall,90,2,closed,closed,-4.927063,18.98255,62.72374,1.253052,1326.693,na,unsure,akers611,inperson,NaN,1,0.909090909090909,0.959349593495935
81,NeutralRaunerBackHall,RaunerBackHall,-90,2,closed,closed,2.016052,19.95443,-61.27188,1.678833,1331.685,na,unsure,akers611,inperson,NaN,1,0.909090909090909,0.959349593495935
83,NeutralBakerBerryCharter,BakerBerryCharter,-90,2,open,open,-0.5645142,22.85727,-66.45123,1.266846,1342.648,na,unsure,akers611,inperson,NaN,0.666666666666667,0.909090909090909,0.959349593495935
84,McLaughlinCluster,McLaughlinCluster,-90,1,closed,closed,-0.8244324,15.88747,-63.35596,1.400269,1349.603,yes,yes,akers611,inperson,1,1,0.970149253731343,0.959349593495935
85,Maynard,Maynard_mirror,-90,3,open,open,-0.9907837,19.70491,-58.28638,0.9688721,1356.049,yes,yes,akers611,inperson,1,NaN,1,0.959349593495935
88,Fairbanks,Fairbanks,-90,1,open,open,-0.2323303,16.30713,-66.50616,1.169434,1379.055,unsure,unsure,akers611,inperson,1,1,0.970149253731343,0.959349593495935
90,RaunerBackHall,RaunerBackHall_mirror,-90,3,closed,closed,0.7117612,20.32513,-59.19269,1.141602,1394.787,unsure,unsure,akers611,inperson,1,NaN,1,0.959349593495935
91,Maynard,Maynard,90,1,closed,closed,-3.703247,20.45776,57.63469,1.434326,1404.004,yes,yes,akers611,inperson,1,1,0.970149253731343,0.959349593495935
92,RaunerBackHall,RaunerBackHall,90,1,open,open,-3.760071,20.1518,59.97047,1.016113,1409.837,unsure,unsure,akers611,inperson,1,1,0.970149253731343,0.959349593495935
93,Hop4,Hop4,90,1,closed,closed,-2.854065,23.06639,55.70439,1.25293,1414.375,yes,yes,akers611,inperson,0.666666666666667,0.666666666666667,0.970149253731343,0.959349593495935
94,Umplebys,Umplebys,-90,1,open,open,-0.2510681,20.29744,-63.17947,0.723999,1420.181,yes,yes,akers611,inperson,1,1,0.970149253731343,0.959349593495935
95,MooreLot,MooreLot_mirror,-90,3,closed,closed,0.002414055,18.90422,-63.29889,1.23938,1424.608,yes,yes,akers611,inperson,0.333333333333333,NaN,1,0.959349593495935
96,PineEntrance,PineEntrance,90,1,closed,closed,-3.466827,21.27288,61.08827,1.030273,1429.231,yes,yes,akers611,inperson,1,1,0.970149253731343,0.959349593495935
97,NeutralZimmerman,Zimmerman,-90,2,closed,closed,3.551094,16.7531,-69.61578,1.656616,1434.048,na,yes,akers611,inperson,NaN,1,0.909090909090909,0.959349593495935
98,53Commons,53Commons_mirror,90,3,open,open,-3.42276,16.91341,53.71724,1.08606,1438.503,yes,yes,akers611,inperson,1,NaN,1,0.959349593495935
99,RaunerBackHall,RaunerBackHall,90,1,open,open,-3.773193,18.73396,58.12912,0.9327393,1442.666,unsure,unsure,akers611,inperson,1,1,0.970149253731343,0.959349593495935
100,BakerBerryHistoric2,BakerBerryHistoric2,-90,1,closed,closed,0.1205323,20.09219,-65.39249,0.87146,1447.338,yes,yes,akers611,inperson,1,1,0.970149253731343,0.959349593495935
101,PineBackHall,PineBackHall,-90,1,open,open,0.006513789,19.45042,-64.22299,1.205688,1451.055,unsure,unsure,akers611,inperson,1,1,0.970149253731343,0.959349593495935
102,PineEntrance,PineEntrance,90,1,closed,closed,-4.209106,21.53547,53.40018,0.876709,1455.488,yes,yes,akers611,inperson,1,1,0.970149253731343,0.959349593495935
103,MooreLot,MooreLot,90,1,open,open,-2.402222,22.30383,61.92958,1.776367,1459.979,yes,yes,akers611,inperson,0.333333333333333,0.333333333333333,0.970149253731343,0.959349593495935
104,Neutral53Commons,53Commons,90,2,open,open,-1.873169,20.60798,63.21507,1.303223,1465.743,na,yes,akers611,inperson,NaN,1,0.909090909090909,0.959349593495935
105,McLaughlinCluster,McLaughlinCluster,-90,1,closed,closed,-0.1585083,13.90728,-62.53171,2.139282,1470.116,yes,yes,akers611,inperson,1,1,0.970149253731343,0.959349593495935
106,53Commons,53Commons,-90,1,closed,closed,-0.1256714,16.00949,-59.69525,1.099731,1473.852,yes,yes,akers611,inperson,1,1,0.970149253731343,0.959349593495935
107,Hop2,Hop2_mirror,-90,3,closed,closed,1.07289,17.79015,-62.50446,0.8769531,1490.141,yes,yes,akers611,inperson,1,NaN,1,0.959349593495935
108,BakerBerry2nd,BakerBerry2nd_mirror,-90,3,closed,closed,-2.058746,17.25358,-60.26605,0.8494873,1493.677,yes,yes,akers611,inperson,1,NaN,1,0.959349593495935
109,NeutralHop2,Hop2,-90,2,closed,closed,0.08202625,17.29711,-63.56766,1.002563,1498.174,na,yes,akers611,inperson,NaN,1,0.909090909090909,0.959349593495935
110,NeutralHop4,Hop4,-90,2,open,open,-0.7217712,18.55686,-63.04187,1.22583,1503.214,na,yes,akers611,inperson,NaN,0.666666666666667,0.909090909090909,0.959349593495935
111,NeutralMaynard,Maynard,-90,2,open,open,-0.1607666,18.16583,-66.58215,1.344604,1507.301,na,yes,akers611,inperson,NaN,1,0.909090909090909,0.959349593495935
112,NeutralUmplebys,Umplebys,90,2,closed,closed,-2.859711,20.58481,60.27431,1.289185,1511.589,na,yes,akers611,inperson,NaN,1,0.909090909090909,0.959349593495935
114,RaunerFirst,RaunerFirst,-90,1,closed,closed,-0.929657,21.03115,-70.61978,1.317139,1520.305,yes,yes,akers611,inperson,1,1,0.970149253731343,0.959349593495935
116,MooreLot,MooreLot,90,1,open,open,-3.494537,20.98554,58.02392,1.37854,1537.003,yes,yes,akers611,inperson,0.333333333333333,0.333333333333333,0.970149253731343,0.959349593495935
117,RaunerFirst,RaunerFirst_mirror,90,3,open,open,-4.217743,18.97249,53.72101,1.364258,1541.862,yes,yes,akers611,inperson,1,NaN,1,0.959349593495935
118,NeutralAllenSt,AllenSt,90,2,closed,closed,-3.225983,20.39429,62.68443,1.057983,1547.668,na,yes,akers611,inperson,NaN,1,0.909090909090909,0.959349593495935
119,NeutralBakerBerry2nd,BakerBerry2nd,-90,2,closed,closed,0.6821687,19.12108,-65.05179,1.197144,1552.109,na,yes,akers611,inperson,NaN,1,0.909090909090909,0.959349593495935
120,BakerBerryCharter,BakerBerryCharter,90,1,closed,closed,-4.260468,21.85037,60.77933,1.266846,1557.01,unsure,unsure,akers611,inperson,0.666666666666667,0.666666666666667,0.970149253731343,0.959349593495935
121,Hop4,Hop4_mirror,-90,3,open,open,1.46449,20.00923,-63.90137,1.211304,1560.908,yes,yes,akers611,inperson,0.666666666666667,NaN,1,0.959349593495935
122,NeutralRaunerFirst,RaunerFirst,90,2,open,open,-3.361603,21.42713,62.66282,1.428467,1564.689,na,yes,akers611,inperson,NaN,1,0.909090909090909,0.959349593495935
123,Hop2,Hop2,90,1,open,open,-3.121704,20.72261,60.25448,1.169556,1568.106,yes,yes,akers611,inperson,1,1,0.970149253731343,0.959349593495935
124,Zimmerman,Zimmerman,90,1,open,open,-4.662689,20.77112,61.33613,1.10083,1572.395,yes,yes,akers611,inperson,1,1,0.970149253731343,0.959349593495935
125,RollinsChapel3,RollinsChapel3,-90,1,open,open,-0.6539612,19.27715,-65.79376,1.024536,1576.899,yes,yes,akers611,inperson,1,1,0.970149253731343,0.959349593495935
128,NeutralFairbanks,Fairbanks,90,2,closed,closed,-2.968475,20.51471,62.40127,1.303345,1595.569,na,unsure,akers611,inperson,NaN,1,0.909090909090909,0.959349593495935
130,NeutralMooreLot,MooreLot,-90,2,closed,closed,-1.215912,18.76352,-65.7847,1.233276,1605.022,na,yes,akers611,inperson,NaN,0.333333333333333,0.909090909090909,0.959349593495935
131,NeutralBakerBerryHistoric2,BakerBerryHistoric2,90,2,open,open,-4.41748,20.70747,64.08918,1.205566,1609.06,na,yes,akers611,inperson,NaN,1,0.909090909090909,0.959349593495935
132,Fairbanks,Fairbanks,-90,1,open,open,0.1008259,15.72231,-67.20483,0.9134521,1615.561,unsure,unsure,akers611,inperson,1,1,0.970149253731343,0.959349593495935
133,53Commons,53Commons,-90,1,closed,closed,0.3080889,17.99397,-68.50735,1.336548,1619.702,yes,yes,akers611,inperson,1,1,0.970149253731343,0.959349593495935
134,Hop2,Hop2,90,1,open,open,-3.273956,19.36672,59.11788,0.7977295,1623.562,yes,yes,akers611,inperson,1,1,0.970149253731343,0.959349593495935
135,AllenSt,AllenSt,-90,1,open,open,-0.04421997,18.30919,-68.51855,1.224976,1628.208,yes,yes,akers611,inperson,1,1,0.970149253731343,0.959349593495935
136,NeutralPineEntrance,PineEntrance,-90,2,open,open,-0.8013611,19.47707,-71.87561,1.052124,1632.073,na,yes,akers611,inperson,NaN,1,0.909090909090909,0.959349593495935
137,NeutralRollinsChapel3,RollinsChapel3,90,2,closed,closed,-2.568298,22.89896,57.38465,1.288818,1637.335,na,yes,akers611,inperson,NaN,1,0.909090909090909,0.959349593495935
138,Maynard,Maynard,90,1,closed,closed,-3.118103,20.31311,52.56239,1.052734,1641.095,yes,yes,akers611,inperson,1,1,0.970149253731343,0.959349593495935
139,BakerBerryCharter,BakerBerryCharter,90,1,closed,closed,-2.855255,21.38301,51.57676,1.155518,1645.681,unsure,unsure,akers611,inperson,0.666666666666667,0.666666666666667,0.970149253731343,0.959349593495935
140,RaunerFirst,RaunerFirst,-90,1,closed,closed,-0.2055664,19.43815,-65.85931,1.156372,1650.652,yes,yes,akers611,inperson,1,1,0.970149253731343,0.959349593495935
141,PineEntrance,PineEntrance_mirror,-90,3,open,open,-0.8109741,18.00983,-56.96735,1.233276,1654.724,yes,yes,akers611,inperson,1,NaN,1,0.959349593495935
142,BakerBerryHistoric2,BakerBerryHistoric2,-90,1,closed,closed,-0.8391113,19.47348,-60.05923,0.9549561,1660.934,yes,yes,akers611,inperson,1,1,0.970149253731343,0.959349593495935
144,Zimmerman,Zimmerman_mirror,-90,3,closed,closed,0.8739583,15.92802,-55.3562,1.893433,1673.832,yes,yes,akers611,inperson,1,NaN,1,0.959349593495935
1,BakerBerry2nd,BakerBerry2nd,-90,1,closed,closed,0.6270101,5.15673,-91.05331,1.907471,747.6583,yes,yes,akers612,inperson,1,1,0.983050847457627,0.974358974358974
2,NeutralZimmerman,Zimmerman,90,2,open,open,-9.792236,3.847429,85.50248,1.573364,754.844,na,no,akers612,inperson,NaN,1,0.964285714285714,0.974358974358974
3,BakerBerryHistoric2,BakerBerryHistoric2,90,1,open,open,-7.369965,10.0729,88.0304,1.462219,759.1182,no,no,akers612,inperson,1,1,0.983050847457627,0.974358974358974
4,Fairbanks,Fairbanks_mirror,-90,3,open,open,0.9814239,4.441429,-83.91901,2.021545,763.4092,unsure,unsure,akers612,inperson,0.666666666666667,NaN,0.966666666666667,0.974358974358974
5,Umplebys,Umplebys,90,1,closed,closed,-6.875183,7.600926,94.07491,1.170166,766.6956,yes,yes,akers612,inperson,1,1,0.983050847457627,0.974358974358974
6,NeutralMooreLot,MooreLot,90,2,open,open,-6.139709,6.285877,85.7551,1.545593,770.2787,na,yes,akers612,inperson,NaN,0.666666666666667,0.964285714285714,0.974358974358974
7,Fairbanks,Fairbanks,90,1,closed,closed,-8.098755,4.868434,81.71561,1.211121,773.5643,unsure,unsure,akers612,inperson,0.666666666666667,0.666666666666667,0.983050847457627,0.974358974358974
8,Zimmerman,Zimmerman_mirror,90,3,open,open,-7.129333,5.160398,78.11716,1.305725,777.8076,no,no,akers612,inperson,1,NaN,0.966666666666667,0.974358974358974
9,Maynard,Maynard_mirror,90,3,closed,closed,-5.820221,4.163868,74.08475,2.040405,782.0762,yes,yes,akers612,inperson,0.666666666666667,NaN,0.966666666666667,0.974358974358974
10,RollinsChapel3,RollinsChapel3,90,1,closed,closed,-2.016022,12.24377,85.18871,1.573181,785.6263,yes,yes,akers612,inperson,1,1,0.983050847457627,0.974358974358974
12,53Commons,53Commons_mirror,-90,3,closed,closed,0.2508157,6.070132,-78.04123,1.404846,796.8604,unsure,unsure,akers612,inperson,0.666666666666667,NaN,0.966666666666667,0.974358974358974
13,NeutralFairbanks,Fairbanks,-90,2,open,open,0.8491091,4.187523,-85.38257,1.225403,800.1396,na,unsure,akers612,inperson,NaN,0.666666666666667,0.964285714285714,0.974358974358974
14,PineBackHall,PineBackHall,90,1,closed,closed,-7.113953,7.951232,74.82548,0.9188232,803.0081,no,no,akers612,inperson,0.333333333333333,0.333333333333333,0.983050847457627,0.974358974358974
15,RaunerFirst,RaunerFirst,90,1,open,open,-7.051971,9.223828,76.68758,1.378113,806.1962,yes,yes,akers612,inperson,1,1,0.983050847457627,0.974358974358974
16,Hop2,Hop2,-90,1,closed,closed,1.558866,4.95356,-75.9306,1.057617,808.8272,yes,yes,akers612,inperson,1,1,0.983050847457627,0.974358974358974
17,Maynard,Maynard,-90,1,open,open,0.6798466,5.484279,-82.52249,1.155579,811.7787,yes,yes,akers612,inperson,0.666666666666667,0.666666666666667,0.983050847457627,0.974358974358974
18,NeutralBakerBerryCharter,BakerBerryCharter,90,2,closed,closed,-6.951935,8.668762,76.05701,1.016724,814.3929,na,no,akers612,inperson,NaN,0.666666666666667,0.964285714285714,0.974358974358974
19,Hop4,Hop4,-90,1,open,open,2.107033,5.874155,-78.74704,1.141968,817.4141,yes,yes,akers612,inperson,1,1,0.983050847457627,0.974358974358974
20,Hop2,Hop2,-90,1,closed,closed,1.221275,4.783837,-73.96301,0.9747314,820.8808,yes,yes,akers612,inperson,1,1,0.983050847457627,0.974358974358974
22,NeutralPineEntrance,PineEntrance,90,2,closed,closed,-5.551788,21.77183,92.28931,1.3927,827.2643,na,yes,akers612,inperson,NaN,1,0.964285714285714,0.974358974358974
23,Umplebys,Umplebys,90,1,closed,closed,-6.240479,8.906149,78.25206,0.9050903,830.8005,yes,yes,akers612,inperson,1,1,0.983050847457627,0.974358974358974
24,AllenSt,AllenSt,90,1,closed,closed,-7.493317,10.2829,82.92413,1.04425,833.6964,yes,yes,akers612,inperson,1,1,0.983050847457627,0.974358974358974
25,53Commons,53Commons,90,1,open,open,-6.918152,6.370775,83.67935,1.030945,836.6901,unsure,unsure,akers612,inperson,0.666666666666667,0.666666666666667,0.983050847457627,0.974358974358974
26,BakerBerryCharter,BakerBerryCharter_mirror,90,3,closed,closed,-7.947418,7.336809,68.58059,0.9951782,839.6478,no,no,akers612,inperson,0.666666666666667,NaN,0.966666666666667,0.974358974358974
27,PineEntrance,PineEntrance_mirror,90,3,closed,closed,-6.012604,17.07094,83.75599,1.721069,843.7363,yes,yes,akers612,inperson,1,NaN,0.966666666666667,0.974358974358974
28,NeutralAllenSt,AllenSt,-90,2,open,open,0.8024596,4.211127,-81.32928,1.252991,847.1008,na,yes,akers612,inperson,NaN,1,0.964285714285714,0.974358974358974
29,RaunerFirst,RaunerFirst,90,1,open,open,-7.2854,11.39778,81.61827,1.169678,849.7184,yes,yes,akers612,inperson,1,1,0.983050847457627,0.974358974358974
32,MooreLot,MooreLot,-90,1,closed,closed,-0.08093262,8.851136,-78.0416,1.158203,861.5614,yes,yes,akers612,inperson,0.666666666666667,0.666666666666667,0.983050847457627,0.974358974358974
33,AllenSt,AllenSt_mirror,-90,3,open,open,1.426214,5.025867,-70.61865,1.189758,864.8369,yes,yes,akers612,inperson,1,NaN,0.966666666666667,0.974358974358974
34,RaunerBackHall,RaunerBackHall,-90,1,closed,closed,1.886482,7.748449,-73.7395,1.030151,867.5378,no,no,akers612,inperson,1,1,0.983050847457627,0.974358974358974
35,McLaughlinCluster,McLaughlinCluster_mirror,-90,3,closed,closed,2.602591,0.66895,-73.93576,1.740845,894.9098,no,no,akers612,inperson,1,NaN,0.966666666666667,0.974358974358974
38,MooreLot,MooreLot_mirror,90,3,open,open,-7.905609,9.077517,80.03277,1.372437,905.2454,yes,yes,akers612,inperson,0.666666666666667,NaN,0.966666666666667,0.974358974358974
39,BakerBerryHistoric2,BakerBerryHistoric2,90,1,open,open,-7.304291,14.15621,82.01978,1.002502,908.0576,no,no,akers612,inperson,1,1,0.983050847457627,0.974358974358974
41,RollinsChapel3,RollinsChapel3,90,1,closed,closed,-4.21637,13.32113,89.88646,1.099854,914.0021,yes,yes,akers612,inperson,1,1,0.983050847457627,0.974358974358974
42,BakerBerry2nd,BakerBerry2nd,-90,1,closed,closed,0.603432,10.6404,-82.15216,1.322998,916.7173,yes,yes,akers612,inperson,1,1,0.983050847457627,0.974358974358974
43,53Commons,53Commons,90,1,open,open,-4.664215,7.711278,73.4365,1.113831,919.0421,unsure,unsure,akers612,inperson,0.666666666666667,0.666666666666667,0.983050847457627,0.974358974358974
45,BakerBerry2nd,BakerBerry2nd_mirror,90,3,open,open,-5.603271,9.335787,65.89115,1.175537,924.7921,yes,yes,akers612,inperson,1,NaN,0.966666666666667,0.974358974358974
46,NeutralUmplebys,Umplebys,-90,2,open,open,0.6185805,9.164163,-77.63245,1.169739,927.3859,na,yes,akers612,inperson,NaN,1,0.964285714285714,0.974358974358974
47,Zimmerman,Zimmerman,-90,1,closed,closed,1.782477,8.252005,-76.11636,1.085632,929.85,no,no,akers612,inperson,1,1,0.983050847457627,0.974358974358974
48,RollinsChapel3,RollinsChapel3_mirror,-90,3,open,open,0.9721691,5.00754,-72.87582,1.256775,932.5406,yes,yes,akers612,inperson,1,NaN,0.966666666666667,0.974358974358974
49,PineBackHall,PineBackHall,90,1,closed,closed,-7.906372,9.549844,69.37592,0.9464722,935.0606,no,no,akers612,inperson,0.333333333333333,0.333333333333333,0.983050847457627,0.974358974358974
50,RaunerBackHall,RaunerBackHall_mirror,90,3,open,open,-6.693085,6.615468,64.89382,1.174011,937.9889,no,no,akers612,inperson,1,NaN,0.966666666666667,0.974358974358974
51,PineEntrance,PineEntrance,-90,1,open,open,1.87014,7.210488,-75.48138,1.099976,940.6903,yes,yes,akers612,inperson,1,1,0.983050847457627,0.974358974358974
52,NeutralMcLaughlinCluster,McLaughlinCluster,-90,2,closed,closed,-0.1742859,4.687766,-72.37897,1.211548,943.4269,na,no,akers612,inperson,NaN,1,0.964285714285714,0.974358974358974
54,Neutral53Commons,53Commons,-90,2,closed,closed,0.8608454,7.029211,-77.47989,0.9049072,948.9845,na,unsure,akers612,inperson,NaN,0.666666666666667,0.964285714285714,0.974358974358974
55,Hop4,Hop4,-90,1,open,open,1.266912,7.832094,-74.58917,0.8635254,951.2542,yes,yes,akers612,inperson,1,1,0.983050847457627,0.974358974358974
