trialIdx, primeName, primeAngleYaw, targetName, targetAngleYaw, targetSide, sameScenePrime, correctResponse, response, roll, pitch, yaw, rt, timestamp
1, neutral, 0, RaunerFirst, 90, 90, 0, open, closed, -7.339142, 11.49258, 78.25819, 1.58728, 637.5928
2, neutral, 0, Hop2, 90, 90, 0, open, open, -8.607208, 11.38316, 76.68731, 1.656738, 644.8324
3, RaunerFirst, 0, RaunerFirst, -90, 90, 2, closed, closed, -10.62643, 10.77604, 70.81503, 1.197266, 649.4268
4, RaunerBackHall, 0, RaunerBackHall, -90, -90, 1, closed, closed, 4.563001, 9.68103, -79.24182, 1.364441, 653.9933
5, Fairbanks, 0, Fairbanks, -90, 90, 2, open, closed, -8.502747, 10.25313, 77.47607, 1.461853, 657.5851
6, Umplebys, 0, Umplebys, 90, -90, 2, closed, closed, 5.993465, 8.119493, -77.89966, 1.002686, 662.7366
7, BakerBerryHistoric2, 0, BakerBerryHistoric2, -90, 90, 2, closed, closed, -10.55884, 11.92468, 66.72523, 0.8911133, 666.9271
8, BakerBerryCharter, 0, BakerBerryCharter, -90, -90, 1, open, open, 4.809744, 12.09889, -85.47208, 1.266968, 670.4077
9, PineEntrance, 0, PineEntrance, 90, 90, 1, closed, closed, -11.65448, 18.38649, 79.76487, 1.239075, 674.6261
10, neutral, 0, BakerBerryCharter, 90, 90, 0, closed, closed, -9.185699, 15.57046, 83.26217, 1.058289, 678.3156
11, RaunerFirst, 0, RaunerFirst, -90, -90, 1, closed, closed, 5.295962, 11.58709, -84.70258, 0.9884033, 681.977
12, PineBackHall, 0, PineBackHall, 90, 90, 1, closed, closed, -14.7417, 17.65355, 78.84398, 1.127747, 685.1235
13, BakerBerryCharter, 0, BakerBerryCharter, -90, 90, 2, open, open, -14.10623, 11.48738, 70.89869, 1.15564, 688.98
14, Hop2, 0, Hop2, -90, -90, 1, closed, closed, 4.574093, 12.62466, -78.26727, 0.9328003, 693.101
15, MooreLot, 0, MooreLot, 90, 90, 1, open, closed, -4.225433, -0.3466492, 0.1180707, 0.09759521, 695.3427
16, Hop4, 0, Hop4, -90, 90, 2, open, open, -12.04761, 12.94843, 70.39124, 1.392456, 701.2875
17, RollinsChapel3, 0, RollinsChapel3, -90, 90, 2, open, open, -16.11844, 11.52505, 71.99099, 1.322693, 705.5615
18, neutral, 0, Hop4, 90, 90, 0, closed, closed, -13.04803, 17.20823, 79.78394, 1.058289, 709.1395
19, 53Commons, 0, 53Commons, 90, -90, 2, open, open, 3.80829, 5.135026, -73.18286, 1.280762, 713.9566
20, neutral, 0, Umplebys, -90, -90, 0, open, open, -1.23288, 5.760517, -85.16678, 1.183411, 717.1309
21, PineBackHall, 0, PineBackHall, 90, 90, 1, closed, closed, -11.14951, 8.696612, 53.25477, 0.9329224, 720.2078
22, neutral, 0, BakerBerryHistoric2, 90, 90, 0, open, open, -10.23108, 12.95044, 69.94494, 1.127869, 725.2059
23, Zimmerman, 0, Zimmerman, 90, 90, 1, open, open, -12.81348, 15.00978, 80.16119, 1.267212, 728.6029
24, Fairbanks, 0, Fairbanks, -90, -90, 1, open, open, 5.85456, 4.877371, -85.42639, 1.308716, 732.1531
25, Zimmerman, 0, Zimmerman, 90, 90, 1, open, open, -11.08368, 10.00048, 78.7217, 1.350647, 735.4806
26, Maynard, 0, Maynard, 90, -90, 2, closed, closed, 4.661911, 7.430166, -77.98102, 1.030273, 737.9169
27, McLaughlinCluster, 0, McLaughlinCluster, 90, -90, 2, open, closed, 5.042303, 8.877675, -79.89459, 1.183411, 741.2723
28, MooreLot, 0, MooreLot, 90, -90, 2, open, closed, 4.674824, 10.08503, -81.26456, 1.322754, 744.0567
29, neutral, 0, Zimmerman, -90, -90, 0, closed, closed, 5.617507, 6.124167, -91.35016, 1.294739, 748.0385
30, RaunerBackHall, 0, RaunerBackHall, -90, 90, 2, closed, closed, -18.00281, 19.00683, 70.74686, 1.239136, 750.8786
31, Maynard, 0, Maynard, 90, 90, 1, closed, closed, -13.24615, 10.06978, 70.64269, 1.211487, 754.2478
32, 53Commons, 0, 53Commons, 90, 90, 1, open, open, -16.54532, 14.61481, 79.85775, 1.267029, 757.5892
33, neutral, 0, Fairbanks, 90, 90, 0, closed, closed, -12.37338, 10.03293, 76.12427, 1.5177, 760.9445
34, Hop2, 0, Hop2, -90, 90, 2, closed, closed, -13.44421, 15.241, 68.9725, 0.9606323, 763.9517
35, neutral, 0, 53Commons, -90, -90, 0, closed, closed, 5.425467, 5.848299, -88.45139, 1.211304, 784.7238
36, MooreLot, 0, MooreLot, 90, 90, 1, open, closed, -7.624054, 5.902698, 74.37203, 1.266785, 788.3157
37, AllenSt, 0, AllenSt, 90, 90, 1, closed, closed, -14.72653, 8.335268, 66.29008, 1.127808, 790.7661
38, BakerBerryCharter, 0, BakerBerryCharter, -90, -90, 1, open, open, 5.9265, 9.361213, -89.14706, 1.072021, 794.1213
39, PineEntrance, 0, PineEntrance, 90, 90, 1, closed, closed, -12.54181, 15.81012, 70.26651, 1.044495, 796.7947
40, RaunerBackHall, 0, RaunerBackHall, -90, -90, 1, closed, closed, 6.781928, 7.620112, -80.82175, 0.7937622, 799.4954
41, Fairbanks, 0, Fairbanks, -90, -90, 1, open, closed, -1.653687, 1.435363, -31.01758, 0.4038086, 801.3192
42, neutral, 0, PineEntrance, -90, -90, 0, open, open, 5.447257, 6.932247, -88.96939, 1.322754, 805.3985
43, BakerBerry2nd, 0, BakerBerry2nd, -90, -90, 1, closed, closed, 4.965357, 8.061082, -84.85236, 0.8631592, 808.4753
44, 53Commons, 0, 53Commons, 90, 90, 1, open, open, -11.77023, 9.53035, 68.72897, 1.197388, 811.0648
45, AllenSt, 0, AllenSt, 90, -90, 2, closed, closed, 7.601978, 5.693356, -77.7923, 0.9885864, 813.5012
46, neutral, 0, BakerBerry2nd, 90, 90, 0, open, open, -13.73569, 11.84833, 67.64315, 1.197388, 816.1326
47, RollinsChapel3, 0, RollinsChapel3, -90, -90, 1, open, open, 4.252461, 4.146303, -76.35864, 0.9050293, 818.903
48, BakerBerry2nd, 0, BakerBerry2nd, -90, 90, 2, closed, closed, -7.397247, 13.76208, 77.09227, 1.559326, 821.7709
49, McLaughlinCluster, 0, McLaughlinCluster, 90, 90, 1, open, closed, -10.6694, 14.71153, 64.09644, 1.629028, 825.015
50, BakerBerry2nd, 0, BakerBerry2nd, -90, -90, 1, closed, closed, 5.46443, 10.15633, -75.8064, 0.9049683, 827.8969
51, RaunerFirst, 0, RaunerFirst, -90, -90, 1, closed, closed, -6.042023, 3.613619, -4.124969, 0.1670532, 830.5561
52, McLaughlinCluster, 0, McLaughlinCluster, 90, 90, 1, open, closed, -12.10986, 12.14486, 41.63381, 1.935181, 834.7604
53, neutral, 0, PineBackHall, -90, -90, 0, open, closed, 6.817905, 12.96466, -91.66623, 1.350403, 837.7398
54, neutral, 0, RollinsChapel3, 90, 90, 0, closed, closed, -8.810577, 19.11609, 62.51664, 1.280823, 840.8167
55, neutral, 0, MooreLot, -90, -90, 0, closed, closed, 3.66296, 6.780788, -93.05072, 0.9606934, 843.3366
56, AllenSt, 0, AllenSt, 90, 90, 1, closed, closed, -9.736725, 17.69967, 61.10003, 1.085938, 846.1071
57, Hop4, 0, Hop4, -90, -90, 1, open, open, 4.875319, 8.509835, -84.02899, 0.9607544, 848.7942
58, neutral, 0, Maynard, -90, -90, 0, open, open, 5.893907, 7.647377, -87.80927, 1.33667, 851.6066
59, Zimmerman, 0, Zimmerman, 90, -90, 2, open, open, 4.189546, 6.984118, -77.56958, 1.364441, 854.5163
60, BakerBerryHistoric2, 0, BakerBerryHistoric2, -90, -90, 1, closed, closed, 6.795462, 8.207816, -88.81885, 0.9467773, 857.0362
61, neutral, 0, AllenSt, -90, -90, 0, open, open, 3.768432, 4.837178, -88.62479, 1.211365, 860.6838
62, neutral, 0, McLaughlinCluster, -90, -90, 0, closed, closed, 3.216748, 6.129055, -82.86371, 1.058228, 863.1343
63, Hop2, 0, Hop2, -90, -90, 1, closed, closed, 5.23503, 5.876052, -83.9408, 1.030273, 866.3781
64, Umplebys, 0, Umplebys, 90, 90, 1, closed, closed, -7.076721, 7.957067, 53.26626, 1.461243, 869.5663
65, RollinsChapel3, 0, RollinsChapel3, -90, -90, 1, open, open, 3.856223, 7.273643, -82.06561, 0.9888916, 872.3093
66, neutral, 0, RaunerBackHall, 90, 90, 0, open, open, -13.70694, 8.344765, 71.54366, 1.211487, 875.1492
67, PineEntrance, 0, PineEntrance, 90, -90, 2, closed, closed, 3.794487, 6.096642, -80.53104, 0.9606934, 877.7387
68, BakerBerryHistoric2, 0, BakerBerryHistoric2, -90, -90, 1, closed, closed, 5.677773, 6.420249, -68.73013, 1.350525, 880.7459
69, Maynard, 0, Maynard, 90, 90, 1, closed, closed, -8.787903, 13.6843, 70.44202, 1.322754, 883.8089
70, Umplebys, 0, Umplebys, 90, 90, 1, closed, closed, -7.035461, 9.502853, 59.58157, 1.197266, 887.0804
71, Hop4, 0, Hop4, -90, -90, 1, open, open, 3.573734, 8.067859, -85.71628, 0.8491821, 898.8867
72, PineBackHall, 0, PineBackHall, 90, -90, 2, closed, closed, 4.981894, 8.771995, -82.34299, 0.8771973, 900.975
73, Fairbanks, 0, Fairbanks, 90, 90, 1, closed, closed, -7.442108, 7.443548, 67.29524, 1.531311, 904.0239
74, Hop2, 0, Hop2, 90, 90, 1, open, open, -6.09137, 10.5414, 68.78809, 1.406128, 906.9478
75, AllenSt, 0, AllenSt, -90, -90, 1, open, open, 2.15043, 5.030397, -85.68192, 1.002563, 909.7601
76, neutral, 0, Umplebys, 90, 90, 0, closed, closed, -11.5863, 12.52554, 69.64687, 1.127869, 912.0989
77, McLaughlinCluster, 0, McLaughlinCluster, -90, -90, 1, closed, closed, 3.880337, 3.652416, -76.96756, 0.9468384, 914.5214
78, Maynard, 0, Maynard, -90, -90, 1, open, open, 3.549403, 4.331423, -86.39343, 1.211243, 917.2641
79, neutral, 0, PineBackHall, 90, 90, 0, closed, closed, -7.777283, 5.831113, 51.19721, 1.629028, 920.2156
80, McLaughlinCluster, 0, McLaughlinCluster, -90, -90, 1, closed, closed, 3.245966, 5.050745, -86.78384, 0.9327393, 922.5128
81, Zimmerman, 0, Zimmerman, -90, -90, 1, closed, closed, 2.144219, 3.358843, -88.89215, 1.085876, 924.9911
82, neutral, 0, BakerBerryCharter, -90, -90, 0, open, open, 5.18875, 12.26441, -87.17566, 1.350525, 927.9426
83, neutral, 0, MooreLot, 90, 90, 0, open, closed, -11.33167, 14.11903, 69.86664, 1.294861, 930.5181
84, PineEntrance, 0, PineEntrance, -90, 90, 2, open, closed, -1.281799, 3.327202, -32.43173, 0.1950684, 932.3002
85, Fairbanks, 0, Fairbanks, 90, 90, 1, closed, closed, -6.556366, 9.861436, 69.56841, 1.280884, 935.5859
86, neutral, 0, PineEntrance, 90, 90, 0, closed, closed, -12.28079, 16.7241, 65.98466, 1.211548, 938.468
87, BakerBerryHistoric2, 0, BakerBerryHistoric2, 90, -90, 2, open, open, 3.902394, 12.46236, -81.0466, 0.9608154, 941.0714
88, RaunerFirst, 0, RaunerFirst, 90, 90, 1, open, open, -11.93622, 15.06644, 69.8885, 1.322876, 943.9811
89, PineBackHall, 0, PineBackHall, -90, -90, 1, open, open, 1.960629, 10.5113, -85.85287, 0.9608154, 947.3781
90, Hop4, 0, Hop4, 90, 90, 1, closed, closed, -11.30573, 14.1923, 66.7956, 1.2948, 950.622
91, 53Commons, 0, 53Commons, -90, -90, 1, closed, closed, 2.235398, 8.357994, -78.69519, 1.00238, 953.1558
92, neutral, 0, BakerBerry2nd, -90, -90, 0, closed, closed, 1.442274, 11.14256, -86.27484, 1.100098, 955.9265
93, PineBackHall, 0, PineBackHall, -90, -90, 1, open, open, 5.803859, 11.12927, -84.91235, 0.8770752, 958.3627
94, Maynard, 0, Maynard, -90, 90, 2, open, open, -13.49283, 14.10163, 58.64806, 1.336609, 961.5928
95, neutral, 0, RaunerFirst, -90, -90, 0, closed, closed, 5.754314, 10.0549, -84.42419, 0.9329224, 963.9596
96, RollinsChapel3, 0, RollinsChapel3, 90, 90, 1, closed, closed, -14.63528, 17.54593, 64.1676, 1.169495, 966.6188
97, neutral, 0, AllenSt, 90, 90, 0, closed, closed, -15.24203, 7.714134, 65.24879, 1.281006, 969.5424
98, PineEntrance, 0, PineEntrance, -90, -90, 1, open, closed, 1.700005, 13.70786, -46.88971, 2.074768, 973.246
99, RollinsChapel3, 0, RollinsChapel3, 90, 90, 1, closed, closed, -12.53723, 13.59599, 61.57523, 1.156555, 976.3651
100, BakerBerryHistoric2, 0, BakerBerryHistoric2, 90, 90, 1, open, open, -9.639557, 21.18031, 64.90481, 1.475769, 979.5803
101, Umplebys, 0, Umplebys, -90, 90, 2, open, open, -12.61588, 7.847042, 60.02182, 1.461853, 982.866
102, BakerBerry2nd, 0, BakerBerry2nd, 90, 90, 1, open, open, -11.45517, 13.15862, 67.62015, 1.197327, 985.4695
103, Hop4, 0, Hop4, 90, -90, 2, closed, closed, 6.480759, 6.817199, -77.96225, 1.26709, 988.7831
104, RollinsChapel3, 0, RollinsChapel3, 90, -90, 2, closed, closed, 10.65737, 15.54669, -79.24542, 1.266968, 991.9712
105, RaunerBackHall, 0, RaunerBackHall, 90, 90, 1, open, open, -9.640289, 14.24697, 67.98737, 1.155701, 994.533
106, Hop2, 0, Hop2, 90, -90, 2, open, open, 4.429594, 6.734715, -73.65485, 1.169556, 997.4427
107, RaunerFirst, 0, RaunerFirst, 90, 90, 1, open, open, -8.298859, 12.71306, 64.62344, 1.016541, 1019.51
108, PineBackHall, 0, PineBackHall, -90, 90, 2, open, open, -11.10971, 14.44321, 58.89281, 1.239136, 1022.155
109, neutral, 0, RollinsChapel3, -90, -90, 0, open, open, -1.60968, 6.700823, -76.01996, 1.253113, 1024.758
110, PineEntrance, 0, PineEntrance, -90, -90, 1, open, closed, -5.218292, 2.28769, -1.745972, 0.1950684, 1026.332
111, BakerBerryHistoric2, 0, BakerBerryHistoric2, 90, 90, 1, open, open, -12.88605, 15.1757, 64.8835, 1.183594, 1029.478
112, BakerBerryCharter, 0, BakerBerryCharter, 90, 90, 1, closed, closed, -15.74744, 8.228044, 70.33388, 1.23877, 1032.36
113, neutral, 0, Zimmerman, 90, 90, 0, open, open, -11.35858, 8.922255, 67.15768, 1.294922, 1035.033
114, 53Commons, 0, 53Commons, -90, -90, 1, closed, closed, 1.756899, 9.017649, -77.50952, 0.8911133, 1037.386
115, Zimmerman, 0, Zimmerman, -90, 90, 2, closed, closed, -11.47479, 9.036474, 62.66405, 1.15564, 1040.129
116, Fairbanks, 0, Fairbanks, 90, -90, 2, closed, closed, 3.474226, 6.109069, -75.62225, 0.9605713, 1042.802
117, RaunerBackHall, 0, RaunerBackHall, 90, -90, 2, open, closed, 0.323161, 1.752386, -43.12161, 0.5013428, 1044.959
118, neutral, 0, 53Commons, 90, 90, 0, open, open, -12.48907, 15.82075, 62.95078, 1.294922, 1048.12
119, Maynard, 0, Maynard, -90, -90, 1, open, open, 3.047254, 7.810907, -76.83398, 1.308838, 1050.807
120, neutral, 0, Fairbanks, -90, -90, 0, open, closed, 4.241285, 5.207989, -81.06738, 1.378418, 1054.037
121, McLaughlinCluster, 0, McLaughlinCluster, -90, 90, 2, closed, closed, -19.17673, 11.25506, 63.18655, 1.044312, 1056.487
122, AllenSt, 0, AllenSt, -90, -90, 1, open, open, 4.990663, 10.74321, -79.50723, 1.016357, 1059.021
123, MooreLot, 0, MooreLot, -90, -90, 1, closed, closed, 3.375401, 6.438354, -80.81372, 0.9190674, 1061.499
124, Hop4, 0, Hop4, 90, 90, 1, closed, closed, -7.95639, 15.21826, 63.74293, 1.26709, 1064.423
125, BakerBerry2nd, 0, BakerBerry2nd, 90, -90, 2, open, open, 5.304818, 7.908726, -73.1861, 1.058105, 1066.901
126, Umplebys, 0, Umplebys, -90, -90, 1, open, open, 2.540296, 5.422863, -81.77463, 1.294922, 1069.825
127, RaunerBackHall, 0, RaunerBackHall, 90, 90, 1, open, open, -15.65903, 10.71018, 68.63625, 1.462036, 1072.93
128, MooreLot, 0, MooreLot, -90, 90, 2, closed, closed, -14.41599, 11.69086, 65.59022, 1.169556, 1076.285
129, neutral, 0, Hop2, -90, -90, 0, closed, closed, 5.105194, 8.921824, -80.76764, 1.08606, 1078.986
130, neutral, 0, McLaughlinCluster, 90, 90, 0, open, closed, -7.278534, 3.716277, 1.675635, 0.01391602, 1080.559
131, neutral, 0, Hop4, -90, -90, 0, open, open, 8.86106, 10.95515, -76.37924, 1.239258, 1084.652
132, MooreLot, 0, MooreLot, -90, -90, 1, closed, closed, 5.09947, 9.019145, -74.81732, 1.294922, 1087.604
133, Umplebys, 0, Umplebys, -90, -90, 1, open, open, 2.537196, 4.676158, -76.84943, 1.05835, 1090.235
134, neutral, 0, RaunerBackHall, -90, -90, 0, closed, closed, 5.397266, 9.035354, -80.54761, 1.141724, 1093.089
135, Hop2, 0, Hop2, 90, 90, 1, open, open, -7.929779, 9.76269, 65.11909, 1.545166, 1096.068
136, 53Commons, 0, 53Commons, -90, 90, 2, closed, closed, -8.841827, 4.946002, 61.83143, 1.099976, 1099.048
137, BakerBerryCharter, 0, BakerBerryCharter, 90, -90, 2, closed, closed, 7.084722, 8.517361, -79.00131, 1.099854, 1102.361
138, RaunerFirst, 0, RaunerFirst, 90, -90, 2, open, open, 7.152533, 7.503033, -79.2446, 1.15564, 1105.438
139, BakerBerry2nd, 0, BakerBerry2nd, 90, 90, 1, open, open, -12.70978, 7.65091, 61.1208, 1.280762, 1108.306
140, AllenSt, 0, AllenSt, -90, 90, 2, open, open, -10.24094, 8.685372, 60.86621, 1.308838, 1110.938
141, neutral, 0, Maynard, 90, 90, 0, closed, closed, -12.9017, 3.222411, 56.08013, 1.36438, 1113.833
142, BakerBerryCharter, 0, BakerBerryCharter, 90, 90, 1, closed, closed, -11.12256, 4.99447, 58.08369, 1.044189, 1116.673
143, Zimmerman, 0, Zimmerman, -90, -90, 1, closed, closed, 3.446326, 8.774956, -78.95276, 1.016479, 1119.235
144, neutral, 0, BakerBerryHistoric2, -90, -90, 0, closed, closed, 4.720546, 10.6576, -84.32526, 1.016479, 1122.089
