trialIdx, primeName, primeAngleYaw, targetName, targetAngleYaw, targetSide, sameScenePrime, correctResponse, response, roll, pitch, yaw, rt, timestamp
1, neutral, 0, RaunerFirst, 90, 90, 0, open, open, -4.897095, 7.679038, 74.03421, 1.768494, 737.6581
2, neutral, 0, Hop2, 90, 90, 0, open, open, -5.621124, 7.336152, 80.32294, 1.141663, 745.8859
3, RaunerFirst, 0, RaunerFirst, -90, 90, 2, closed, closed, -5.273499, 4.725876, 64.86104, 1.489685, 750.9258
4, RaunerBackHall, 0, RaunerBackHall, -90, -90, 1, closed, closed, 0.9362465, 3.584601, -55.01984, 1.002502, 755.8405
5, Fairbanks, 0, Fairbanks, -90, 90, 2, open, open, -6.828796, 2.674512, 64.24004, 1.364502, 760.1285
6, Umplebys, 0, Umplebys, 90, -90, 2, closed, closed, 1.282083, -2.434631, -27.6683, 0.7658081, 762.4534
7, BakerBerryHistoric2, 0, BakerBerryHistoric2, -90, 90, 2, closed, closed, -5.627014, 1.493604, 60.79904, 0.7518921, 764.876
8, BakerBerryCharter, 0, BakerBerryCharter, -90, -90, 1, open, closed, -0.6308899, -2.548401, -5.075073, 0.7937622, 767.3404
9, PineEntrance, 0, PineEntrance, 90, 90, 1, closed, closed, -5.124512, 3.317288, 59.88147, 1.099854, 770.3892
10, neutral, 0, BakerBerryCharter, 90, 90, 0, closed, closed, -5.029419, 3.805261, 64.20853, 0.765625, 772.6446
11, RaunerFirst, 0, RaunerFirst, -90, -90, 1, closed, closed, -0.2332153, 2.108593, -26.85086, 1.002441, 774.9139
12, PineBackHall, 0, PineBackHall, 90, 90, 1, closed, closed, -4.638641, 5.530198, 52.75244, 0.9747925, 777.3643
13, BakerBerryCharter, 0, BakerBerryCharter, -90, 90, 2, open, open, -4.724243, 4.685443, 58.90689, 0.765625, 779.369
14, Hop2, 0, Hop2, -90, -90, 1, closed, closed, -1.733215, 1.494069, -20.09869, 0.7519531, 781.3739
15, MooreLot, 0, MooreLot, 90, 90, 1, open, open, -3.826752, 6.770633, 64.32415, 1.058105, 783.7825
16, Hop4, 0, Hop4, -90, 90, 2, open, open, -3.801727, 7.402227, 65.31915, 1.030334, 786.2328
17, RollinsChapel3, 0, RollinsChapel3, -90, 90, 2, open, open, -5.034729, 7.272576, 66.26638, 0.9885864, 788.4604
18, neutral, 0, Hop4, 90, 90, 0, closed, closed, -5.021973, 6.826941, 65.70508, 0.7522583, 790.4376
19, 53Commons, 0, 53Commons, 90, -90, 2, open, open, -0.7159729, 5.126391, -50.81802, 1.712463, 793.347
20, neutral, 0, Umplebys, -90, -90, 0, open, open, -0.646759, 7.977984, -54.06738, 1.169495, 795.686
21, PineBackHall, 0, PineBackHall, 90, 90, 1, closed, closed, -2.239807, 3.71389, 20.49224, 0.5986938, 797.468
22, neutral, 0, BakerBerryHistoric2, 90, 90, 0, open, open, -5.515503, 8.436502, 65.60794, 0.9188843, 799.6678
23, Zimmerman, 0, Zimmerman, 90, 90, 1, open, open, -5.286682, 6.997864, 67.0735, 0.7797852, 801.7562
24, Fairbanks, 0, Fairbanks, -90, -90, 1, open, open, 0.9783927, 5.612571, -55.67365, 0.9608765, 803.9699
25, Zimmerman, 0, Zimmerman, 90, 90, 1, open, open, -5.856079, 3.392522, 65.7159, 0.6126099, 805.7936
26, Maynard, 0, Maynard, 90, -90, 2, closed, closed, 1.38264, 4.812696, -47.80569, 1.04425, 808.0351
27, McLaughlinCluster, 0, McLaughlinCluster, 90, -90, 2, open, open, 0.1439009, 10.27724, -62.35544, 1.935425, 811.3904
28, MooreLot, 0, MooreLot, 90, -90, 2, open, open, 2.057595, 6.662955, -55.89417, 1.04425, 813.8686
29, neutral, 0, Zimmerman, -90, -90, 0, closed, open, 1.274385, 12.91703, -73.45392, 1.559387, 816.7644
30, RaunerBackHall, 0, RaunerBackHall, -90, 90, 2, closed, closed, -7.984406, 10.64163, 59.9118, 0.8074951, 818.978
31, Maynard, 0, Maynard, 90, 90, 1, closed, closed, -5.089355, 8.138267, 62.35683, 1.141785, 821.4006
32, 53Commons, 0, 53Commons, 90, 90, 1, open, open, -8.044952, 8.03484, 72.99747, 0.8493042, 823.5446
33, neutral, 0, Fairbanks, 90, 90, 0, closed, open, -7.402374, 8.647897, 71.33922, 1.294861, 826.0645
34, Hop2, 0, Hop2, -90, 90, 2, closed, closed, -3.933319, 9.430466, 65.64737, 0.8641968, 828.2652
35, neutral, 0, 53Commons, -90, -90, 0, closed, open, -0.6559143, 4.423157, -61.49374, 0.9050293, 857.4037
36, MooreLot, 0, MooreLot, 90, 90, 1, open, open, -2.877991, 6.968299, 61.28429, 1.016541, 859.7427
37, AllenSt, 0, AllenSt, 90, 90, 1, closed, closed, -2.729553, 5.697691, 51.65195, 0.6821899, 861.7056
38, BakerBerryCharter, 0, BakerBerryCharter, -90, -90, 1, open, closed, -2.043457, 2.808433, -7.927917, 0.5431519, 863.5713
39, PineEntrance, 0, PineEntrance, 90, 90, 1, closed, closed, -3.889893, 6.704249, 62.61143, 0.7657471, 865.5482
40, RaunerBackHall, 0, RaunerBackHall, -90, -90, 1, closed, closed, -0.06533813, 5.514507, -32.88583, 0.8076172, 867.553
41, Fairbanks, 0, Fairbanks, -90, -90, 1, open, open, 0.8142041, 3.573213, -47.85754, 0.723999, 869.5161
42, neutral, 0, PineEntrance, -90, -90, 0, open, open, 3.424567, 7.642897, -66.61176, 1.085999, 871.8272
43, BakerBerry2nd, 0, BakerBerry2nd, -90, -90, 1, closed, open, 2.988848, 9.26782, -63.70551, 1.030273, 874.1661
44, 53Commons, 0, 53Commons, 90, 90, 1, open, open, -8.181305, 6.806685, 70.29265, 0.8493042, 876.7974
45, AllenSt, 0, AllenSt, 90, -90, 2, closed, closed, 2.418712, 6.905099, -56.3363, 0.9467773, 879.0807
45, AllenSt, 0, AllenSt, 90, -90, 2, closed, closed, 2.418712, 6.905099, -56.3363, 0.9467773, 879.0807
46, neutral, 0, BakerBerry2nd, 90, 90, 0, open, open, -4.683716, 9.474364, 66.39436, 1.183533, 881.6007
47, RollinsChapel3, 0, RollinsChapel3, -90, -90, 1, open, open, 0.9301317, 4.993478, -58.27716, 1.038391, 883.8641
48, BakerBerry2nd, 0, BakerBerry2nd, -90, 90, 2, closed, closed, -7.110748, 4.230796, 50.43068, 0.9059448, 886.3607
46, neutral, 0, BakerBerry2nd, 90, 90, 0, open, open, -4.683716, 9.474364, 66.39436, 1.183533, 881.6007
47, RollinsChapel3, 0, RollinsChapel3, -90, -90, 1, open, open, 0.9301317, 4.993478, -58.27716, 1.038391, 883.8641
49, McLaughlinCluster, 0, McLaughlinCluster, 90, 90, 1, open, open, -6.736664, 13.87283, 68.14703, 2.033081, 889.8282
48, BakerBerry2nd, 0, BakerBerry2nd, -90, 90, 2, closed, closed, -7.110748, 4.230796, 50.43068, 0.9059448, 886.3607
50, BakerBerry2nd, 0, BakerBerry2nd, -90, -90, 1, closed, closed, 3.353527, 8.44303, -54.57593, 0.8491821, 892.1536
47, RollinsChapel3, 0, RollinsChapel3, -90, -90, 1, open, open, 0.9301317, 4.993478, -58.27716, 1.038391, 883.8641
51, RaunerFirst, 0, RaunerFirst, -90, -90, 1, closed, closed, 0.9400853, 7.057689, -44.57745, 1.127808, 894.6599
52, McLaughlinCluster, 0, McLaughlinCluster, 90, 90, 1, open, open, -7.332855, 9.637195, 57.98611, 0.8079224, 896.8737
53, neutral, 0, PineBackHall, -90, -90, 0, open, open, 2.690007, 13.67896, -80.30389, 1.336609, 900.0894
54, neutral, 0, RollinsChapel3, 90, 90, 0, closed, open, -4.780487, 16.40891, 70.12057, 1.711975, 904.4749
55, neutral, 0, MooreLot, -90, -90, 0, closed, closed, 0.5408295, 10.81169, -64.50601, 1.099792, 906.9252
56, AllenSt, 0, AllenSt, 90, 90, 1, closed, closed, -6.699738, 10.7483, 56.10619, 0.737915, 909.0693
57, Hop4, 0, Hop4, -90, -90, 1, open, open, 3.662646, 10.09582, -61.25418, 0.8911743, 911.3387
58, neutral, 0, Maynard, -90, -90, 0, open, open, 2.03763, 8.023172, -62.12988, 0.9885254, 913.7194
59, Zimmerman, 0, Zimmerman, 90, -90, 2, open, open, 1.491526, 7.93258, -57.47095, 0.9885254, 916.0723
60, BakerBerryHistoric2, 0, BakerBerryHistoric2, -90, -90, 1, closed, closed, -0.6560364, 6.58885, -32.82864, 0.789978, 918.2858
61, neutral, 0, AllenSt, -90, -90, 0, open, open, 1.652005, 8.60859, -66.19498, 1.169556, 920.9312
62, neutral, 0, McLaughlinCluster, -90, -90, 0, closed, closed, -0.4334412, 8.704345, -59.61765, 0.9469604, 923.2701
63, Hop2, 0, Hop2, -90, -90, 1, closed, closed, -0.2493591, 8.078627, -46.72433, 0.7657471, 925.3862
64, Umplebys, 0, Umplebys, 90, 90, 1, closed, closed, -4.745789, 11.38545, 49.4994, 1.058167, 927.8365
65, RollinsChapel3, 0, RollinsChapel3, -90, -90, 1, open, open, 1.43552, 7.454697, -61.28345, 0.8911133, 930.1338
66, neutral, 0, RaunerBackHall, 90, 90, 0, open, open, -3.764465, 12.91997, 58.26051, 1.281128, 932.9601
67, PineEntrance, 0, PineEntrance, 90, -90, 2, closed, closed, -0.6343384, 7.032094, -31.9104, 0.6126099, 934.9231
68, BakerBerryHistoric2, 0, BakerBerryHistoric2, -90, -90, 1, closed, closed, -2.093018, 5.441812, -20.69086, 0.6542969, 937.081
69, Maynard, 0, Maynard, 90, 90, 1, closed, open, -2.480865, 5.890213, 12.29173, 0.5430298, 939.0162
70, Umplebys, 0, Umplebys, 90, 90, 1, closed, closed, -1.865265, 8.734021, 38.04292, 0.6681519, 941.3551
71, Hop4, 0, Hop4, -90, -90, 1, open, open, -0.4492188, 6.016899, -51.91757, 0.7241211, 950.3769
72, PineBackHall, 0, PineBackHall, 90, -90, 2, closed, closed, -0.830719, 6.270711, -33.70566, 0.7380981, 952.4793
73, Fairbanks, 0, Fairbanks, 90, 90, 1, closed, open, -5.386383, 8.176045, 42.80527, 0.8494263, 954.6789
74, Hop2, 0, Hop2, 90, 90, 1, open, open, -4.254395, 6.113297, 27.35552, 0.696106, 956.6558
75, AllenSt, 0, AllenSt, -90, -90, 1, open, open, 1.297639, 5.985697, -53.18674, 0.7935791, 958.7998
76, neutral, 0, Umplebys, 90, 90, 0, closed, closed, -4.878418, 9.576106, 49.1742, 0.710144, 960.7769
77, McLaughlinCluster, 0, McLaughlinCluster, -90, -90, 1, closed, closed, 2.489989, 8.482923, -54.97406, 1.601135, 963.6309
78, Maynard, 0, Maynard, -90, -90, 1, open, open, -2.282562, 5.557241, -16.37845, 0.6124878, 966.1089
79, neutral, 0, PineBackHall, 90, 90, 0, closed, closed, -4.807281, 10.33549, 48.67696, 0.7518921, 968.4062
80, McLaughlinCluster, 0, McLaughlinCluster, -90, -90, 1, closed, closed, 2.611373, 7.931276, -60.34003, 0.9606934, 970.6756
81, Zimmerman, 0, Zimmerman, -90, -90, 1, closed, open, 0.5329236, 13.42472, -62.70428, 1.489746, 973.446
82, neutral, 0, BakerBerryCharter, -90, -90, 0, open, closed, 0.02434458, 10.5563, -55.32626, 0.682251, 975.4926
83, neutral, 0, MooreLot, 90, 90, 0, open, open, -3.089264, 15.5252, 63.35867, 1.141846, 978.6113
84, PineEntrance, 0, PineEntrance, -90, 90, 2, open, open, -3.047852, 13.4527, 59.06135, 0.9887695, 981.0477
85, Fairbanks, 0, Fairbanks, 90, 90, 1, closed, open, -3.287842, 10.34679, 59.05021, 0.8075562, 983.2752
86, neutral, 0, PineEntrance, 90, 90, 0, closed, closed, -5.277985, 10.04973, 47.38116, 0.7799072, 985.3079
87, BakerBerryHistoric2, 0, BakerBerryHistoric2, 90, -90, 2, open, closed, -1.671631, 5.03958, -30.88123, 0.5847778, 987.2849
88, RaunerFirst, 0, RaunerFirst, 90, 90, 1, open, open, -7.526276, 9.358358, 58.52322, 1.155518, 990.5009
89, PineBackHall, 0, PineBackHall, -90, -90, 1, open, open, 6.002197, 10.96146, -61.27264, 0.9747314, 992.7982
90, Hop4, 0, Hop4, 90, 90, 1, closed, closed, -5.083313, 7.200348, 22.81912, 0.8075562, 994.9142
91, 53Commons, 0, 53Commons, -90, -90, 1, closed, open, 4.141182, 11.07441, -63.62274, 1.044312, 997.309
92, neutral, 0, BakerBerry2nd, -90, -90, 0, closed, closed, 0.8743138, 9.901167, -50.62918, 1.100159, 999.7178
93, PineBackHall, 0, PineBackHall, -90, -90, 1, open, open, 1.588383, 13.29181, -68.034, 0.9050293, 1002.001
94, Maynard, 0, Maynard, -90, 90, 2, open, open, -5.188293, 11.59339, 48.52895, 0.9744873, 1004.312
95, neutral, 0, RaunerFirst, -90, -90, 0, closed, closed, 1.211841, 11.31246, -65.61453, 0.7937012, 1006.386
96, RollinsChapel3, 0, RollinsChapel3, 90, 90, 1, closed, open, -3.138824, 15.63805, 64.56016, 0.8771362, 1008.697
97, neutral, 0, AllenSt, 90, 90, 0, closed, closed, -4.582825, 13.51632, 59.83863, 1.07196, 1011.092
98, PineEntrance, 0, PineEntrance, -90, -90, 1, open, open, 0.6897272, 13.95611, -73.87854, 1.155701, 1013.584
99, RollinsChapel3, 0, RollinsChapel3, 90, 90, 1, closed, open, -6.857605, 17.37007, 67.76839, 1.016357, 1015.881
100, BakerBerryHistoric2, 0, BakerBerryHistoric2, 90, 90, 1, open, open, -4.056366, 19.13156, 61.06609, 1.044189, 1018.29
101, Umplebys, 0, Umplebys, -90, 90, 2, open, open, -6.932159, 12.26772, 57.98568, 0.8217773, 1020.448
102, BakerBerry2nd, 0, BakerBerry2nd, 90, 90, 1, open, open, -6.712341, 8.915341, 47.75373, 0.7935791, 1022.578
103, Hop4, 0, Hop4, 90, -90, 2, closed, closed, 5.343402, 12.16026, -56.57385, 1.266907, 1025.126
104, RollinsChapel3, 0, RollinsChapel3, 90, -90, 2, closed, open, 4.735734, 10.05015, -57.84598, 1.336548, 1028.564
105, RaunerBackHall, 0, RaunerBackHall, 90, 90, 1, open, open, -7.702545, 11.13099, 57.24973, 0.8771973, 1031.154
106, Hop2, 0, Hop2, 90, -90, 2, open, closed, 1.368326, 6.569155, -38.71094, 0.8077393, 1033.229
107, RaunerFirst, 0, RaunerFirst, 90, 90, 1, open, open, -7.538757, 9.275019, 53.2433, 1.33667, 1041.554
108, PineBackHall, 0, PineBackHall, -90, 90, 2, open, open, -10.52359, 8.037423, 56.91997, 0.8725586, 1043.693
109, neutral, 0, RollinsChapel3, -90, -90, 0, open, open, 0.4833301, 6.845255, -56.98203, 1.323242, 1047.039
110, PineEntrance, 0, PineEntrance, -90, -90, 1, open, open, 1.93883, 5.132331, -28.93268, 0.8911133, 1049.337
111, BakerBerryHistoric2, 0, BakerBerryHistoric2, 90, 90, 1, open, open, -4.801819, 7.42465, 10.91267, 0.8216553, 1051.481
112, BakerBerryCharter, 0, BakerBerryCharter, 90, 90, 1, closed, closed, -6.255859, 15.63154, 53.00434, 1.070679, 1053.903
113, neutral, 0, Zimmerman, 90, 90, 0, open, open, -5.61618, 13.62722, 61.25463, 0.9885254, 1056.228
114, 53Commons, 0, 53Commons, -90, -90, 1, closed, closed, 1.399637, 11.89328, -38.83322, 0.8911133, 1058.344
115, Zimmerman, 0, Zimmerman, -90, 90, 2, closed, open, -5.256317, 13.49241, 41.73078, 1.977051, 1061.616
116, Fairbanks, 0, Fairbanks, 90, -90, 2, closed, open, 2.273215, 10.59182, -48.50885, 1.392334, 1064.345
117, RaunerBackHall, 0, RaunerBackHall, 90, -90, 2, open, open, 0.608749, 11.01667, -51.47668, 1.085938, 1066.725
118, neutral, 0, 53Commons, 90, 90, 0, open, open, -4.881256, 12.722, 65.20031, 1.058105, 1069.051
119, Maynard, 0, Maynard, -90, -90, 1, open, open, 2.696052, 10.16227, -58.58582, 0.8493652, 1071.167
120, neutral, 0, Fairbanks, -90, -90, 0, open, open, 1.908191, 10.95536, -60.51712, 0.9885254, 1073.394
121, McLaughlinCluster, 0, McLaughlinCluster, -90, 90, 2, closed, closed, -5.434509, 13.49946, 56.8004, 0.9050293, 1075.51
122, AllenSt, 0, AllenSt, -90, -90, 1, open, open, 3.118807, 11.36369, -65.76904, 0.8493652, 1077.71
123, MooreLot, 0, MooreLot, -90, -90, 1, closed, closed, 2.096984, 10.50039, -60.92844, 1.044189, 1079.98
124, Hop4, 0, Hop4, 90, 90, 1, closed, closed, -3.374573, 8.309686, 12.94812, 0.7519531, 1082.124
125, BakerBerry2nd, 0, BakerBerry2nd, 90, -90, 2, open, open, 0.7401221, 11.1956, -49.29681, 1.225952, 1084.909
126, Umplebys, 0, Umplebys, -90, -90, 1, open, open, 0.08350633, 12.39682, -63.06036, 0.9884033, 1091.229
127, RaunerBackHall, 0, RaunerBackHall, 90, 90, 1, open, open, -2.548828, 9.222922, 6.508763, 0.8492432, 1094.654
128, MooreLot, 0, MooreLot, -90, 90, 2, closed, closed, -5.361633, 11.85511, 48.04428, 1.12793, 1097.132
129, neutral, 0, Hop2, -90, -90, 0, closed, closed, 3.928112, 6.509704, -55.55167, 1.044189, 1099.443
130, neutral, 0, McLaughlinCluster, 90, 90, 0, open, open, -8.554626, 9.615096, 59.28898, 1.002441, 1101.852
131, neutral, 0, Hop4, -90, -90, 0, open, open, 0.5165586, 9.629839, -50.49033, 0.8632813, 1103.94
132, MooreLot, 0, MooreLot, -90, -90, 1, closed, closed, -0.4518738, 11.88056, -55.24387, 0.8770752, 1106.126
133, Umplebys, 0, Umplebys, -90, -90, 1, open, open, -2.365265, 10.72096, -58.89789, 0.8632813, 1108.284
134, neutral, 0, RaunerBackHall, -90, -90, 0, closed, closed, -0.4318237, 10.50984, -60.29419, 0.8358154, 1110.497
135, Hop2, 0, Hop2, 90, 90, 1, open, open, -3.92688, 6.638574, 17.9415, 0.668335, 1112.502
136, 53Commons, 0, 53Commons, -90, 90, 2, closed, open, -5.302887, 8.465497, 40.74529, 0.8212891, 1114.59
137, BakerBerryCharter, 0, BakerBerryCharter, 90, -90, 2, closed, closed, 1.393663, 11.7418, -55.61792, 1.155762, 1117.083
138, RaunerFirst, 0, RaunerFirst, 90, -90, 2, open, closed, 2.166306, 8.981037, -56.08151, 1.113892, 1119.561
139, BakerBerry2nd, 0, BakerBerry2nd, 90, 90, 1, open, open, -6.669556, 9.401592, 58.21428, 0.7519531, 1122.331
140, AllenSt, 0, AllenSt, -90, 90, 2, open, open, -5.242767, 10.19861, 52.01658, 1.002441, 1124.698
141, neutral, 0, Maynard, 90, 90, 0, closed, closed, -8.353027, 8.755232, 60.45386, 1.016235, 1127.12
142, BakerBerryCharter, 0, BakerBerryCharter, 90, 90, 1, closed, closed, -6.533142, 11.07724, 63.96678, 1.141724, 1129.71
143, Zimmerman, 0, Zimmerman, -90, -90, 1, closed, open, 5.42732, 10.12519, -53.05658, 1.698486, 1132.731
144, neutral, 0, BakerBerryHistoric2, -90, -90, 0, closed, closed, 0.7653647, 12.49077, -59.20551, 1.099976, 1135.335
