trialIdx, primeName, primeAngleYaw, targetName, targetAngleYaw, targetSide, sameScenePrime, correctResponse, response, roll, pitch, yaw, rt, timestamp
1, neutral, 0, RaunerFirst, 90, 90, 0, open, open, -6.042511, -3.528168, 83.46509, 3.243896, 774.0718
2, neutral, 0, Hop2, 90, 90, 0, open, open, -5.406097, -4.619873, 87.97366, 1.197388, 781.576
3, RaunerFirst, 0, RaunerFirst, -90, 90, 2, closed, closed, -4.066742, -0.193512, 55.44344, 2.144165, 786.8804
4, RaunerBackHall, 0, RaunerBackHall, -90, -90, 1, closed, closed, 3.026124, -2.355347, -41.77502, 4.845032, 795.7906
5, Fairbanks, 0, Fairbanks, -90, 90, 2, open, open, -4.639893, -3.691864, 66.50777, 2.854065, 801.2342
6, Umplebys, 0, Umplebys, 90, -90, 2, closed, closed, 3.740881, -0.4085083, -72.07935, 1.684753, 804.6592
7, BakerBerryHistoric2, 0, BakerBerryHistoric2, -90, 90, 2, closed, closed, -4.245697, -4.855225, 65.82773, 2.36676, 809.9496
8, BakerBerryCharter, 0, BakerBerryCharter, -90, -90, 1, open, open, 6.196684, -5.446808, -87.03528, 2.185974, 813.5276
9, PineEntrance, 0, PineEntrance, 90, 90, 1, closed, closed, -6.068939, 5.135326, 89.80702, 2.645264, 817.4537
10, neutral, 0, BakerBerryCharter, 90, 90, 0, closed, closed, -4.040771, 3.011547, 57.17844, 6.00061, 825.0692
11, RaunerFirst, 0, RaunerFirst, -90, -90, 1, closed, closed, 7.44345, -5.69928, -85.29761, 1.447876, 828.6194
12, PineBackHall, 0, PineBackHall, 90, 90, 1, closed, closed, -6.635223, -2.905487, 74.35246, 1.712341, 831.8076
13, BakerBerryCharter, 0, BakerBerryCharter, -90, 90, 2, open, open, -4.536072, -7.825195, 63.00245, 1.754211, 835.4414
14, Hop2, 0, Hop2, -90, -90, 1, closed, closed, 7.509435, -3.801788, -76.44061, 1.475708, 839.2003
15, MooreLot, 0, MooreLot, 90, 90, 1, open, open, -4.626434, 1.069769, 68.53745, 2.547913, 843.6696
16, Hop4, 0, Hop4, -90, 90, 2, open, closed, -7.741211, -3.709076, 66.71774, 1.434204, 847.0527
17, RollinsChapel3, 0, RollinsChapel3, -90, 90, 2, open, open, -4.311951, 5.538924, 64.93478, 1.601196, 851.6331
18, neutral, 0, Hop4, 90, 90, 0, closed, closed, -5.025208, 6.129071, 51.95059, 2.060486, 855.6426
19, 53Commons, 0, 53Commons, 90, -90, 2, open, open, 3.760007, -7.263458, -62.97644, 1.851868, 859.1929
20, neutral, 0, Umplebys, -90, -90, 0, open, open, 4.767757, -4.428314, -73.17535, 2.547852, 862.9518
21, PineBackHall, 0, PineBackHall, 90, 90, 1, closed, closed, -5.803528, -3.150604, 75.07273, 1.336548, 865.8198
22, neutral, 0, BakerBerryHistoric2, 90, 90, 0, open, open, -5.540741, 6.602677, 77.55623, 2.812378, 869.9965
23, Zimmerman, 0, Zimmerman, 90, 90, 1, open, open, -6.011169, -3.710632, 60.53769, 3.619934, 875.5794
24, Fairbanks, 0, Fairbanks, -90, -90, 1, open, open, 6.624779, -15.67245, -79.44537, 1.54541, 878.7675
25, Zimmerman, 0, Zimmerman, 90, 90, 1, open, open, -7.104248, -11.08405, 60.85825, 2.297302, 883.2925
26, Maynard, 0, Maynard, 90, -90, 2, closed, closed, 5.884914, -5.137238, -65.92206, 1.099731, 885.8678
27, McLaughlinCluster, 0, McLaughlinCluster, 90, -90, 2, open, open, 6.618082, -2.872131, -68.81979, 3.160339, 890.7267
28, MooreLot, 0, MooreLot, 90, -90, 2, open, open, 7.540341, -2.25058, -78.17728, 1.865601, 894.3049
29, neutral, 0, Zimmerman, -90, -90, 0, closed, closed, 7.177833, -5.027374, -76.76431, 1.559387, 897.3539
30, RaunerBackHall, 0, RaunerBackHall, -90, 90, 2, closed, closed, -5.149902, -6.567535, 58.59899, 2.116394, 901.4055
31, Maynard, 0, Maynard, 90, 90, 1, closed, open, -5.950623, -1.212372, 64.54773, 4.051331, 906.7653
32, 53Commons, 0, 53Commons, 90, 90, 1, open, closed, -5.004608, -5.575775, 79.53398, 1.475098, 910.4966
33, neutral, 0, Fairbanks, 90, 90, 0, closed, closed, -8.389404, -3.9599, 68.83917, 5.833313, 919.546
34, Hop2, 0, Hop2, -90, 90, 2, closed, closed, -2.244202, 10.72628, 66.28009, 2.032776, 923.4583
35, neutral, 0, 53Commons, -90, -90, 0, closed, closed, 5.934493, -8.168793, -68.65332, 4.009521, 937.2272
36, MooreLot, 0, MooreLot, 90, 90, 1, open, open, -7.020081, -6.682861, 68.23367, 2.659424, 942.0027
37, AllenSt, 0, AllenSt, 90, 90, 1, closed, closed, -8.733673, -2.925964, 71.89099, 4.510925, 947.7665
38, BakerBerryCharter, 0, BakerBerryCharter, -90, -90, 1, open, closed, 6.3413, -5.845856, -75.35858, 2.213684, 951.7205
39, PineEntrance, 0, PineEntrance, 90, 90, 1, closed, closed, -2.953918, -4.684418, 52.79855, 0.7796631, 954.9226
40, RaunerBackHall, 0, RaunerBackHall, -90, -90, 1, closed, closed, 6.46707, -10.29593, -78.51791, 1.517517, 958.1805
41, Fairbanks, 0, Fairbanks, -90, -90, 1, open, open, 5.199811, -12.85278, -64.26755, 3.633911, 963.4431
42, neutral, 0, PineEntrance, -90, -90, 0, open, closed, 7.00154, -5.837769, -85.81674, 1.350586, 966.3945
43, BakerBerry2nd, 0, BakerBerry2nd, -90, -90, 1, closed, closed, 6.784224, -8.31839, -67.26459, 3.049011, 973.0355
44, 53Commons, 0, 53Commons, 90, 90, 1, open, open, -5.725403, -6.947876, 77.08977, 2.742981, 978.9526
45, AllenSt, 0, AllenSt, 90, -90, 2, closed, closed, 8.989243, -10.66431, -63.42145, 1.615051, 982.0989
46, neutral, 0, BakerBerry2nd, 90, 90, 0, open, open, -8.732788, -7.900635, 72.49962, 2.04657, 985.7048
47, RollinsChapel3, 0, RollinsChapel3, -90, -90, 1, open, open, 4.158294, -5.743774, -68.6582, 1.308899, 988.2388
48, BakerBerry2nd, 0, BakerBerry2nd, -90, 90, 2, closed, closed, -6.913116, -5.169373, 62.12822, 1.796143, 992.0396
49, McLaughlinCluster, 0, McLaughlinCluster, 90, 90, 1, open, open, -7.216278, 2.727088, 76.37077, 3.424866, 996.8844
50, BakerBerry2nd, 0, BakerBerry2nd, -90, -90, 1, closed, closed, 8.22731, -6.021729, -65.83881, 1.295044, 1000.254
51, RaunerFirst, 0, RaunerFirst, -90, -90, 1, closed, closed, 7.5962, -0.1109619, -69.80725, 1.517517, 1003.275
52, McLaughlinCluster, 0, McLaughlinCluster, 90, 90, 1, open, open, -5.579407, -4.620239, 44.88013, 7.99176, 1012.52
53, neutral, 0, PineBackHall, -90, -90, 0, open, closed, 5.102817, 2.96324, -91.38428, 6.445984, 1021.095
54, neutral, 0, RollinsChapel3, 90, 90, 0, closed, closed, -2.064301, -7.829926, 27.69656, 6.640808, 1029.657
55, neutral, 0, MooreLot, -90, -90, 0, closed, closed, 2.938526, -7.214905, -67.07806, 4.287964, 1035.574
56, AllenSt, 0, AllenSt, 90, 90, 1, closed, closed, -11.35437, -6.222321, 74.9276, 1.461914, 1039.515
57, Hop4, 0, Hop4, -90, -90, 1, open, closed, 7.83337, -9.519836, -71.97305, 1.68457, 1042.856
58, neutral, 0, Maynard, -90, -90, 0, open, open, 1.569407, -7.765961, -29.89746, 2.784546, 1048.313
59, Zimmerman, 0, Zimmerman, 90, -90, 2, open, open, 4.837695, -7.777527, -69.0585, 1.18335, 1051.474
60, BakerBerryHistoric2, 0, BakerBerryHistoric2, -90, -90, 1, closed, closed, 6.650571, -4.38382, -68.39023, 1.058228, 1054.746
61, neutral, 0, AllenSt, -90, -90, 0, open, open, 4.425799, -4.700684, -66.38181, 3.828735, 1059.771
62, neutral, 0, McLaughlinCluster, -90, -90, 0, closed, closed, 5.484447, -10.71674, -68.44812, 1.489624, 1062.807
63, Hop2, 0, Hop2, -90, -90, 1, closed, closed, 6.868109, -3.555695, -68.87482, 1.169556, 1065.647
64, Umplebys, 0, Umplebys, 90, 90, 1, closed, closed, -3.240143, -5.671082, 84.64577, 1.935181, 1068.891
65, RollinsChapel3, 0, RollinsChapel3, -90, -90, 1, open, closed, 2.183655, 0.2046358, -66.7171, 1.085815, 1076.214
66, neutral, 0, RaunerBackHall, 90, 90, 0, open, open, -8.913147, -12.08798, 84.93743, 4.2323, 1082.813
67, PineEntrance, 0, PineEntrance, 90, -90, 2, closed, closed, 3.631591, 2.983462, -56.49399, 1.266968, 1086.767
68, BakerBerryHistoric2, 0, BakerBerryHistoric2, -90, -90, 1, closed, closed, 7.192795, -1.1716, -60.27429, 1.2948, 1089.468
69, Maynard, 0, Maynard, 90, 90, 1, closed, open, -14.32364, -7.19632, 62.64094, 2.506104, 1096.109
70, Umplebys, 0, Umplebys, 90, 90, 1, closed, closed, -10.85818, -2.168976, 71.46169, 1.447876, 1100.355
71, Hop4, 0, Hop4, -90, -90, 1, open, closed, 5.910457, -4.722229, -70.61209, 1.72644, 1112.356
72, PineBackHall, 0, PineBackHall, 90, -90, 2, closed, closed, 3.90401, 4.586795, -62.59558, 1.322754, 1116.185
73, Fairbanks, 0, Fairbanks, 90, 90, 1, closed, closed, -10.88425, -7.067383, 82.43364, 1.573486, 1119.916
74, Hop2, 0, Hop2, 90, 90, 1, open, open, -9.765991, -0.3659363, 76.02858, 4.328613, 1126.863
75, AllenSt, 0, AllenSt, -90, -90, 1, open, open, 5.874515, -7.101929, -70.8999, 2.979492, 1131.137
76, neutral, 0, Umplebys, 90, 90, 0, closed, closed, -4.78067, -2.373993, 82.35968, 1.503662, 1135.286
77, McLaughlinCluster, 0, McLaughlinCluster, -90, -90, 1, closed, closed, 3.67552, -7.551697, -68.5152, 1.058228, 1137.806
78, Maynard, 0, Maynard, -90, -90, 1, open, open, 8.472047, -5.979889, -71.95499, 2.130127, 1141.565
79, neutral, 0, PineBackHall, 90, 90, 0, closed, closed, -8.476868, -5.080475, 85.71835, 1.253052, 1144.197
80, McLaughlinCluster, 0, McLaughlinCluster, -90, -90, 1, closed, closed, 1.01004, -8.221313, -48.30829, 1.336548, 1146.981
81, Zimmerman, 0, Zimmerman, -90, -90, 1, closed, closed, 8.447129, -8.439087, -68.1792, 2.144287, 1150.489
82, neutral, 0, BakerBerryCharter, -90, -90, 0, open, open, 8.208304, -4.417786, -72.73828, 1.531494, 1153.845
83, neutral, 0, MooreLot, 90, 90, 0, open, open, -4.389221, -3.866791, 75.3171, 1.879639, 1156.977
84, PineEntrance, 0, PineEntrance, -90, 90, 2, open, open, -4.858459, -5.677612, 60.43572, 2.338867, 1160.193
85, Fairbanks, 0, Fairbanks, 90, 90, 1, closed, closed, -9.031128, -4.851685, 73.42484, 1.461914, 1162.894
86, neutral, 0, PineEntrance, 90, 90, 0, closed, closed, -7.164795, -2.570099, 80.74789, 1.37854, 1165.679
87, BakerBerryHistoric2, 0, BakerBerryHistoric2, 90, -90, 2, open, open, 6.578002, -4.386353, -59.04807, 1.503784, 1168.533
88, RaunerFirst, 0, RaunerFirst, 90, 90, 1, open, open, -7.814056, -5.156342, 72.42603, 1.990967, 1172.055
89, PineBackHall, 0, PineBackHall, -90, -90, 1, open, closed, 9.185363, -2.211823, -85.63342, 2.714966, 1175.898
90, Hop4, 0, Hop4, 90, 90, 1, closed, closed, -10.66284, -6.804718, 77.81339, 1.266846, 1178.459
91, 53Commons, 0, 53Commons, -90, -90, 1, closed, closed, 8.181828, -10.64734, -70.50348, 1.726685, 1181.369
92, neutral, 0, BakerBerry2nd, -90, -90, 0, closed, closed, 6.565401, -5.443542, -81.08347, 1.183472, 1183.931
93, PineBackHall, 0, PineBackHall, -90, -90, 1, open, closed, 8.610105, 0.01594038, -81.71533, 2.074707, 1187.175
94, Maynard, 0, Maynard, -90, 90, 2, open, open, -2.099884, -7.468872, 62.64165, 1.530518, 1190.224
95, neutral, 0, RaunerFirst, -90, -90, 0, closed, closed, 8.468991, -1.69455, -69.86176, 1.405396, 1193.105
96, RollinsChapel3, 0, RollinsChapel3, 90, 90, 1, closed, closed, -4.752563, 9.748624, 60.98544, 4.914551, 1199.858
97, neutral, 0, AllenSt, 90, 90, 0, closed, closed, -15.74899, -6.174286, 85.82192, 2.338867, 1204.243
98, PineEntrance, 0, PineEntrance, -90, -90, 1, open, open, 3.291934, -9.891571, -37.22684, 4.691895, 1211.608
99, RollinsChapel3, 0, RollinsChapel3, 90, 90, 1, closed, closed, -4.660492, -7.366791, 69.85451, 2.074341, 1215.632
100, BakerBerryHistoric2, 0, BakerBerryHistoric2, 90, 90, 1, open, open, -7.602631, 2.053405, 79.19469, 2.71521, 1219.656
101, Umplebys, 0, Umplebys, -90, 90, 2, open, open, -8.417114, -0.8967896, 73.57666, 1.503662, 1224.473
102, BakerBerry2nd, 0, BakerBerry2nd, 90, 90, 1, open, open, -9.965698, -5.88739, 74.86455, 1.253052, 1227.327
103, Hop4, 0, Hop4, 90, -90, 2, closed, closed, 7.046863, -8.361206, -68.71707, 1.08606, 1230.055
104, RollinsChapel3, 0, RollinsChapel3, 90, -90, 2, closed, closed, 8.315787, -6.739502, -65.74542, 1.225098, 1232.979
105, RaunerBackHall, 0, RaunerBackHall, 90, 90, 1, open, open, -5.706635, -4.557892, 78.10494, 3.1604, 1237.977
106, Hop2, 0, Hop2, 90, -90, 2, open, open, 3.814359, -9.827942, -60.26849, 2.56189, 1242.21
107, RaunerFirst, 0, RaunerFirst, 90, 90, 1, open, open, -9.772217, -2.251465, 71.52604, 9.258667, 1269.943
108, PineBackHall, 0, PineBackHall, -90, 90, 2, open, closed, -5.393219, -3.90033, 57.68219, 1.781982, 1273.799
109, neutral, 0, RollinsChapel3, -90, -90, 0, open, open, 3.511025, -7.337067, -67.03293, 1.768311, 1276.876
110, PineEntrance, 0, PineEntrance, -90, -90, 1, open, open, 7.820753, -4.343689, -80.28528, 1.47583, 1279.507
111, BakerBerryHistoric2, 0, BakerBerryHistoric2, 90, 90, 1, open, open, -7.596741, -3.363464, 76.07144, 1.61499, 1282.375
112, BakerBerryCharter, 0, BakerBerryCharter, 90, 90, 1, closed, closed, -6.511139, 0.2680778, 73.62691, 1.893433, 1285.383
113, neutral, 0, Zimmerman, 90, 90, 0, open, open, -6.518829, -9.092255, 78.78495, 1.740479, 1289.072
114, 53Commons, 0, 53Commons, -90, -90, 1, closed, closed, 8.139301, -10.26935, -76.52884, 1.182617, 1291.815
115, Zimmerman, 0, Zimmerman, -90, 90, 2, closed, closed, -3.404663, -8.521667, 58.80531, 2.033325, 1294.948
116, Fairbanks, 0, Fairbanks, 90, -90, 2, closed, closed, 8.120894, -12.20642, -62.92419, 0.8493652, 1296.98
117, RaunerBackHall, 0, RaunerBackHall, 90, -90, 2, open, open, 3.954748, -8.996765, -63.93228, 1.517578, 1299.695
118, neutral, 0, 53Commons, 90, 90, 0, open, open, -6.503784, -10.28577, 74.79375, 2.172119, 1303.203
119, Maynard, 0, Maynard, -90, -90, 1, open, open, 9.249769, -6.915497, -77.40485, 1.266968, 1306.015
120, neutral, 0, Fairbanks, -90, -90, 0, open, open, 10.32258, -6.433746, -79.04868, 1.128052, 1308.341
121, McLaughlinCluster, 0, McLaughlinCluster, -90, 90, 2, closed, closed, -7.338898, -8.72995, 76.8177, 1.15564, 1311.014
122, AllenSt, 0, AllenSt, -90, -90, 1, open, open, 7.538356, -6.161346, -77.745, 1.26709, 1313.199
123, MooreLot, 0, MooreLot, -90, -90, 1, closed, closed, 3.912113, -0.6119995, -60.20258, 1.447754, 1315.608
124, Hop4, 0, Hop4, 90, 90, 1, closed, closed, -4.909393, -3.974701, 67.53046, 1.990967, 1318.782
125, BakerBerry2nd, 0, BakerBerry2nd, 90, -90, 2, open, open, 3.936173, -12.87296, -44.68564, 1.879761, 1321.831
126, Umplebys, 0, Umplebys, -90, -90, 1, open, open, 5.585783, -4.922607, -70.32794, 1.559326, 1324.713
127, RaunerBackHall, 0, RaunerBackHall, 90, 90, 1, open, open, -8.583801, -6.352966, 77.65044, 1.420166, 1327.456
128, MooreLot, 0, MooreLot, -90, 90, 2, closed, closed, -7.646301, -4.608765, 68.10094, 1.726563, 1330.741
129, neutral, 0, Hop2, -90, -90, 0, closed, closed, 12.07945, -6.409607, -82.7142, 1.016479, 1333.22
130, neutral, 0, McLaughlinCluster, 90, 90, 0, open, closed, -5.8237, -3.916962, 80.08636, 2.519897, 1336.979
131, neutral, 0, Hop4, -90, -90, 0, open, open, 8.281135, -8.297577, -71.81589, 2.380859, 1340.487
132, MooreLot, 0, MooreLot, -90, -90, 1, closed, closed, 4.157537, -0.7188416, -66.79547, 1.183472, 1342.589
133, Umplebys, 0, Umplebys, -90, -90, 1, open, open, 7.121845, -6.815674, -75.46979, 1.47583, 1345.736
134, neutral, 0, RaunerBackHall, -90, -90, 0, closed, closed, 8.712851, -7.63739, -67.22418, 1.085815, 1347.894
135, Hop2, 0, Hop2, 90, 90, 1, open, open, -8.135193, -5.99939, 71.76997, 2.046753, 1351.138
136, 53Commons, 0, 53Commons, -90, 90, 2, closed, closed, -8.136078, -5.889221, 69.28889, 1.726318, 1354.242
137, BakerBerryCharter, 0, BakerBerryCharter, 90, -90, 2, closed, closed, 5.264972, -9.792969, -59.86728, 2.380737, 1357.876
138, RaunerFirst, 0, RaunerFirst, 90, -90, 2, open, open, 5.281497, -3.348389, -65.70447, 1.572876, 1360.675
139, BakerBerry2nd, 0, BakerBerry2nd, 90, 90, 1, open, open, -8.087738, -6.418762, 70.57151, 1.43396, 1363.194
140, AllenSt, 0, AllenSt, -90, 90, 2, open, open, -7.138336, -7.007629, 63.3494, 1.517456, 1365.742
141, neutral, 0, Maynard, 90, 90, 0, closed, open, -7.995209, -9.7677, 69.7462, 1.169678, 1368.889
142, BakerBerryCharter, 0, BakerBerryCharter, 90, 90, 1, closed, closed, -7.846283, -5.257477, 71.98438, 1.656738, 1372.578
143, Zimmerman, 0, Zimmerman, -90, -90, 1, closed, closed, 8.229232, -6.787048, -75.68991, 1.002441, 1374.708
144, neutral, 0, BakerBerryHistoric2, -90, -90, 0, closed, closed, 9.349134, -7.670319, -72.6394, 0.9328613, 1376.991
