trialIdx, primeName, primeAngleYaw, targetName, targetAngleYaw, targetSide, sameScenePrime, correctResponse, response, roll, pitch, yaw, rt, timestamp
1, neutral, 0, RaunerFirst, 90, 90, 0, open, open, 4.005805, 1.627306, 72.03462, 7.782532, 669.0522
2, neutral, 0, Hop2, 90, 90, 0, open, open, 0.5289297, -3.630981, 83.0564, 4.747559, 680.3293
3, RaunerFirst, 0, RaunerFirst, -90, 90, 2, closed, closed, 3.597117, -1.080902, 64.53259, 9.063477, 691.7596
4, RaunerBackHall, 0, RaunerBackHall, -90, -90, 1, closed, closed, 3.692088, -11.15851, -96.08966, 8.07489, 702.0203
5, Fairbanks, 0, Fairbanks, -90, 90, 2, open, closed, 3.025697, -7.847595, 70.23222, 9.133118, 714.3694
6, Umplebys, 0, Umplebys, 90, -90, 2, closed, open, 2.873441, -8.567505, -51.87686, 11.19354, 727.5538
7, BakerBerryHistoric2, 0, BakerBerryHistoric2, -90, 90, 2, closed, open, 2.326124, 0.4154811, 68.11765, 11.19342, 740.6964
8, BakerBerryCharter, 0, BakerBerryCharter, -90, -90, 1, open, closed, 4.763359, -0.34021, -89.0304, 11.22137, 753.3658
9, PineEntrance, 0, PineEntrance, 90, 90, 1, closed, open, 0.2247205, 0.3664074, 90.01041, 7.225952, 762.5408
10, neutral, 0, BakerBerryCharter, 90, 90, 0, closed, open, 1.952229, -4.719116, 69.34053, 14.96655, 779.2474
11, RaunerFirst, 0, RaunerFirst, -90, -90, 1, closed, open, 4.10906, -5.819916, -14.66989, 8.757141, 790.0928
12, PineBackHall, 0, PineBackHall, 90, 90, 1, closed, open, 1.941534, -1.116364, 99.54969, 14.34009, 806.0896
13, BakerBerryCharter, 0, BakerBerryCharter, -90, 90, 2, open, open, 2.019728, 0.564287, 70.11392, 10.45563, 818.2994
14, Hop2, 0, Hop2, -90, -90, 1, closed, open, 6.201956, 0.5335776, -87.673, 12.78082, 833.085
15, MooreLot, 0, MooreLot, 90, 90, 1, open, closed, 4.567, -9.160034, 76.72363, 14.32617, 848.9007
16, Hop4, 0, Hop4, -90, 90, 2, open, closed, 4.029158, -2.172638, 61.32668, 11.04034, 861.4865
17, RollinsChapel3, 0, RollinsChapel3, -90, 90, 2, open, closed, 2.043189, -7.745544, 70.87543, 6.404419, 869.9651
18, neutral, 0, Hop4, 90, 90, 0, closed, closed, 0.8588326, 1.755591, 73.36006, 8.130005, 879.9614
19, 53Commons, 0, 53Commons, 90, -90, 2, open, closed, 5.221665, -8.530304, -65.82025, 11.24933, 894.357
20, neutral, 0, Umplebys, -90, -90, 0, open, closed, 4.26448, -4.740509, -26.26129, 13.56042, 909.1425
21, PineBackHall, 0, PineBackHall, 90, 90, 1, closed, open, 4.629222, 1.087183, 10.90502, 23.3338, 933.7988
22, neutral, 0, BakerBerryHistoric2, 90, 90, 0, open, closed, 0.7529331, 8.834188, 94.80575, 11.51392, 946.8441
23, Zimmerman, 0, Zimmerman, 90, 90, 1, open, closed, 3.816826, -6.602081, 84.93539, 9.926636, 958.9149
24, Fairbanks, 0, Fairbanks, -90, -90, 1, open, closed, 4.275238, -7.256775, -55.94302, 12.00085, 972.6422
25, Zimmerman, 0, Zimmerman, 90, 90, 1, open, closed, -2.813263, -0.869873, 77.02554, 2.533936, 976.9998
26, Maynard, 0, Maynard, 90, -90, 2, closed, open, 5.318456, -6.8927, -55.40137, 20.34058, 999.1224
27, McLaughlinCluster, 0, McLaughlinCluster, 90, -90, 2, open, closed, 6.641507, -5.060425, -25.02017, 20.03424, 1020.883
28, MooreLot, 0, MooreLot, 90, -90, 2, open, closed, 7.323333, -6.5224, -32.22998, 8.102783, 1030.642
29, neutral, 0, Zimmerman, -90, -90, 0, closed, open, 8.19742, -7.74884, -74.55112, 12.02905, 1044.398
30, RaunerBackHall, 0, RaunerBackHall, -90, 90, 2, closed, closed, 1.567237, -0.5678101, 20.45832, 13.17334, 1059.284
31, Maynard, 0, Maynard, 90, 90, 1, closed, open, 2.743329, -12.17261, 109.5605, 15.95496, 1076.865
32, 53Commons, 0, 53Commons, 90, 90, 1, open, closed, 4.691291, -4.955383, 80.38105, 8.269897, 1087.237
33, neutral, 0, Fairbanks, 90, 90, 0, closed, open, -1.271118, -12.13049, 113.4229, 12.87805, 1101.521
34, Hop2, 0, Hop2, -90, 90, 2, closed, open, -1.884918, -2.942871, 101.2726, 16.85974, 1120.469
35, neutral, 0, 53Commons, -90, -90, 0, closed, closed, 4.729027, -9.815033, -79.88519, 10.07983, 1140.225
36, MooreLot, 0, MooreLot, 90, 90, 1, open, open, 1.015085, -5.022125, 72.10577, 5.081787, 1146.949
37, AllenSt, 0, AllenSt, 90, 90, 1, closed, closed, -0.4729004, -3.044434, 72.62667, 4.413452, 1153.312
38, BakerBerryCharter, 0, BakerBerryCharter, -90, -90, 1, open, open, 4.079055, -2.035034, -87.41504, 4.552734, 1159.466
39, PineEntrance, 0, PineEntrance, 90, 90, 1, closed, closed, -0.08013916, -2.324677, 101.1709, 4.538696, 1165.717
40, RaunerBackHall, 0, RaunerBackHall, -90, -90, 1, closed, closed, 4.846315, 5.70028, -102.9005, 4.900513, 1173.249
41, Fairbanks, 0, Fairbanks, -90, -90, 1, open, open, 5.686063, -9.532288, -83.54156, 5.220703, 1180.753
42, neutral, 0, PineEntrance, -90, -90, 0, open, open, 5.150891, -3.920807, -90.12418, 6.153809, 1188.981
43, BakerBerry2nd, 0, BakerBerry2nd, -90, -90, 1, closed, closed, 8.312268, -2.278778, -98.83954, 3.689209, 1198.657
44, 53Commons, 0, 53Commons, 90, 90, 1, open, open, 5.258073, -9.472534, 86.58097, 4.120972, 1204.936
45, AllenSt, 0, AllenSt, 90, -90, 2, closed, open, 5.638786, -6.61969, -73.86569, 9.133057, 1215.391
46, neutral, 0, BakerBerry2nd, 90, 90, 0, open, open, 2.113632, -4.764374, 81.74283, 5.70813, 1224.594
47, RollinsChapel3, 0, RollinsChapel3, -90, -90, 1, open, open, -3.433044, -14.64456, -81.36096, 4.38562, 1234.256
48, BakerBerry2nd, 0, BakerBerry2nd, -90, 90, 2, closed, closed, 2.582343, -3.256805, 74.11291, 3.452759, 1240.646
49, McLaughlinCluster, 0, McLaughlinCluster, 90, 90, 1, open, open, 1.185198, -7.75119, 109.1526, 4.8302, 1247.552
50, BakerBerry2nd, 0, BakerBerry2nd, -90, -90, 1, closed, closed, 5.86272, -4.249573, -96.4296, 3.856323, 1253.427
51, RaunerFirst, 0, RaunerFirst, -90, -90, 1, closed, closed, 4.363102, -2.202209, -91.56995, 4.496948, 1259.567
52, McLaughlinCluster, 0, McLaughlinCluster, 90, 90, 1, open, open, 0.3504384, -3.236511, 97.05092, 3.146484, 1265.275
53, neutral, 0, PineBackHall, -90, -90, 0, open, open, 4.795225, -0.6563416, -93.96078, 5.318115, 1272.612
54, neutral, 0, RollinsChapel3, 90, 90, 0, closed, closed, -2.895966, -6.13681, 90.87196, 6.432251, 1280.826
55, neutral, 0, MooreLot, -90, -90, 0, closed, closed, 0.7023428, -7.195404, -81.91977, 5.610718, 1289.542
56, AllenSt, 0, AllenSt, 90, 90, 1, closed, open, 5.048748, -5.413055, 65.33315, 8.576294, 1299.816
57, Hop4, 0, Hop4, -90, -90, 1, open, open, 4.332855, -5.44873, -83.18579, 4.580444, 1306.304
58, neutral, 0, Maynard, -90, -90, 0, open, open, 6.621241, -4.654175, -88.03741, 5.610596, 1313.293
59, Zimmerman, 0, Zimmerman, 90, -90, 2, open, open, 2.098217, -5.062531, -67.12314, 3.355469, 1318.445
60, BakerBerryHistoric2, 0, BakerBerryHistoric2, -90, -90, 1, closed, closed, 5.914939, -0.4289246, -83.73544, 5.805542, 1328.691
61, neutral, 0, AllenSt, -90, -90, 0, open, open, 2.279679, -4.721283, -79.83115, 6.014526, 1337.713
62, neutral, 0, McLaughlinCluster, -90, -90, 0, closed, closed, -2.691559, -12.03934, -49.95926, 6.251221, 1345.858
63, Hop2, 0, Hop2, -90, -90, 1, closed, closed, 7.124161, -3.929047, -98.30814, 4.162964, 1352.429
64, Umplebys, 0, Umplebys, 90, 90, 1, closed, closed, -1.101166, -9.218781, 113.7651, 4.970337, 1358.931
65, RollinsChapel3, 0, RollinsChapel3, -90, -90, 1, open, open, 2.773285, -8.179138, -91.60797, 4.329834, 1366.936
66, neutral, 0, RaunerBackHall, 90, 90, 0, open, closed, 1.998235, -4.191956, 78.86714, 5.875366, 1374.078
67, PineEntrance, 0, PineEntrance, 90, -90, 2, closed, closed, -1.212433, 2.41148, -41.03622, 4.831055, 1382.919
68, BakerBerryHistoric2, 0, BakerBerryHistoric2, -90, -90, 1, closed, closed, 5.33193, 2.879021, -97.95908, 3.605957, 1388.39
69, Maynard, 0, Maynard, 90, 90, 1, closed, closed, 5.414666, -6.429077, 81.20103, 4.608276, 1394.794
70, Umplebys, 0, Umplebys, 90, 90, 1, closed, closed, -1.495697, -3.625641, 89.59138, 2.060425, 1399.11
71, Hop4, 0, Hop4, -90, -90, 1, open, open, 6.605144, -4.200287, -88.65945, 1.559448, 1409.956
72, PineBackHall, 0, PineBackHall, 90, -90, 2, closed, closed, 4.005942, 0.7918687, -45.77521, 6.724365, 1418.281
73, Fairbanks, 0, Fairbanks, 90, 90, 1, closed, closed, -3.43103, -3.128632, 82.17815, 1.47583, 1422.026
74, Hop2, 0, Hop2, 90, 90, 1, open, open, -3.395752, -1.506287, 73.91856, 4.246338, 1428.723
75, AllenSt, 0, AllenSt, -90, -90, 1, open, open, 7.53236, -2.817474, -96.08536, 3.717407, 1434.849
76, neutral, 0, Umplebys, 90, 90, 0, closed, closed, 3.921304, -8.126984, 106.3816, 5.262695, 1441.559
77, McLaughlinCluster, 0, McLaughlinCluster, -90, -90, 1, closed, closed, -2.910248, -8.6539, -52.09665, 3.856201, 1447.254
78, Maynard, 0, Maynard, -90, -90, 1, open, open, 8.247382, -2.478485, -101.8993, 3.160522, 1452.168
79, neutral, 0, PineBackHall, 90, 90, 0, closed, closed, -1.679352, -12.01089, 77.3637, 4.371948, 1458.252
80, McLaughlinCluster, 0, McLaughlinCluster, -90, -90, 1, closed, closed, -0.6120605, -8.449951, -51.81616, 3.759155, 1463.71
81, Zimmerman, 0, Zimmerman, -90, -90, 1, closed, closed, 5.429873, -6.332153, -95.73132, 3.967896, 1469.056
82, neutral, 0, BakerBerryCharter, -90, -90, 0, open, closed, 5.458951, -1.972565, -96.57013, 3.940186, 1474.611
83, neutral, 0, MooreLot, 90, 90, 0, open, open, 5.484739, -4.193451, 87.5355, 5.290527, 1481.67
84, PineEntrance, 0, PineEntrance, -90, 90, 2, open, closed, 3.326377, -2.408508, 60.24187, 7.100342, 1490.287
85, Fairbanks, 0, Fairbanks, 90, 90, 1, closed, open, 1.240491, -5.717834, 94.25359, 5.707764, 1498.613
86, neutral, 0, PineEntrance, 90, 90, 0, closed, closed, 4.181999, -1.096039, 92.07507, 5.54126, 1506.939
87, BakerBerryHistoric2, 0, BakerBerryHistoric2, 90, -90, 2, open, open, 2.804871, 3.925116, -68.19052, 2.770508, 1511.032
88, RaunerFirst, 0, RaunerFirst, 90, 90, 1, open, open, 3.349088, -3.564697, 69.00101, 4.900635, 1517.854
89, PineBackHall, 0, PineBackHall, -90, -90, 1, open, closed, 4.85552, -2.186584, -93.84683, 4.914673, 1525.149
90, Hop4, 0, Hop4, 90, 90, 1, closed, closed, -0.6588745, -0.9096375, 94.75874, 3.856323, 1531.943
91, 53Commons, 0, 53Commons, -90, -90, 1, closed, closed, 5.888805, -3.001953, -94.70755, 3.271851, 1537.289
92, neutral, 0, BakerBerry2nd, -90, -90, 0, closed, closed, 8.059964, 3.207958, -101.1946, 4.942383, 1543.93
93, PineBackHall, 0, PineBackHall, -90, -90, 1, open, closed, 2.861726, 0.0193765, -97.12415, 3.912109, 1549.402
94, Maynard, 0, Maynard, -90, 90, 2, open, open, 3.533425, -3.578979, 59.12055, 6.835938, 1560.79
95, neutral, 0, RaunerFirst, -90, -90, 0, closed, closed, -0.7044678, -0.5077209, -63.97076, 5.457642, 1569.13
96, RollinsChapel3, 0, RollinsChapel3, 90, 90, 1, closed, closed, 4.138819, -5.292633, 96.56735, 4.705811, 1575.687
97, neutral, 0, AllenSt, 90, 90, 0, closed, closed, 3.718432, -6.354675, 82.40742, 4.580566, 1582.022
98, PineEntrance, 0, PineEntrance, -90, -90, 1, open, open, 3.378051, -6.243469, -91.08902, 3.522461, 1587.089
99, RollinsChapel3, 0, RollinsChapel3, 90, 90, 1, closed, closed, 1.273239, -2.164551, 97.94585, 3.954102, 1592.895
100, BakerBerryHistoric2, 0, BakerBerryHistoric2, 90, 90, 1, open, closed, 1.67994, -1.744507, 90.33799, 5.179199, 1599.8
101, Umplebys, 0, Umplebys, -90, 90, 2, open, open, 5.26769, -0.9992371, 72.07072, 5.666504, 1607.861
102, BakerBerry2nd, 0, BakerBerry2nd, 90, 90, 1, open, open, -1.650208, -0.9399414, 90.14574, 4.998169, 1615.017
103, Hop4, 0, Hop4, 90, -90, 2, closed, closed, 3.529102, -0.8125, -60.78833, 8.005249, 1624.331
104, RollinsChapel3, 0, RollinsChapel3, 90, -90, 2, closed, closed, 6.663323, -0.5881653, -69.93576, 15.10559, 1641.108
105, RaunerBackHall, 0, RaunerBackHall, 90, 90, 1, open, closed, 1.274337, -3.70816, 81.42656, 4.176636, 1647.094
106, Hop2, 0, Hop2, 90, -90, 2, open, open, 1.629715, -5.78949, -74.02692, 12.76685, 1663.147
107, RaunerFirst, 0, RaunerFirst, 90, 90, 1, open, closed, 2.069817, -4.055298, 81.54636, 5.276611, 1681.636
108, PineBackHall, 0, PineBackHall, -90, 90, 2, open, open, 4.757203, -1.678497, 55.1684, 5.791748, 1689.307
109, neutral, 0, RollinsChapel3, -90, -90, 0, open, open, 2.089107, -7.638397, -65.25467, 4.927856, 1695.725
110, PineEntrance, 0, PineEntrance, -90, -90, 1, open, closed, 5.644072, -5.105621, -40.52307, 6.195557, 1703.508
111, BakerBerryHistoric2, 0, BakerBerryHistoric2, 90, 90, 1, open, closed, -1.794983, 0.5192496, 97.56064, 2.881836, 1708.394
112, BakerBerryCharter, 0, BakerBerryCharter, 90, 90, 1, closed, closed, 3.336446, -6.091583, 46.09038, 3.731323, 1713.768
113, neutral, 0, Zimmerman, 90, 90, 0, open, closed, -5.641876, -3.293976, 98.94791, 3.313477, 1719.101
114, 53Commons, 0, 53Commons, -90, -90, 1, closed, closed, 7.610669, -6.684052, -105.7747, 5.067993, 1726.006
115, Zimmerman, 0, Zimmerman, -90, 90, 2, closed, closed, 4.637491, -7.304596, 49.74577, 8.129517, 1736.016
116, Fairbanks, 0, Fairbanks, 90, -90, 2, closed, closed, 5.131452, -12.06577, -57.57349, 10.35828, 1748.17
117, RaunerBackHall, 0, RaunerBackHall, 90, -90, 2, open, open, 1.219586, -5.964478, -67.72565, 11.17969, 1761.564
118, neutral, 0, 53Commons, 90, 90, 0, open, open, 1.518586, -4.45871, 89.87614, 4.427368, 1768.943
119, Maynard, 0, Maynard, -90, -90, 1, open, open, 4.929135, -4.606598, -96.05484, 4.176758, 1776.14
120, neutral, 0, Fairbanks, -90, -90, 0, open, closed, 6.127259, -10.33008, -82.0062, 5.944702, 1785.789
121, McLaughlinCluster, 0, McLaughlinCluster, -90, 90, 2, closed, closed, -5.008423, -9.98526, 89.16251, 4.427124, 1792.43
122, AllenSt, 0, AllenSt, -90, -90, 1, open, open, 4.328601, -5.202393, -92.67102, 4.135132, 1798.402
123, MooreLot, 0, MooreLot, -90, -90, 1, closed, closed, 0.8924291, -4.356018, -77.62875, 6.014526, 1806.449
124, Hop4, 0, Hop4, 90, 90, 1, closed, closed, 0.05343281, -1.537506, 90.7412, 3.870483, 1812.143
125, BakerBerry2nd, 0, BakerBerry2nd, 90, -90, 2, open, open, 3.64098, -2.523651, -79.29678, 5.443726, 1819.773
126, Umplebys, 0, Umplebys, -90, -90, 1, open, open, 4.701898, -6.926666, -89.88684, 3.898193, 1826.386
127, RaunerBackHall, 0, RaunerBackHall, 90, 90, 1, open, open, 3.884627, -3.887238, 78.9687, 3.772827, 1832.261
128, MooreLot, 0, MooreLot, -90, 90, 2, closed, closed, 2.559259, -7.651031, 114.9927, 10.76208, 1844.972
129, neutral, 0, Hop2, -90, -90, 0, closed, closed, 5.754837, -3.337738, -101.0503, 5.179199, 1852.142
130, neutral, 0, McLaughlinCluster, 90, 90, 0, open, open, 1.606996, -2.276917, 104.1686, 5.346191, 1859.813
131, neutral, 0, Hop4, -90, -90, 0, open, open, 7.595442, -5.305725, -92.14868, 5.680298, 1867.944
132, MooreLot, 0, MooreLot, -90, -90, 1, closed, closed, 6.298952, -8.231415, -106.4248, 21.38464, 1891.57
133, Umplebys, 0, Umplebys, -90, -90, 1, open, open, 8.850846, -3.453918, -89.90622, 3.926025, 1898.448
134, neutral, 0, RaunerBackHall, -90, -90, 0, closed, closed, 5.229487, -0.04000854, -109.5403, 4.817139, 1905.019
135, Hop2, 0, Hop2, 90, 90, 1, open, closed, 0.7967325, -1.849731, 103.1679, 5.736084, 1912.76
136, 53Commons, 0, 53Commons, -90, 90, 2, closed, open, 0.9079292, -13.15698, 57.76012, 18.44702, 1933.435
137, BakerBerryCharter, 0, BakerBerryCharter, 90, -90, 2, closed, closed, 4.060934, -4.997742, -77.93854, 12.97571, 1948.387
138, RaunerFirst, 0, RaunerFirst, 90, -90, 2, open, open, -0.4597168, -5.448059, -71.55353, 6.515747, 1956.824
139, BakerBerry2nd, 0, BakerBerry2nd, 90, 90, 1, open, closed, -1.743378, -2.114807, 110.3025, 2.909668, 1961.766
140, AllenSt, 0, AllenSt, -90, 90, 2, open, open, 4.676754, -7.927002, 55.63096, 5.346313, 1969.619
141, neutral, 0, Maynard, 90, 90, 0, closed, closed, -2.235901, -5.393127, 127.6803, 7.963745, 1979.253
142, BakerBerryCharter, 0, BakerBerryCharter, 90, 90, 1, closed, closed, 5.01904, -5.095917, 109.1608, 6.752319, 1988.372
143, Zimmerman, 0, Zimmerman, -90, -90, 1, closed, closed, 6.305974, -12.10938, -121.2029, 4.691772, 1994.665
144, neutral, 0, BakerBerryHistoric2, -90, -90, 0, closed, closed, 4.76123, -4.559265, -105.0517, 5.694092, 2003.088
