trialIdx, primeName, primeAngleYaw, targetName, targetAngleYaw, targetSide, sameScenePrime, correctResponse, response, roll, pitch, yaw, rt, timestamp
1, PineBackHall, 180, PineBackHall, 270, 90, 1, closed, closed, -2.286102, -3.391937, 337.7119, 3.63385, 574.5871
2, neutral, 0, RollinsChapel3, 267, 90, 0, closed, closed, 1.747844, 2.061011, 349.9638, 1.656921, 579.6968
3, 53Commons, -90, 53Commons, 0, -90, 0, open, open, 4.240872, -9.445587, -69.89505, 1.044312, 583.0797
4, Hop2, -1, Hop2, -91, -90, 1, closed, closed, 4.435929, -1.436584, -168.7418, 1.030334, 585.3212
5, RaunerBackHall, 0, RaunerBackHall, -90, -90, 1, closed, closed, 3.930995, -1.775391, -170.1363, 1.573059, 588.0638
6, Hop4, -3, Hop4, -93, -90, 1, open, open, 4.227067, 0.2602377, -171.8235, 0.9746094, 590.6673
7, neutral, 0, Hop2, 89, 90, 0, open, open, -2.127197, 1.214664, 168.192, 1.002686, 593.2849
8, MooreLot, 180, MooreLot, 270, 90, 1, open, open, -0.03808594, 0.9428483, 347.2324, 1.044006, 595.4984
9, neutral, 0, Umplebys, -140, -90, 0, open, closed, 0.3049586, 2.493711, -216.4932, 1.489685, 599.313
10, 53Commons, -90, 53Commons, 0, 90, 1, open, open, 3.29087, -4.145264, 84.59254, 1.211548, 602.4039
11, Zimmerman, -100, Zimmerman, -10, 90, 1, open, open, 1.319783, -2.914215, 67.8953, 1.002136, 604.8123
12, Fairbanks, 0, Fairbanks, -90, -90, 1, open, open, 5.202003, 3.004091, -166.0223, 0.7936401, 607.1238
13, Hop4, -3, Hop4, 267, 90, 0, open, open, -2.893799, 1.164461, 347.1609, 1.475403, 610.0054
14, RaunerBackHall, 0, RaunerBackHall, 270, 90, 0, closed, closed, -0.315979, 1.44392, 352.1178, 1.322449, 612.8316
15, neutral, 0, BakerBerryHistoric2, 270, 90, 0, open, open, -1.927887, 3.028251, 353.4479, 1.364258, 615.7276
16, McLaughlinCluster, 172, McLaughlinCluster, 262, -90, 0, open, closed, 4.47018, 5.819271, 183.8479, 1.364502, 618.4286
17, neutral, 0, 53Commons, -180, -90, 0, closed, closed, 0.01854688, 9.752321, -258.9349, 2.728821, 622.4799
18, neutral, 0, Zimmerman, -190, -90, 0, closed, closed, 2.885851, 2.088304, -269.3497, 0.9467773, 630.5408
19, McLaughlinCluster, 172, McLaughlinCluster, 262, 90, 1, open, closed, -1.083954, 4.762962, 346.3645, 1.39209, 633.0745
20, neutral, 0, Maynard, 90, 90, 0, closed, closed, -2.3284, 1.809281, 168.2591, 1.197327, 635.5668
21, RaunerFirst, 0, RaunerFirst, 90, 90, 1, open, open, -1.147644, 2.948919, 170.4931, 2.520081, 639.3537
22, neutral, 0, BakerBerryCharter, -180, -90, 0, open, open, 3.482265, 5.386234, -252.6143, 1.183655, 641.7902
23, neutral, 0, AllenSt, 90, 90, 0, closed, closed, -2.050354, 1.80466, 164.8223, 1.406067, 644.4074
24, Maynard, 0, Maynard, 270, 90, 0, open, open, -2.232971, 2.74258, 349.1426, 1.266907, 646.9134
25, neutral, 0, BakerBerry2nd, 4, -90, 0, closed, closed, 5.01169, 5.495479, -72.92599, 1.099854, 649.1966
26, Hop2, -1, Hop2, 269, 90, 0, closed, closed, -1.849243, 2.480224, 347.3251, 1.127808, 651.5357
27, BakerBerry2nd, 94, BakerBerry2nd, 184, -90, 0, open, open, 4.50939, 2.919157, 104.3954, 1.308716, 654.0835
28, RaunerFirst, 0, RaunerFirst, 90, 90, 1, open, open, -2.264038, -0.1543884, 170.4237, 1.058228, 656.3249
29, neutral, 0, PineEntrance, 90, 90, 0, closed, closed, -6.042542, 0.02583647, 167.1028, 1.253235, 658.9703
30, neutral, 0, Hop4, 87, 90, 0, closed, closed, -2.707001, 0.8439824, 168.5896, 0.9747314, 661.2256
31, Maynard, 0, Maynard, -90, -90, 1, open, open, 7.232601, 1.593318, -167.5025, 1.085632, 663.4808
32, Zimmerman, -100, Zimmerman, 350, -90, 0, open, open, 5.871422, -0.378418, 273.9673, 1.475708, 666.1261
33, Umplebys, -50, Umplebys, 40, -90, 0, closed, closed, 7.58885, -0.8132324, -38.57227, 2.589478, 669.913
34, BakerBerryHistoric2, 180, BakerBerryHistoric2, 90, -90, 1, closed, closed, 3.571316, 3.221689, 16.23663, 2.074463, 674.9807
35, PineBackHall, 180, PineBackHall, 270, 90, 1, closed, closed, -3.623108, -1.031189, 348.3219, 0.8492432, 684.5176
36, Fairbanks, 0, Fairbanks, 270, 90, 0, open, open, 1.048791, 0.4549186, 350.3729, 1.071899, 686.8146
37, neutral, 0, PineBackHall, 90, -90, 0, open, closed, 5.047142, 2.866976, 5.936737, 1.238586, 689.237
38, PineEntrance, 0, PineEntrance, -90, -90, 1, open, open, 5.047405, 0.9154557, -169.934, 1.071777, 691.6597
39, neutral, 0, McLaughlinCluster, 82, -90, 0, closed, closed, 3.562887, -3.410645, 9.027802, 1.211304, 694.138
40, Fairbanks, 0, Fairbanks, -90, -90, 1, open, open, 6.173287, 1.171775, -165.2805, 1.225098, 696.6021
41, PineEntrance, 0, PineEntrance, -90, -90, 1, open, open, 5.248223, 1.114318, -167.1654, 2.172119, 701.8788
42, BakerBerryCharter, -90, BakerBerryCharter, 0, 90, 1, closed, closed, -4.433197, -0.5488281, 72.67367, 1.114014, 711.0955
43, BakerBerry2nd, 94, BakerBerry2nd, 184, 90, 1, open, open, -4.124359, -1.299683, 255.7031, 1.211548, 715.0076
44, BakerBerryCharter, -90, BakerBerryCharter, 0, -90, 0, closed, closed, 6.287226, -1.410095, -75.57562, 1.113953, 717.4716
45, Umplebys, -50, Umplebys, 40, 90, 1, closed, closed, -0.9801636, -1.58667, 113.3987, 1.09967, 719.88
46, Hop2, -1, Hop2, -91, -90, 1, closed, open, 7.769449, -0.930603, -171.1855, 0.9748535, 722.1357
47, MooreLot, 180, MooreLot, 270, -90, 0, open, closed, 9.059109, -3.588043, 197.069, 1.197266, 726.006
48, RaunerFirst, 0, RaunerFirst, 90, -90, 0, open, open, 7.073532, -1.857239, 12.83264, 1.057983, 732.8838
49, neutral, 0, MooreLot, 90, -90, 0, closed, closed, 5.373447, -2.025116, 15.22812, 0.9748535, 735.1949
50, RaunerBackHall, 0, RaunerBackHall, -90, -90, 1, closed, closed, 6.888886, 1.085306, -163.6997, 0.8913574, 737.6594
51, 53Commons, -90, 53Commons, 0, 90, 1, open, open, 1.373923, -3.691559, 75.15889, 1.295105, 740.1514
52, PineBackHall, 180, PineBackHall, 270, -90, 0, closed, closed, 5.784678, -1.132782, 194.5302, 0.8912354, 742.3232
53, Maynard, 0, Maynard, -90, -90, 1, open, open, 7.051039, -3.164368, -166.6917, 1.030273, 744.5645
54, PineEntrance, 0, PineEntrance, 270, 90, 0, open, open, -2.749756, -0.5721436, 344.7188, 1.141724, 746.8756
55, Zimmerman, -100, Zimmerman, -10, 90, 1, open, closed, -2.478607, -1.226959, 60.95519, 1.058044, 749.1587
56, neutral, 0, Fairbanks, 90, 90, 0, closed, open, -2.857269, -5.658203, 163.2938, 1.601624, 752.0413
57, RollinsChapel3, 177, RollinsChapel3, 87, -90, 1, open, open, 0.6227189, -1.323944, 13.09277, 1.002747, 754.4495
58, BakerBerry2nd, 94, BakerBerry2nd, 184, 90, 1, open, open, -2.809021, 0.2565634, 256.0468, 1.531555, 757.387
59, BakerBerryHistoric2, 180, BakerBerryHistoric2, 90, -90, 1, closed, closed, 3.556979, 0.7890604, 13.84534, 0.9050903, 759.5309
60, McLaughlinCluster, 172, McLaughlinCluster, 262, 90, 1, open, closed, 1.164409, 1.98217, 338.002, 1.309509, 762.0656
61, RollinsChapel3, 177, RollinsChapel3, 87, 90, 0, open, open, -2.55069, -0.3829346, 164.0242, 1.18335, 765.5314
62, MooreLot, 180, MooreLot, 270, 90, 1, open, open, 0.7496362, 0.9817334, 340.6013, 0.8629761, 767.6336
63, BakerBerryCharter, -90, BakerBerryCharter, 0, 90, 1, closed, closed, -3.92627, 2.457083, 74.43324, 1.002625, 769.8197
64, Umplebys, -50, Umplebys, 40, 90, 1, closed, closed, -2.047546, 1.319611, 112.7335, 0.8909912, 771.9497
65, RollinsChapel3, 177, RollinsChapel3, 87, -90, 1, open, open, 1.752657, 0.5772138, 12.45135, 0.8771362, 774.024
66, AllenSt, 0, AllenSt, -90, -90, 1, open, open, 4.412718, -0.9338379, -165.0764, 0.9187622, 776.3351
67, BakerBerryHistoric2, 180, BakerBerryHistoric2, 90, 90, 0, closed, closed, -2.257172, 1.503537, 163.6152, 1.002563, 778.5629
68, AllenSt, 0, AllenSt, 270, 90, 0, open, open, -2.373993, -0.4884644, 340.2881, 1.336731, 781.1385
69, neutral, 0, RaunerFirst, -90, -90, 0, closed, closed, 2.919819, 0.81276, -163.1729, 1.48938, 784.0341
70, AllenSt, 0, AllenSt, -90, -90, 1, open, open, 2.248131, 1.067477, -166.6564, 1.016602, 786.2619
71, neutral, 0, RaunerBackHall, 90, 90, 0, open, open, -3.428009, -0.8036499, 166, 0.9468994, 795.7846
72, Hop4, -3, Hop4, -93, -90, 1, open, open, 2.38272, -1.819122, -168.1581, 0.8076782, 797.9426
73, neutral, 0, Hop4, -93, -90, 0, open, open, 2.956983, 0.09368708, -168.3907, 0.9193115, 800.1287
74, neutral, 0, Hop2, -91, -90, 0, closed, closed, 3.233577, -1.617126, -161.5425, 0.9746094, 802.2863
75, RaunerFirst, 0, RaunerFirst, -90, -90, 1, closed, closed, 3.733214, -0.3190613, -163.1547, 0.9608765, 804.4444
76, RaunerBackHall, 0, RaunerBackHall, 90, 90, 1, open, open, -2.562286, -0.3112793, 164.5653, 1.044495, 806.6721
77, RaunerFirst, 0, RaunerFirst, -90, -90, 1, closed, closed, 1.484398, -0.1083679, -160.4996, 0.8630371, 808.7324
78, neutral, 0, BakerBerryHistoric2, 90, -90, 0, closed, closed, 1.998039, 1.036448, 19.21252, 0.8216553, 810.7233
79, PineEntrance, 0, PineEntrance, 90, -90, 0, closed, closed, 2.672308, -0.1863403, 19.74896, 1.113831, 813.0762
80, Hop4, -3, Hop4, 87, 90, 1, closed, closed, -3.389709, 0.7902762, 159.2412, 1.420105, 815.6377
81, BakerBerryHistoric2, 180, BakerBerryHistoric2, 270, -90, 0, open, open, 2.463784, 5.305145, 195.6291, 1.22522, 818.0185
82, BakerBerry2nd, 94, BakerBerry2nd, 4, -90, 1, closed, open, 2.970926, 0.7079533, -66.52539, 0.9050903, 820.0652
83, AllenSt, 0, AllenSt, 90, -90, 0, closed, closed, 2.572553, 0.05708246, 17.12582, 1.127686, 822.5156
84, Fairbanks, 0, Fairbanks, 90, 90, 1, closed, closed, -4.456757, -6.788177, 162.1528, 1.225098, 824.9241
85, PineBackHall, 180, PineBackHall, 90, -90, 1, open, closed, 2.165485, -0.3529968, 13.96353, 0.8911133, 827.0402
86, 53Commons, -90, 53Commons, 180, 90, 0, closed, closed, -3.549408, 4.184934, 257.7374, 2.408508, 830.7435
87, MooreLot, 180, MooreLot, 90, -90, 1, closed, closed, 3.354175, -2.811798, 14.03241, 1.75415, 884.5532
88, Hop4, -3, Hop4, 87, 90, 1, closed, closed, -1.785461, -4.436981, 156.0436, 1.294739, 887.4491
89, Hop2, -1, Hop2, 89, 90, 1, open, open, -1.806396, -0.8548584, 163.8295, 0.8493042, 889.5096
90, Zimmerman, -100, Zimmerman, -190, -90, 1, closed, closed, 7.845579, 0.1929699, -268.2349, 1.183167, 891.8901
91, Fairbanks, 0, Fairbanks, 90, 90, 1, closed, closed, -2.489624, -4.676483, 159.3772, 1.086182, 894.1318
92, RollinsChapel3, 177, RollinsChapel3, 267, 90, 1, closed, closed, -1.879761, 1.972189, 341.1487, 1.030518, 896.2899
93, neutral, 0, McLaughlinCluster, 262, 90, 0, open, closed, -2.295349, 2.544008, 337.3128, 1.183533, 898.6426
94, neutral, 0, PineEntrance, -90, -90, 0, open, open, 6.13861, 1.747623, -170.1525, 1.09967, 901.0093
95, neutral, 0, AllenSt, -90, -90, 0, open, open, 6.336065, -0.4487915, -168.0278, 1.00238, 903.1951
96, Umplebys, -50, Umplebys, -140, -90, 1, open, open, 4.704455, -0.8422241, -215.759, 0.9604492, 905.3948
97, BakerBerryCharter, -90, BakerBerryCharter, -180, -90, 1, open, open, 3.46035, -3.654114, -253.9811, 0.9884644, 907.6086
98, PineBackHall, 180, PineBackHall, 90, -90, 1, open, open, 4.500183, -1.920715, 10.51654, 0.9328613, 909.7665
99, McLaughlinCluster, 172, McLaughlinCluster, 82, 90, 0, closed, closed, -5.532104, -2.419495, 155.2874, 1.280884, 912.203
100, AllenSt, 0, AllenSt, 90, 90, 1, closed, closed, -1.759766, -0.3823242, 165.3332, 1.225159, 914.5977
101, Zimmerman, -100, Zimmerman, -190, -90, 1, closed, open, 6.641554, -0.8391418, -268.7527, 1.225098, 917.0062
102, Maynard, 0, Maynard, 90, -90, 0, closed, closed, 4.517119, -0.3934021, 13.67459, 1.044434, 919.2338
103, neutral, 0, 53Commons, 0, 90, 0, open, open, 2.822734, -2.854279, 78.25011, 1.0448, 921.4478
104, BakerBerryCharter, -90, BakerBerryCharter, -180, -90, 1, open, open, 3.03262, 1.22614, -256.3481, 0.8638916, 923.4528
105, MooreLot, 180, MooreLot, 90, -90, 1, closed, closed, 6.060033, -1.91452, 12.16156, 0.7658691, 925.3594
106, RaunerBackHall, 0, RaunerBackHall, 90, 90, 1, open, open, -2.799744, -2.148315, 163.2893, 1.155701, 927.7263
107, BakerBerryHistoric2, 180, BakerBerryHistoric2, 270, 90, 1, open, open, -2.761383, -1.16095, 347.582, 1.141846, 945.5052
108, PineEntrance, 0, PineEntrance, 90, 90, 1, closed, closed, -4.860016, 2.626555, 160.2444, 0.9605103, 947.7744
109, PineBackHall, 180, PineBackHall, 90, 90, 0, open, closed, -1.568146, -1.954132, 157.8426, 0.8496094, 949.8074
110, BakerBerry2nd, 94, BakerBerry2nd, 4, 90, 0, closed, closed, -3.863678, -1.869446, 72.63811, 1.615112, 952.675
111, neutral, 0, Fairbanks, -90, -90, 0, open, open, 7.351088, -2.294189, -162.2883, 1.266846, 955.2366
112, Hop2, -1, Hop2, 89, -90, 0, open, open, 5.771962, -0.8372192, 12.11813, 1.210938, 957.7008
113, Umplebys, -50, Umplebys, -140, -90, 1, open, open, 4.855801, -1.669586, -211.7664, 0.8633423, 959.7893
114, Zimmerman, -100, Zimmerman, 170, 90, 0, closed, closed, -2.60379, -1.68988, 240.4407, 1.169434, 962.2118
115, Maynard, 0, Maynard, 90, 90, 1, closed, closed, -1.683746, -4.508972, 159.1158, 1.002563, 964.3839
116, RollinsChapel3, 177, RollinsChapel3, 267, 90, 1, closed, closed, -0.7372131, -1.888336, 338.6635, 1.029968, 966.611
117, neutral, 0, PineBackHall, 270, 90, 0, closed, closed, -6.727966, -1.996887, 344.865, 1.114075, 968.8947
118, MooreLot, 180, MooreLot, 90, 90, 0, closed, closed, -3.162842, -3.34668, 158.8825, 1.030151, 971.1362
119, 53Commons, -90, 53Commons, -180, -90, 1, closed, closed, 6.410506, 1.48379, -253.7423, 1.712219, 974.0456
120, neutral, 0, RaunerFirst, 90, 90, 0, open, open, -5.274414, -3.569855, 161.8618, 1.05835, 976.2038
121, Umplebys, -50, Umplebys, 220, 90, 0, open, open, -5.317505, -3.406708, 291.9917, 1.447815, 978.7653
122, PineEntrance, 0, PineEntrance, 90, 90, 1, closed, closed, -3.910034, -0.3141785, 161.9197, 1.12738, 980.9233
123, BakerBerryCharter, -90, BakerBerryCharter, 180, 90, 0, open, open, -3.734802, -0.02603149, 250.6843, 1.169617, 983.2345
124, neutral, 0, MooreLot, 270, 90, 0, open, open, -2.778412, -1.432251, 341.7443, 1.47583, 985.8658
125, BakerBerry2nd, 94, BakerBerry2nd, 4, -90, 1, closed, open, 6.113344, -0.03308105, -73.16052, 1.36438, 988.4136
126, Maynard, 0, Maynard, 90, 90, 1, closed, closed, -2.67038, -5.789429, 163.3154, 1.169312, 995.4163
127, neutral, 0, RollinsChapel3, 87, -90, 0, open, open, 3.347908, -2.423004, 13.21567, 1.002441, 997.6024
128, McLaughlinCluster, 172, McLaughlinCluster, 82, -90, 1, closed, closed, 4.376287, -10.15738, 15.83679, 1.26709, 1000.081
129, neutral, 0, BakerBerryCharter, 0, 90, 0, closed, closed, -4.314423, -1.147919, 72.87594, 0.8218384, 1002.044
130, RollinsChapel3, 177, RollinsChapel3, 267, -90, 0, closed, closed, 5.969944, -5.084808, 192.5828, 1.141663, 1004.327
131, Hop4, -3, Hop4, 87, -90, 0, closed, closed, 2.76143, -2.57608, 21.65048, 1.559204, 1007.014
132, McLaughlinCluster, 172, McLaughlinCluster, 82, -90, 1, closed, closed, 1.020981, -5.748932, 14.45609, 1.600647, 1010.076
133, neutral, 0, BakerBerry2nd, 184, 90, 0, open, open, -2.756531, -0.7100525, 254.9376, 1.072021, 1012.262
134, RaunerBackHall, 0, RaunerBackHall, 90, -90, 0, open, open, 2.874663, -0.7770386, 18.86771, 0.9884033, 1014.476
135, BakerBerryHistoric2, 180, BakerBerryHistoric2, 270, 90, 1, open, open, -3.618439, -0.2663574, 343.5421, 1.002441, 1016.704
136, neutral, 0, Zimmerman, -10, 90, 0, open, open, -3.017792, -3.111969, 62.7561, 1.280945, 1019.154
137, RaunerFirst, 0, RaunerFirst, 270, 90, 0, closed, closed, -1.957001, -2.520142, 346.7758, 1.099854, 1021.423
138, Hop2, -1, Hop2, 89, 90, 1, open, open, 0.4787377, -3.77417, 163.8275, 0.9052124, 1023.539
139, neutral, 0, RaunerBackHall, -90, -90, 0, closed, closed, 6.17195, -1.745453, -166.6003, 0.9052734, 1025.642
140, neutral, 0, Maynard, -90, -90, 0, open, open, 7.427482, -4.577759, -162.7113, 1.266724, 1028.05
141, neutral, 0, Umplebys, 40, 90, 0, closed, closed, -2.076385, -0.8676758, 111.8661, 0.9885254, 1030.236
142, AllenSt, 0, AllenSt, 90, 90, 1, closed, closed, -2.189667, -1.714935, 157.8433, 0.9606934, 1032.422
143, 53Commons, -90, 53Commons, -180, -90, 1, closed, closed, 4.054617, -3.288239, -249.424, 1.266968, 1034.956
144, Fairbanks, 0, Fairbanks, 90, -90, 0, closed, closed, 2.620234, -6.100006, 18.57217, 1.378418, 1037.545
