trialIdx, primeName, primeAngleYaw, targetName, targetAngleYaw, targetSide, sameScenePrime, correctResponse, response, roll, pitch, yaw, rt, timestamp
1, neutral, 0, RaunerFirst, -90, -90, 0, closed, closed, 6.330305, -8.610962, -139.5078, 1.573181, 578.4584
2, Zimmerman, -100, Zimmerman, 170, 90, 2, closed, open, -9.369415, 4.760005, 238.0146, 1.5177, 583.6794
3, neutral, 0, Hop4, -93, -90, 0, open, open, 7.782108, -5.248016, -158.277, 1.099976, 587.1461
4, BakerBerryHistoric2, 180, BakerBerryHistoric2, 270, 90, 1, open, open, -9.621552, 1.061443, 342.4238, 0.7658081, 589.4432
5, BakerBerryCharter, -90, BakerBerryCharter, -180, -90, 1, open, open, 8.738532, -6.669006, -251.5432, 0.668396, 591.7962
6, PineBackHall, 180, PineBackHall, 90, 90, 2, open, closed, -8.193207, -8.969208, 135.4168, 0.723877, 593.8705
7, BakerBerry2nd, 94, BakerBerry2nd, 184, 90, 1, open, open, -8.318176, -3.018585, 249.5588, 1.086243, 598.2839
8, RaunerBackHall, 0, RaunerBackHall, 90, 90, 1, open, open, -9.360626, -2.50824, 156.5388, 0.9190674, 600.7761
9, Hop2, -1, Hop2, 269, 90, 2, closed, open, -9.294952, -6.030914, 322.1844, 0.9609985, 603.0453
10, BakerBerryHistoric2, 180, BakerBerryHistoric2, 270, -90, 2, open, open, 4.38555, -3.81897, 216.7913, 1.628601, 606.985
11, neutral, 0, McLaughlinCluster, 262, 90, 0, open, open, -9.970886, -7.331329, 300.7318, 1.183533, 611.4682
12, Zimmerman, -100, Zimmerman, -190, -90, 1, closed, closed, 10.83928, -6.636169, -257.9472, 1.197266, 614.1411
13, Hop2, -1, Hop2, -91, -90, 1, closed, closed, 11.16577, -6.072876, -155.9518, 1.169617, 616.5778
14, Hop4, -3, Hop4, 87, 90, 1, closed, closed, -8.414795, -0.8593445, 145.7776, 1.600952, 620.5176
15, neutral, 0, AllenSt, 90, 90, 0, closed, closed, -8.734924, 0.7944809, 150.3691, 1.127808, 624.5412
16, 53Commons, 0, 53Commons, 90, -90, 2, open, open, 9.529797, -6.744995, 30.30847, 1.002686, 627.1727
17, BakerBerryHistoric2, 180, BakerBerryHistoric2, 270, 90, 1, open, open, -10.93033, 7.503318, 340.2326, 1.336487, 630.1797
18, Zimmerman, -100, Zimmerman, -190, -90, 1, closed, closed, 6.991143, -8.686798, -248.1886, 0.9466553, 632.5048
19, Fairbanks, 0, Fairbanks, 270, 90, 2, open, open, -12.55566, -0.02838135, 336.4818, 1.044556, 634.9553
20, Maynard, 0, Maynard, 90, 90, 1, closed, closed, -8.368744, -2.164764, 154.962, 1.002197, 638.2127
21, RaunerFirst, 0, RaunerFirst, 90, -90, 2, open, open, 8.505022, -13.16721, 27.93967, 1.058472, 661.0319
22, RollinsChapel3, 177, RollinsChapel3, 267, -90, 2, closed, closed, 5.313821, -9.523163, 222.7893, 1.643005, 664.3593
23, PineEntrance, 0, PineEntrance, 270, 90, 2, open, open, -9.494476, -2.950623, 334.4485, 1.085999, 667.5195
24, neutral, 0, Fairbanks, 90, 90, 0, closed, closed, -11.14368, -1.973572, 157.8446, 0.8494263, 670.3735
25, neutral, 0, Umplebys, -140, -90, 0, open, open, 11.88106, -6.353699, -207.6237, 0.9327393, 673.0883
26, neutral, 0, BakerBerryHistoric2, 90, -90, 0, closed, closed, 7.599379, -6.995087, 35.92258, 1.100037, 675.3716
27, neutral, 0, PineEntrance, 90, 90, 0, closed, closed, -11.07776, -2.197784, 147.6701, 0.9329834, 677.7801
28, neutral, 0, Zimmerman, -10, 90, 0, open, open, -9.111877, -1.952209, 55.87923, 0.9881592, 680.091
29, neutral, 0, MooreLot, 270, 90, 0, open, open, -11.44693, 0.4659295, 339.2936, 1.3927, 682.8205
30, Maynard, 0, Maynard, 90, -90, 2, closed, closed, 9.548151, -1.791534, 21.01437, 1.211182, 686.2586
31, PineBackHall, 180, PineBackHall, 90, -90, 1, open, open, 8.584782, -6.34552, 25.12833, 0.9472656, 688.598
32, Umplebys, -50, Umplebys, 40, 90, 1, closed, closed, -9.759857, -0.8123474, 105.4159, 1.378662, 691.7721
33, Hop4, -3, Hop4, 87, -90, 2, closed, closed, 4.153973, -10.07071, 40.04431, 0.835144, 694.0134
34, neutral, 0, PineBackHall, 270, 90, 0, closed, closed, -8.29187, -4.368622, 328.0013, 1.169373, 710.8735
35, neutral, 0, Hop2, 89, 90, 0, open, open, 0.378192, -2.897644, 157.2161, 1.489868, 819.7563
36, Fairbanks, 0, Fairbanks, -90, -90, 1, open, open, 7.115494, -8.409943, -161.1913, 0.696228, 822.0673
37, neutral, 0, RollinsChapel3, 87, -90, 0, open, open, 3.02793, -7.684265, 26.8515, 1.072205, 824.6988
38, neutral, 0, BakerBerryCharter, 0, 90, 0, closed, closed, -2.330231, -1.856903, 61.93151, 0.6821899, 826.5922
39, PineEntrance, 0, PineEntrance, -90, -90, 1, open, open, 9.162133, -6.675385, -165.6179, 0.7519531, 828.8475
40, AllenSt, 0, AllenSt, -90, -90, 1, open, open, 4.987116, -9.974457, -151.0282, 0.8632813, 830.936
41, 53Commons, 0, 53Commons, 90, 90, 1, open, open, -3.126556, -5.961823, 151.1555, 1.09967, 833.7481
42, MooreLot, 180, MooreLot, 90, 90, 2, closed, closed, -2.922913, -2.062439, 152.5575, 1.058289, 836.0592
43, AllenSt, 0, AllenSt, -90, -90, 1, open, open, 5.373649, -8.650726, -155.3969, 0.6960449, 838.2728
44, neutral, 0, 53Commons, -90, -90, 0, closed, open, 6.520001, -9.104675, -155.1327, 0.7382202, 840.6538
45, MooreLot, 180, MooreLot, 90, -90, 1, closed, closed, 4.295697, -10.71011, 36.32114, 0.821106, 843.1457
46, RollinsChapel3, 177, RollinsChapel3, 267, 90, 1, closed, closed, -5.690033, -3.272858, 319.672, 1.058044, 845.6238
47, neutral, 0, Maynard, -90, -90, 0, open, open, 8.978319, -8.377472, -156.345, 0.7658081, 848.2415
48, 53Commons, 0, 53Commons, 90, 90, 1, open, open, -3.460022, -7.546875, 144.298, 0.9041748, 850.4691
49, Fairbanks, 0, Fairbanks, -90, -90, 1, open, open, 5.154723, -9.259552, -156.8629, 0.7244263, 852.9195
50, AllenSt, 0, AllenSt, 270, 90, 2, open, open, -4.050201, -8.984192, 327.9452, 0.9470215, 855.1467
51, McLaughlinCluster, 172, McLaughlinCluster, 82, 90, 2, closed, closed, -2.009155, -8.833405, 108.2193, 1.23877, 857.569
52, RaunerBackHall, 0, RaunerBackHall, 90, 90, 1, open, open, -4.0961, -4.992584, 151.1607, 0.9187622, 860.1588
53, BakerBerry2nd, 94, BakerBerry2nd, 184, -90, 2, open, open, 8.034342, -7.317749, 112.5506, 0.8630981, 862.275
54, BakerBerryCharter, -90, BakerBerryCharter, 180, 90, 2, open, closed, -1.676971, -2.257996, 242.9608, 0.9747925, 864.6432
55, Umplebys, -50, Umplebys, 40, 90, 1, closed, closed, -4.306458, -6.068817, 76.82184, 1.267029, 867.5669
56, Maynard, 0, Maynard, 90, 90, 1, closed, closed, -4.403717, -3.311859, 149.6048, 0.9328613, 870.2261
57, RaunerBackHall, 0, RaunerBackHall, 90, -90, 2, open, open, 5.779322, -7.661041, 27.19998, 0.9747925, 872.4954
58, PineBackHall, 180, PineBackHall, 90, -90, 1, open, open, 7.687741, -8.377899, 26.08838, 0.8632813, 874.9736
59, McLaughlinCluster, 172, McLaughlinCluster, 82, -90, 1, closed, open, 4.525062, -9.329437, 16.54156, 0.9332886, 877.2154
60, RaunerFirst, 0, RaunerFirst, 90, 90, 1, open, open, -3.49527, -3.210144, 141.8782, 1.099854, 881.4055
61, neutral, 0, BakerBerry2nd, 4, -90, 0, closed, closed, 2.611027, -12.31247, -33.89456, 1.002747, 884.8723
62, MooreLot, 180, MooreLot, 90, -90, 1, closed, closed, 3.909333, -9.78952, 38.21667, 0.9049683, 887.3502
63, Hop4, -3, Hop4, 87, 90, 1, closed, closed, -4.41922, -3.34848, 140.4557, 0.8214722, 889.5222
64, McLaughlinCluster, 172, McLaughlinCluster, 82, -90, 1, closed, closed, 4.460917, -10.80038, 26.01031, 0.8496094, 891.9587
65, Umplebys, -50, Umplebys, 40, -90, 2, closed, closed, 5.569804, -8.758789, -19.57623, 0.9609985, 894.4369
66, RaunerFirst, 0, RaunerFirst, 90, 90, 1, open, open, -2.405853, -5.196045, 141.8085, 0.8353271, 896.5667
67, PineEntrance, 0, PineEntrance, -90, -90, 1, open, open, 7.053936, -8.941559, -155.1894, 0.7797241, 898.5578
68, neutral, 0, RaunerBackHall, -90, -90, 0, closed, closed, 5.074869, -8.109619, -146.9827, 0.7938232, 901.05
69, BakerBerry2nd, 94, BakerBerry2nd, 184, 90, 1, open, open, -2.627136, -6.652649, 232.8419, 0.8356323, 903.5421
70, BakerBerryCharter, -90, BakerBerryCharter, -180, -90, 1, open, open, 3.397642, -11.1629, -222.9127, 0.8911743, 905.9926
71, RollinsChapel3, 177, RollinsChapel3, 267, 90, 1, closed, open, -3.493988, -6.181488, 277.551, 1.252869, 937.86
72, Hop2, -1, Hop2, -91, -90, 1, closed, closed, 2.89539, -11.46002, -129.6957, 0.918457, 940.2266
73, neutral, 0, BakerBerryHistoric2, 270, 90, 0, open, open, -3.869263, -10.56247, 289.956, 0.9887085, 942.4965
74, RaunerBackHall, 0, RaunerBackHall, 270, 90, 2, closed, closed, -5.365509, -7.749664, 306.2844, 1.08606, 945.2251
75, BakerBerryHistoric2, 180, BakerBerryHistoric2, 90, 90, 2, closed, closed, -5.31662, -4.538635, 122.1564, 1.085876, 948.0512
76, neutral, 0, Zimmerman, -190, -90, 0, closed, open, 4.56848, -5.455444, -255.1799, 1.016724, 950.6269
77, AllenSt, 0, AllenSt, 90, 90, 1, closed, closed, -6.04837, -5.531311, 138.5577, 0.8772583, 953.2723
78, PineEntrance, 0, PineEntrance, 90, -90, 2, closed, closed, 3.816526, -7.905701, 38.63293, 0.9606323, 955.7502
79, Hop4, -3, Hop4, -93, -90, 1, open, open, 3.965627, -8.373718, -156.2398, 0.7518311, 958.1589
80, RollinsChapel3, 177, RollinsChapel3, 87, 90, 2, open, closed, -4.33017, -4.882751, 149.1693, 0.7241211, 960.3865
81, Hop2, -1, Hop2, 89, 90, 1, open, open, -4.978119, -7.979431, 124.1319, 1.406128, 965.6768
82, MooreLot, 180, MooreLot, 270, 90, 1, open, open, -5.225586, -5.612793, 320.5253, 1.141602, 968.3499
83, 53Commons, 0, 53Commons, -90, -90, 1, closed, closed, 1.264574, -13.1322, -100.3293, 1.378662, 971.3572
84, neutral, 0, MooreLot, 90, -90, 0, closed, closed, 3.007435, -8.914795, 50.82217, 1.030334, 973.9745
85, BakerBerry2nd, 94, BakerBerry2nd, 4, -90, 1, closed, closed, 3.956281, -8.804596, -46.48199, 0.9049683, 976.6337
86, Hop2, -1, Hop2, 89, -90, 2, open, open, 3.535807, -7.22522, 34.57288, 1.002563, 979.1119
87, McLaughlinCluster, 172, McLaughlinCluster, 262, -90, 2, open, open, 6.156837, -4.893372, 193.1596, 0.9187012, 981.8962
88, AllenSt, 0, AllenSt, 90, -90, 2, closed, closed, 5.989113, -6.655914, 29.72388, 0.9604492, 985.335
89, neutral, 0, Fairbanks, -90, -90, 0, open, open, 7.942517, -5.620087, -161.3758, 0.7935791, 987.5906
90, neutral, 0, PineEntrance, -90, -90, 0, open, open, 6.564279, -5.146545, -162.2406, 0.9468994, 990.403
91, Umplebys, -50, Umplebys, -140, -90, 1, open, open, 4.993642, -6.623047, -200.6064, 0.7654419, 992.9227
92, BakerBerry2nd, 94, BakerBerry2nd, 4, -90, 1, closed, open, 7.488403, -4.641571, -62.66016, 0.7379761, 995.1923
93, neutral, 0, RaunerFirst, 90, 90, 0, open, open, -5.869415, -7.979309, 141.5485, 0.9188843, 997.9763
94, Maynard, 0, Maynard, -90, -90, 1, open, open, 5.96423, -10.79587, -147.5346, 0.8353882, 1000.232
95, Umplebys, -50, Umplebys, -140, -90, 1, open, open, 5.484252, -7.360779, -203.4759, 0.8355103, 1002.529
96, RaunerBackHall, 0, RaunerBackHall, -90, -90, 1, closed, closed, 6.707653, -6.244415, -142.905, 0.8210449, 1004.84
97, BakerBerryHistoric2, 180, BakerBerryHistoric2, 90, -90, 1, closed, closed, 6.619312, -7.436951, 31.70383, 0.8770752, 1007.277
98, McLaughlinCluster, 172, McLaughlinCluster, 262, 90, 1, open, open, -3.816101, -2.864502, 329.0833, 1.141663, 1009.797
99, neutral, 0, PineBackHall, 90, -90, 0, open, open, 7.780182, -8.673065, 28.35934, 1.057861, 1012.316
100, neutral, 0, RollinsChapel3, 267, 90, 0, closed, closed, -4.69162, -1.315491, 330.473, 1.086182, 1014.837
101, Umplebys, -50, Umplebys, 220, 90, 2, open, open, -7.533813, -5.055481, 286.1612, 1.100037, 1017.719
102, neutral, 0, 53Commons, 90, 90, 0, open, open, -6.854156, -6.524689, 158.2181, 0.8494263, 1020.837
103, PineBackHall, 180, PineBackHall, 270, 90, 1, closed, closed, -5.383026, -9.397125, 311.2668, 0.7659912, 1023.204
104, MooreLot, 180, MooreLot, 270, -90, 2, open, open, 6.809057, -7.916351, 207.505, 0.9747314, 1025.863
105, BakerBerryCharter, -90, BakerBerryCharter, 0, -90, 2, closed, closed, 5.847134, -8.273804, -50.01212, 1.002319, 1028.271
106, RaunerBackHall, 0, RaunerBackHall, -90, -90, 1, closed, closed, 6.55712, -8.536011, -140.0845, 0.8215332, 1030.499
107, Zimmerman, -100, Zimmerman, 350, -90, 2, open, open, 4.660312, -8.085297, 281.4033, 0.8773193, 1069.984
108, MooreLot, 180, MooreLot, 270, 90, 1, open, open, -1.53717, -6.75238, 320.0055, 1.155518, 1072.392
109, 53Commons, 0, 53Commons, -90, -90, 1, closed, closed, 2.247172, -10.85272, -126.2438, 1.183105, 1075.051
110, RaunerFirst, 0, RaunerFirst, -90, -90, 1, closed, closed, 1.783973, -8.965668, -136.7791, 1.447998, 1078.003
111, Zimmerman, -100, Zimmerman, -10, 90, 1, open, open, -4.065369, -7.1539, 44.32192, 0.9326172, 1080.676
112, AllenSt, 0, AllenSt, 90, 90, 1, closed, closed, -4.287567, -5.325348, 140.426, 0.9051514, 1083.057
113, PineBackHall, 180, PineBackHall, 270, -90, 2, closed, closed, 7.695376, -4.885315, 201.3762, 0.9326172, 1085.423
114, Fairbanks, 0, Fairbanks, 90, -90, 2, closed, closed, 4.910259, -5.109558, 26.36304, 1.127319, 1087.874
115, RaunerFirst, 0, RaunerFirst, 270, 90, 2, closed, closed, -3.135712, -7.291748, 306.2525, 1.030029, 1090.394
116, RollinsChapel3, 177, RollinsChapel3, 87, -90, 1, open, open, 3.02559, -9.111023, 40.33499, 1.155762, 1092.942
117, Hop2, -1, Hop2, 89, 90, 1, open, open, -4.186981, -7.65683, 136.8623, 0.9193115, 1095.559
118, RaunerFirst, 0, RaunerFirst, -90, -90, 1, closed, closed, 5.634434, -6.362793, -153.589, 0.7938232, 1097.731
119, neutral, 0, Hop2, -91, -90, 0, closed, closed, 4.800565, -8.085327, -144.6136, 0.9470215, 1100.14
120, PineEntrance, 0, PineEntrance, 90, 90, 1, closed, closed, -2.866516, -10.11163, 101.5359, 1.211548, 1103.133
121, BakerBerryCharter, -90, BakerBerryCharter, 0, 90, 1, closed, closed, -5.002136, -3.229858, 50.99978, 1.043823, 1105.43
122, McLaughlinCluster, 172, McLaughlinCluster, 262, 90, 1, open, open, -6.220093, -3.093201, 311.7286, 1.155518, 1108.353
123, neutral, 0, Umplebys, 40, 90, 0, closed, closed, -2.514465, -4.253326, 83.68959, 1.058105, 1110.971
124, BakerBerryHistoric2, 180, BakerBerryHistoric2, 90, -90, 1, closed, closed, 7.383736, -4.44043, 17.63379, 0.8911133, 1113.282
125, 53Commons, 0, 53Commons, 270, 90, 2, closed, closed, -5.333618, -4.609344, 323.4895, 1.155396, 1115.913
126, Hop4, -3, Hop4, 267, 90, 2, open, open, -4.566681, -2.500824, 330.7009, 1.099854, 1118.405
127, PineBackHall, 180, PineBackHall, 270, 90, 1, closed, closed, -4.39032, 0.9612237, 331.8637, 1.197266, 1121.065
128, neutral, 0, RaunerBackHall, 90, 90, 0, open, open, -2.934937, -1.376282, 144.2703, 1.55896, 1124.169
129, neutral, 0, BakerBerry2nd, 184, 90, 0, open, open, -4.53595, -0.946228, 246.9793, 1.002441, 1126.912
130, Fairbanks, 0, Fairbanks, 90, 90, 1, closed, open, -4.538696, -2.720612, 153.7729, 0.9746094, 1129.376
131, Maynard, 0, Maynard, -90, -90, 1, open, open, 7.236143, -6.733551, -151.3441, 1.11377, 1131.827
132, RollinsChapel3, 177, RollinsChapel3, 87, -90, 1, open, open, 3.823385, -5.933289, 28.58548, 0.8215332, 1133.943
133, Hop4, -3, Hop4, -93, -90, 1, open, open, 5.775445, -8.097931, -156.5705, 0.793457, 1136.254
134, neutral, 0, AllenSt, -90, -90, 0, open, open, 5.592828, -7.584625, -150.499, 0.9746094, 1138.621
135, Maynard, 0, Maynard, 270, 90, 2, open, open, -4.187988, -3.59256, 320.6806, 1.016602, 1140.988
136, BakerBerry2nd, 94, BakerBerry2nd, 4, 90, 2, closed, closed, -3.419708, -4.560333, 49.0049, 1.10022, 1143.41
137, BakerBerryCharter, -90, BakerBerryCharter, 0, 90, 1, closed, closed, -5.838257, -2.724091, 57.23797, 0.8912354, 1145.666
138, Fairbanks, 0, Fairbanks, 90, 90, 1, closed, closed, -3.119629, -4.204315, 140.2477, 1.364624, 1148.52
139, Zimmerman, -100, Zimmerman, -10, 90, 1, open, open, -4.007141, -5.837433, 44.28527, 1.072021, 1151.262
140, neutral, 0, Maynard, 90, 90, 0, closed, closed, -4.526855, -4.625946, 136.2302, 1.016235, 1153.74
141, neutral, 0, BakerBerryCharter, -180, -90, 0, open, open, 3.424381, -7.079163, -225.9213, 1.183472, 1156.33
142, neutral, 0, McLaughlinCluster, 82, -90, 0, closed, closed, 1.276706, -8.939148, 38.45258, 1.099854, 1159.142
143, neutral, 0, Hop4, 87, 90, 0, closed, closed, -3.410583, -3.283539, 134.4821, 0.8769531, 1164.001
144, PineEntrance, 0, PineEntrance, 90, 90, 1, closed, closed, -4.992615, -0.07250977, 147.6271, 0.8631592, 1166.131
