trialIdx, primeName, primeAngleYaw, targetName, targetAngleYaw, targetSide, sameScenePrime, correctResponse, response, roll, pitch, yaw, rt, timestamp
1, neutral, 0, RaunerFirst, -90, -90, 0, closed, closed, -2.568359, 11.34015, -177.8676, 1.375427, 723.7015
2, Zimmerman, -100, Zimmerman, 170, 90, 2, closed, closed, -0.4198303, 9.65432, 254.7546, 1.638855, 738.7571
3, neutral, 0, Hop4, -93, -90, 0, open, open, -1.687836, 13.83851, -179.6247, 1.403015, 749.2296
4, BakerBerryHistoric2, 180, BakerBerryHistoric2, 270, 90, 1, open, open, -1.035614, 13.60136, 357.0175, 1.624268, 755.16
5, BakerBerryCharter, -90, BakerBerryCharter, -180, -90, 1, open, open, -0.7512817, 13.18318, -266.1341, 1.402954, 761.077
6, PineBackHall, 180, PineBackHall, 90, 90, 2, open, closed, -4.741699, 14.59031, 168.4238, 1.694275, 766.6323
7, BakerBerry2nd, 94, BakerBerry2nd, 184, 90, 1, open, open, -3.388519, 11.75822, 265.1375, 1.65271, 779.4103
8, RaunerBackHall, 0, RaunerBackHall, 90, 90, 1, open, open, -4.314545, 9.254209, 168.0852, 1.361267, 785.105
9, Hop2, -1, Hop2, 269, 90, 2, closed, closed, -4.189026, 12.54221, 346.7252, 1.41687, 792.6746
10, BakerBerryHistoric2, 180, BakerBerryHistoric2, 270, -90, 2, open, open, 0.342476, 18.01661, 186.5657, 2.000122, 800.8829
11, neutral, 0, McLaughlinCluster, 262, 90, 0, open, open, 1.128353, 14.31007, 348.5299, 1.569885, 808.5777
12, Zimmerman, -100, Zimmerman, -190, -90, 1, closed, open, 2.269025, 10.8795, -273.79, 2.833496, 815.9805
13, Hop2, -1, Hop2, -91, -90, 1, closed, closed, 0.6135389, 12.10997, -168.4277, 1.09729, 822.1056
14, Hop4, -3, Hop4, 87, 90, 1, closed, closed, -4.76236, 12.75449, 161.3808, 1.834961, 827.1625
15, neutral, 0, AllenSt, 90, 90, 0, closed, closed, -2.003326, 8.551435, 163.2658, 1.54187, 834.7588
16, 53Commons, 0, 53Commons, 90, -90, 2, open, open, -0.7956848, 7.725982, 9.505249, 1.361145, 841.8558
17, BakerBerryHistoric2, 180, BakerBerryHistoric2, 270, 90, 1, open, open, -1.229248, 20.05239, 349.0696, 2.19458, 851.356
18, Zimmerman, -100, Zimmerman, -190, -90, 1, closed, closed, 3.163689, 10.31955, -276.3982, 2.722168, 862.1617
19, Fairbanks, 0, Fairbanks, 270, 90, 2, open, open, 0.07198824, 8.311964, 355.576, 2.639099, 871.8842
20, Maynard, 0, Maynard, 90, 90, 1, closed, closed, -1.98819, 8.434748, 170.726, 2.000183, 878.7037
21, RaunerFirst, 0, RaunerFirst, 90, -90, 2, open, open, -0.09295654, 10.91089, 1.870392, 1.888855, 884.2314
22, RollinsChapel3, 177, RollinsChapel3, 267, -90, 2, closed, closed, 3.376199, 10.09005, 181.8273, 2.319641, 890.5512
23, PineEntrance, 0, PineEntrance, 270, 90, 2, open, open, -2.753601, 8.476874, 347.6738, 1.791565, 895.9815
24, neutral, 0, Fairbanks, 90, 90, 0, closed, closed, -3.179138, 9.29733, 173.6315, 1.583252, 901.8845
25, neutral, 0, Umplebys, -140, -90, 0, open, open, -2.164001, 12.84381, -225.1747, 2.041992, 907.9542
26, neutral, 0, BakerBerryHistoric2, 90, -90, 0, closed, closed, -1.07132, 16.34518, -0.3941956, 1.305908, 912.4681
27, neutral, 0, PineEntrance, 90, 90, 0, closed, closed, -2.904816, 11.42833, 177.4847, 1.347473, 918.3292
28, neutral, 0, Zimmerman, -10, 90, 0, open, open, -2.514404, 8.584194, 72.21595, 1.194092, 923.6762
29, neutral, 0, MooreLot, 270, 90, 0, open, open, -2.893036, 8.507784, 351.4759, 1.180542, 928.0793
30, Maynard, 0, Maynard, 90, -90, 2, closed, closed, -1.245911, 9.257899, 4.43399, 1.472229, 933.2044
31, PineBackHall, 180, PineBackHall, 90, -90, 1, open, open, -0.008728027, 20.62563, -5.922333, 2.47229, 943.6351
32, Umplebys, -50, Umplebys, 40, 90, 1, closed, closed, -5.547516, 7.192089, 111.1996, 1.361328, 951.8297
33, Hop4, -3, Hop4, 87, -90, 2, closed, closed, 1.618436, 10.98388, 1.937347, 1.777771, 958.5101
34, neutral, 0, PineBackHall, 270, 90, 0, closed, closed, -3.309906, 11.99735, 346.0931, 1.320068, 965.2332
35, neutral, 0, Hop2, 89, 90, 0, open, open, -3.438354, 10.21855, 167.6911, 1.611267, 986.9274
36, Fairbanks, 0, Fairbanks, -90, -90, 1, open, open, 0.267977, 10.47309, -171.6502, 1.347107, 991.0246
37, neutral, 0, RollinsChapel3, 87, -90, 0, open, open, -1.056976, 10.26189, 8.241547, 1.027954, 994.3026
38, neutral, 0, BakerBerryCharter, 0, 90, 0, closed, closed, -2.975464, 11.76737, 71.17104, 0.9998169, 997.8579
39, PineEntrance, 0, PineEntrance, -90, -90, 1, open, open, -0.1042175, 14.61996, -175.9968, 1.388916, 1002.608
40, AllenSt, 0, AllenSt, -90, -90, 1, open, open, -0.8682861, 12.58024, -174.6677, 1.541748, 1006.761
41, 53Commons, 0, 53Commons, 90, 90, 1, open, open, -4.67041, 9.473199, 156.6124, 1.208374, 1010.344
42, MooreLot, 180, MooreLot, 90, 90, 2, closed, closed, -5.433044, 5.587474, 150.9104, 1.236267, 1013.581
43, AllenSt, 0, AllenSt, -90, -90, 1, open, open, 0.9095358, 11.96519, -167.0222, 1.194519, 1017.456
44, neutral, 0, 53Commons, -90, -90, 0, closed, closed, -0.1697693, 9.379143, -167.0241, 1.138916, 1020.747
45, MooreLot, 180, MooreLot, 90, -90, 1, closed, closed, -1.523468, 10.36258, 13.79797, 1.236206, 1024.247
46, RollinsChapel3, 177, RollinsChapel3, 267, 90, 1, closed, closed, -3.893219, 11.04848, 332.0772, 1.694702, 1027.928
47, neutral, 0, Maynard, -90, -90, 0, open, open, -0.4336243, 11.00785, -166.3035, 1.40271, 1031.608
48, 53Commons, 0, 53Commons, 90, 90, 1, open, open, -3.34256, 7.377229, 137.5296, 0.9581299, 1034.428
49, Fairbanks, 0, Fairbanks, -90, -90, 1, open, open, 2.109032, 9.317747, -163.3556, 1.305542, 1038.123
50, AllenSt, 0, AllenSt, 270, 90, 2, open, open, -1.002686, 8.198429, 337.778, 1.54187, 1041.512
51, McLaughlinCluster, 172, McLaughlinCluster, 82, 90, 2, closed, closed, -2.491547, 1.735514, 149.1337, 1.472046, 1044.803
52, RaunerBackHall, 0, RaunerBackHall, 90, 90, 1, open, open, -2.919647, 9.423754, 160.3894, 1.47229, 1048.581
53, BakerBerry2nd, 94, BakerBerry2nd, 184, -90, 2, open, open, -0.947052, 12.27896, 104.1029, 1.694458, 1052.012
54, BakerBerryCharter, -90, BakerBerryCharter, 180, 90, 2, open, open, -0.8863525, 11.32235, 250.5873, 1.444092, 1055.4
55, Umplebys, -50, Umplebys, 40, 90, 1, closed, closed, -1.187164, 7.385046, 105.7697, 1.305542, 1058.331
56, Maynard, 0, Maynard, 90, 90, 1, closed, open, -2.327301, 7.046228, 149.5778, 1.15271, 1061.303
57, RaunerBackHall, 0, RaunerBackHall, 90, -90, 2, open, open, -1.460876, 14.95046, 9.863312, 1.555664, 1064.859
58, PineBackHall, 180, PineBackHall, 90, -90, 1, open, open, -2.131287, 15.63763, 4.461365, 1.541748, 1068.109
59, McLaughlinCluster, 172, McLaughlinCluster, 82, -90, 1, closed, closed, -2.476868, 6.195957, 4.210388, 1.361084, 1071.012
60, RaunerFirst, 0, RaunerFirst, 90, 90, 1, open, open, -1.834808, 9.554205, 156.1764, 1.19458, 1073.859
61, neutral, 0, BakerBerry2nd, 4, -90, 0, closed, closed, -1.997528, 13.56617, -77.49698, 1.166626, 1076.804
62, MooreLot, 180, MooreLot, 90, -90, 1, closed, closed, -2.848999, 10.80532, 16.35284, 1.34729, 1079.859
63, Hop4, -3, Hop4, 87, 90, 1, closed, closed, 0.6562522, 11.80399, 157.0226, 1.88916, 1083.832
64, McLaughlinCluster, 172, McLaughlinCluster, 82, -90, 1, closed, closed, -3.748932, 5.139415, 10.73715, 1.416748, 1087.054
65, Umplebys, -50, Umplebys, 40, -90, 2, closed, closed, -1.022125, 4.623477, -32.71613, 1.430298, 1090.012
66, RaunerFirst, 0, RaunerFirst, 90, 90, 1, open, open, -1.188812, 9.969345, 150.9839, 1.09729, 1092.832
67, PineEntrance, 0, PineEntrance, -90, -90, 1, open, open, -2.467896, 11.43644, -164.7943, 1.208252, 1095.512
68, neutral, 0, RaunerBackHall, -90, -90, 0, closed, closed, -0.617218, 10.38359, -164.7308, 1.222168, 1098.484
69, BakerBerry2nd, 94, BakerBerry2nd, 184, 90, 1, open, open, -1.331116, 10.57575, 248.7884, 1.23645, 1101.582
70, BakerBerryCharter, -90, BakerBerryCharter, -180, -90, 1, open, open, -0.6434631, 16.32377, -255.6198, 1.833252, 1105.109
71, RollinsChapel3, 177, RollinsChapel3, 267, 90, 1, closed, closed, -1.764832, 11.28312, 335.6917, 1.458252, 1119.526
72, Hop2, -1, Hop2, -91, -90, 1, closed, closed, -1.65387, 11.36214, -158.3956, 0.958374, 1122.679
73, neutral, 0, BakerBerryHistoric2, 270, 90, 0, open, open, 0.3091348, 19.80321, 345.6334, 1.513794, 1126.263
74, RaunerBackHall, 0, RaunerBackHall, 270, 90, 2, closed, closed, -1.860992, 13.09341, 337.8548, 1.569458, 1129.652
75, BakerBerryHistoric2, 180, BakerBerryHistoric2, 90, 90, 2, closed, closed, -2.166046, 13.93817, 158.9519, 1.388916, 1132.86
76, neutral, 0, Zimmerman, -190, -90, 0, closed, closed, -1.827332, 12.02525, -270.6747, 1.54187, 1136.207
77, AllenSt, 0, AllenSt, 90, 90, 1, closed, closed, -1.032928, 11.91816, 158.038, 1.30542, 1138.832
78, PineEntrance, 0, PineEntrance, 90, -90, 2, closed, closed, -1.345764, 14.32692, 16.49658, 1.333862, 1142.333
79, Hop4, -3, Hop4, -93, -90, 1, open, open, -2.721283, 13.40656, -162.2764, 1.167358, 1145.708
80, RollinsChapel3, 177, RollinsChapel3, 87, 90, 2, open, open, -1.808868, 6.632367, 167.3055, 1.625122, 1149.402
81, Hop2, -1, Hop2, 89, 90, 1, open, open, -1.338165, 10.16604, 159.9547, 1.416626, 1152.555
82, MooreLot, 180, MooreLot, 270, 90, 1, open, open, -1.130493, 10.05481, 338.398, 1.29187, 1155.527
83, 53Commons, 0, 53Commons, -90, -90, 1, closed, closed, -1.860413, 9.430825, -164.9107, 1.11145, 1158.583
84, neutral, 0, MooreLot, 90, -90, 0, closed, closed, -3.463989, 10.76009, 17.4115, 1.166748, 1161.402
85, BakerBerry2nd, 94, BakerBerry2nd, 4, -90, 1, closed, closed, -3.202545, 14.12131, -72.50189, 1.222534, 1164.527
86, Hop2, -1, Hop2, 89, -90, 2, open, closed, -2.127014, 12.73735, 18.83478, 1.166748, 1167.527
87, McLaughlinCluster, 172, McLaughlinCluster, 262, -90, 2, open, closed, -0.3287048, 11.59588, 177.6127, 1.708374, 1172.277
88, AllenSt, 0, AllenSt, 90, -90, 2, closed, closed, -0.4241028, 10.7483, 9.910645, 1.347412, 1175.055
89, neutral, 0, Fairbanks, -90, -90, 0, open, open, -1.115814, 8.420588, -161.9778, 1.860962, 1178.694
90, neutral, 0, PineEntrance, -90, -90, 0, open, open, -2.532959, 12.81992, -170.9365, 1.194458, 1181.708
91, Umplebys, -50, Umplebys, -140, -90, 1, open, open, -2.159454, 11.73184, -218.3314, 1.625366, 1185.028
92, BakerBerry2nd, 94, BakerBerry2nd, 4, -90, 1, closed, closed, -2.26123, 12.39436, -72.33975, 1.222046, 1187.833
93, neutral, 0, RaunerFirst, 90, 90, 0, open, open, -1.762238, 11.21636, 157.2145, 1.138916, 1190.958
94, Maynard, 0, Maynard, -90, -90, 1, open, open, -2.293182, 12.02447, -168.2548, 1.375, 1194.458
95, Umplebys, -50, Umplebys, -140, -90, 1, open, open, -3.426575, 11.3508, -208.925, 1.111206, 1197.083
96, RaunerBackHall, 0, RaunerBackHall, -90, -90, 1, closed, closed, -3.431305, 14.2613, -150.5352, 0.9448242, 1199.708
97, BakerBerryHistoric2, 180, BakerBerryHistoric2, 90, -90, 1, closed, closed, -2.640289, 16.72638, 16.80695, 1.180664, 1202.736
98, McLaughlinCluster, 172, McLaughlinCluster, 262, 90, 1, open, closed, -0.02450562, 14.96317, 340.4561, 1.402832, 1205.833
99, neutral, 0, PineBackHall, 90, -90, 0, open, open, -4.521973, 20.42303, 3.518127, 1.541992, 1209.056
100, neutral, 0, RollinsChapel3, 267, 90, 0, closed, closed, -0.5784302, 11.48807, 340.8331, 1.27771, 1211.75
101, Umplebys, -50, Umplebys, 220, 90, 2, open, open, -2.076599, 8.665391, 288.3134, 1.417114, 1214.681
102, neutral, 0, 53Commons, 90, 90, 0, open, open, -1.014893, 8.255191, 161.362, 1.125, 1217.806
103, PineBackHall, 180, PineBackHall, 270, 90, 1, closed, closed, 1.473927, 11.4105, 322.7034, 1.013916, 1220.333
104, MooreLot, 180, MooreLot, 270, -90, 2, open, open, -0.406189, 12.46599, 185.7399, 1.513794, 1223.556
105, BakerBerryCharter, -90, BakerBerryCharter, 0, -90, 2, closed, closed, -2.752106, 14.71648, -74.66672, 1.166504, 1226.083
106, RaunerBackHall, 0, RaunerBackHall, -90, -90, 1, closed, closed, -1.292603, 14.62105, -151.8681, 0.9442139, 1228.806
107, Zimmerman, -100, Zimmerman, 350, -90, 2, open, open, -3.530609, 11.19725, 270.2945, 1.236084, 1241.098
108, MooreLot, 180, MooreLot, 270, 90, 1, open, open, -0.6758118, 10.45369, 335.7463, 1.097046, 1243.903
109, 53Commons, 0, 53Commons, -90, -90, 1, closed, closed, -2.800201, 12.7266, -157.6445, 1.472046, 1246.945
110, RaunerFirst, 0, RaunerFirst, -90, -90, 1, closed, closed, -3.696564, 13.78227, -164.7836, 1.319702, 1249.862
111, Zimmerman, -100, Zimmerman, -10, 90, 1, open, closed, -0.1292725, 11.10024, 66.079, 1.694458, 1253.653
112, AllenSt, 0, AllenSt, 90, 90, 1, closed, closed, -1.218689, 10.52902, 155.9146, 1.430542, 1256.723
113, PineBackHall, 180, PineBackHall, 270, -90, 2, closed, closed, -2.45636, 18.35886, 197.5303, 2.59729, 1260.945
114, Fairbanks, 0, Fairbanks, 90, -90, 2, closed, closed, -3.417664, 7.750256, 15.10928, 1.222412, 1265.362
115, RaunerFirst, 0, RaunerFirst, 270, 90, 2, closed, closed, -1.480072, 12.45965, 340.6932, 1.429688, 1269.029
116, RollinsChapel3, 177, RollinsChapel3, 87, -90, 1, open, open, -3.191925, 11.97455, 24.64191, 1.083618, 1271.932
117, Hop2, -1, Hop2, 89, 90, 1, open, open, -3.513916, 10.80763, 152.2744, 1.069824, 1274.959
118, RaunerFirst, 0, RaunerFirst, -90, -90, 1, closed, closed, -3.269043, 14.19922, -152.8814, 1.055786, 1277.779
119, neutral, 0, Hop2, -91, -90, 0, closed, closed, -3.86438, 11.85398, -151.5142, 0.9168701, 1280.335
120, PineEntrance, 0, PineEntrance, 90, 90, 1, closed, closed, -1.329926, 13.31918, 154.0697, 1.347168, 1283.709
121, BakerBerryCharter, -90, BakerBerryCharter, 0, 90, 1, closed, closed, -2.611816, 12.37972, 61.95998, 1.097168, 1286.459
122, McLaughlinCluster, 172, McLaughlinCluster, 262, 90, 1, open, closed, -2.404755, 13.37112, 333.751, 1.319458, 1289.529
123, neutral, 0, Umplebys, 40, 90, 0, closed, closed, -1.234253, 8.275835, 99.15136, 1, 1292.21
124, BakerBerryHistoric2, 180, BakerBerryHistoric2, 90, -90, 1, closed, closed, -2.769623, 17.03053, 18.76984, 1.138916, 1295.182
125, 53Commons, 0, 53Commons, 270, 90, 2, closed, closed, -1.412842, 10.18318, 334.2299, 1.430786, 1298.557
126, Hop4, -3, Hop4, 267, 90, 2, open, open, -0.2260742, 14.15734, 338.2259, 1.583618, 1301.738
127, PineBackHall, 180, PineBackHall, 270, 90, 1, closed, closed, -2.262299, 13.12521, 334.8694, 1.347412, 1305.029
128, neutral, 0, RaunerBackHall, 90, 90, 0, open, open, -1.80307, 12.02243, 155.851, 1.416626, 1307.988
129, neutral, 0, BakerBerry2nd, 184, 90, 0, open, open, -4.025421, 11.27795, 251.1466, 1.208374, 1311.238
130, Fairbanks, 0, Fairbanks, 90, 90, 1, closed, closed, -2.938171, 9.394797, 159.331, 1.486206, 1314.654
131, Maynard, 0, Maynard, -90, -90, 1, open, open, -2.401581, 12.41639, -158.0129, 1.277832, 1317.488
132, RollinsChapel3, 177, RollinsChapel3, 87, -90, 1, open, open, -3.830963, 12.96447, 30.48779, 0.902832, 1319.904
133, Hop4, -3, Hop4, -93, -90, 1, open, open, -2.692047, 13.15943, -156.2255, 0.9306641, 1322.627
134, neutral, 0, AllenSt, -90, -90, 0, open, closed, -4.141083, 12.024, -157.127, 0.888916, 1325.21
135, Maynard, 0, Maynard, 270, 90, 2, open, open, -2.333099, 12.88932, 337.5814, 1.777466, 1329.154
136, BakerBerry2nd, 94, BakerBerry2nd, 4, 90, 2, closed, closed, -0.6352539, 12.5244, 67.22748, 1.222534, 1331.988
137, BakerBerryCharter, -90, BakerBerryCharter, 0, 90, 1, closed, closed, -1.970276, 11.49391, 62.78729, 1.014038, 1334.613
138, Fairbanks, 0, Fairbanks, 90, 90, 1, closed, closed, -2.577423, 10.61784, 157.5106, 1.139038, 1337.28
139, Zimmerman, -100, Zimmerman, -10, 90, 1, open, closed, -2.082336, 11.15805, 62.06149, 1.76416, 1340.724
140, neutral, 0, Maynard, 90, 90, 0, closed, closed, -4.474518, 11.00825, 157.3102, 1.541626, 1343.557
141, neutral, 0, BakerBerryCharter, -180, -90, 0, open, open, -2.104034, 15.29665, -250.5426, 1.180908, 1346.336
142, neutral, 0, McLaughlinCluster, 82, -90, 0, closed, closed, -3.341675, 8.886134, 5.285431, 1.138794, 1349.057
143, neutral, 0, Hop4, 87, 90, 0, closed, closed, -1.494843, 9.968884, 157.8624, 1.138916, 1351.738
144, PineEntrance, 0, PineEntrance, 90, 90, 1, closed, closed, -1.857758, 12.32384, 162.639, 1.152466, 1355.085
