trialIdx, primeName, primeAngleYaw, targetName, targetAngleYaw, targetSide, sameScenePrime, correctResponse, response, roll, pitch, yaw, rt, timestamp
2, Zimmerman, -100, Zimmerman, 170, 90, 2, closed, closed, -7.443146, -5.160919, 252.754, 1.350281, 866.1758
1, neutral, 0, RaunerFirst, -90, -90, 0, closed, closed, 4.672693, -7.633179, -175.3954, 1.78186, 858.7552
3, neutral, 0, Hop4, -93, -90, 0, open, open, 4.225197, -6.658539, -177.9356, 0.8775024, 872.7476
4, BakerBerryHistoric2, 180, BakerBerryHistoric2, 270, 90, 1, open, closed, 0.524936, -4.685608, 286.0111, 0.5430908, 876.3672
5, BakerBerryCharter, -90, BakerBerryCharter, -180, -90, 1, open, open, 7.524808, -4.290009, -266.6771, 1.462036, 883.217
6, PineBackHall, 180, PineBackHall, 90, 90, 2, open, closed, -3.334351, -2.643738, 174.2691, 1.308838, 886.8647
7, BakerBerry2nd, 94, BakerBerry2nd, 184, 90, 1, open, open, -3.283752, -5.257477, 262.7022, 1.336914, 890.568
8, RaunerBackHall, 0, RaunerBackHall, 90, 90, 1, open, open, -3.728638, -6.706329, 176.2117, 1.406067, 893.3384
9, Hop2, -1, Hop2, 269, 90, 2, closed, closed, -2.223236, -7.950684, 350.9278, 1.197144, 897.0975
10, BakerBerryHistoric2, 180, BakerBerryHistoric2, 270, -90, 2, open, open, 5.89697, -4.345764, 181.9881, 1.253418, 899.9797
11, neutral, 0, McLaughlinCluster, 262, 90, 0, open, open, -1.211578, -5.169952, 339.2242, 0.8074951, 902.6943
12, Zimmerman, -100, Zimmerman, -190, -90, 1, closed, open, 8.719015, -6.314575, -279.1025, 1.211426, 906.7039
13, Hop2, -1, Hop2, -91, -90, 1, closed, closed, 9.015044, -10.42914, -167.3635, 1.601257, 910.1704
14, Hop4, -3, Hop4, 87, 90, 1, closed, closed, -2.797974, -2.398315, 163.1465, 1.72644, 913.6511
15, neutral, 0, AllenSt, 90, 90, 0, closed, open, -2.634796, -0.6106262, 161.3789, 1.726624, 917.2153
16, 53Commons, 0, 53Commons, 90, -90, 2, open, open, -1.104614, -5.485809, 6.893494, 0.9469604, 921.2249
17, BakerBerryHistoric2, 180, BakerBerryHistoric2, 270, 90, 1, open, open, -4.458862, -1.892151, 348.7843, 1.099792, 924.4825
18, Zimmerman, -100, Zimmerman, -190, -90, 1, closed, open, 5.318752, -4.504028, -276.1692, 0.9467163, 926.9749
19, Fairbanks, 0, Fairbanks, 270, 90, 2, open, open, -4.011993, -1.691986, 350.1418, 1.141724, 929.5226
20, Maynard, 0, Maynard, 90, 90, 1, closed, closed, -4.531158, 5.760234, 167.8784, 1.294861, 932.2375
21, RaunerFirst, 0, RaunerFirst, 90, -90, 2, open, open, 4.769771, -0.9837952, 7.525208, 0.9610596, 936.47
22, RollinsChapel3, 177, RollinsChapel3, 267, -90, 2, closed, open, 4.904373, -0.4295959, 185.7828, 0.8771973, 938.9062
23, PineEntrance, 0, PineEntrance, 270, 90, 2, open, open, -3.897491, -0.4898682, 350.0229, 0.9605713, 941.4955
24, neutral, 0, Fairbanks, 90, 90, 0, closed, open, -0.3562927, 4.130088, 167.9786, 1.071777, 943.9597
25, neutral, 0, Umplebys, -140, -90, 0, open, open, 2.583852, 2.630765, -223.5562, 0.8356323, 946.1458
26, neutral, 0, BakerBerryHistoric2, 90, -90, 0, closed, closed, 3.198418, 2.848457, 15.28741, 1.266785, 949.0554
27, neutral, 0, PineEntrance, 90, 90, 0, closed, closed, -4.885437, 14.51947, 173.7025, 1.058533, 951.3668
28, neutral, 0, Zimmerman, -10, 90, 0, open, open, -4.093475, 12.73648, 74.04323, 1.002563, 953.9144
29, neutral, 0, MooreLot, 270, 90, 0, open, open, -2.592834, 13.92578, 354.9756, 0.8215942, 956.0029
30, Maynard, 0, Maynard, 90, -90, 2, closed, open, 2.93145, 3.83183, -4.266663, 0.7379761, 958.3
31, PineBackHall, 180, PineBackHall, 90, -90, 1, open, open, 5.416463, 7.745964, -0.7369995, 1.099731, 961.697
32, Umplebys, -50, Umplebys, 40, 90, 1, closed, open, -0.2800903, 11.73661, 122.9245, 1.476074, 964.7042
33, Hop4, -3, Hop4, 87, -90, 2, closed, closed, 3.677096, 10.22785, -2.261047, 1.016846, 967.1687
34, neutral, 0, PineBackHall, 270, 90, 0, closed, closed, -3.675018, 13.27053, 351.8694, 0.8908081, 969.2704
36, Fairbanks, 0, Fairbanks, -90, -90, 1, open, open, 7.752526, -1.300385, -182.1943, 0.6543579, 987.2025
35, neutral, 0, Hop2, 89, 90, 0, open, open, -2.271698, 1.79764, 165.3501, 1.030457, 984.1537
37, neutral, 0, RollinsChapel3, 87, -90, 0, open, open, 1.232813, 0.7418329, 1.170471, 0.8353271, 990.0428
38, neutral, 0, BakerBerryCharter, 0, 90, 0, closed, closed, -1.773315, 12.44039, 76.2302, 0.8772583, 993.3284
39, PineEntrance, 0, PineEntrance, -90, -90, 1, open, open, 5.055753, 3.880357, -177.5555, 0.8768311, 995.7648
40, AllenSt, 0, AllenSt, -90, -90, 1, open, open, 2.258826, 3.131647, -179.2383, 0.6682129, 997.9645
41, 53Commons, 0, 53Commons, 90, 90, 1, open, open, -4.038269, 11.49667, 166.2324, 0.9888306, 1000.693
42, MooreLot, 180, MooreLot, 90, 90, 2, closed, closed, -5.953735, 5.852129, 155.6416, 1.433838, 1004.619
43, AllenSt, 0, AllenSt, -90, -90, 1, open, open, 4.986625, -3.611145, -169.5916, 0.8216553, 1006.875
44, neutral, 0, 53Commons, -90, -90, 0, closed, open, 5.293965, -1.612671, -151.4717, 1.406372, 1010.188
45, MooreLot, 180, MooreLot, 90, -90, 1, closed, open, 2.618781, 1.758971, 5.93158, 0.8490601, 1012.43
46, RollinsChapel3, 177, RollinsChapel3, 267, 90, 1, closed, open, -2.576447, 12.5288, 341.7686, 1.002625, 1016.871
47, neutral, 0, Maynard, -90, -90, 0, open, open, 7.435608, 2.238643, -170.9433, 0.7799683, 1019.099
48, 53Commons, 0, 53Commons, 90, 90, 1, open, open, -5.947266, 4.636875, 165.0308, 0.9747925, 1021.257
49, Fairbanks, 0, Fairbanks, -90, -90, 1, open, open, 9.403498, 1.532392, -173.4948, 0.8769531, 1023.317
50, AllenSt, 0, AllenSt, 270, 90, 2, open, open, -6.316498, 3.089273, 344.1536, 1.072388, 1025.823
51, McLaughlinCluster, 172, McLaughlinCluster, 82, 90, 2, closed, closed, -4.48114, -14.5835, 149.5292, 1.392212, 1028.496
52, RaunerBackHall, 0, RaunerBackHall, 90, 90, 1, open, open, -4.265167, 1.555636, 166.2511, 1.016479, 1030.835
53, BakerBerry2nd, 94, BakerBerry2nd, 184, -90, 2, open, open, 7.101166, -1.631348, 105.9216, 0.835083, 1032.923
54, BakerBerryCharter, -90, BakerBerryCharter, 180, 90, 2, open, closed, -5.505005, -0.2216492, 244.9247, 0.6407471, 1035.332
55, Umplebys, -50, Umplebys, 40, 90, 1, closed, closed, -4.583069, 5.971014, 113.8532, 1.099609, 1038.687
56, Maynard, 0, Maynard, 90, 90, 1, closed, open, -5.408325, 4.00201, 163.9411, 0.9606934, 1040.845
57, RaunerBackHall, 0, RaunerBackHall, 90, -90, 2, open, open, 5.364625, -8.529968, 12.86343, 0.9746094, 1043.936
58, PineBackHall, 180, PineBackHall, 90, -90, 1, open, open, 8.775075, -3.44104, 13.99585, 1.072021, 1046.177
59, McLaughlinCluster, 172, McLaughlinCluster, 82, -90, 1, closed, closed, 7.262043, -6.412109, 38.95251, 1.392212, 1048.767
60, RaunerFirst, 0, RaunerFirst, 90, 90, 1, open, open, -6.2117, 1.367581, 160.9128, 1.07251, 1051.134
61, neutral, 0, BakerBerry2nd, 4, -90, 0, closed, closed, 8.839846, 3.350249, -79.15491, 0.9610596, 1053.25
62, MooreLot, 180, MooreLot, 90, -90, 1, closed, closed, 11.09111, 6.017632, 5.279388, 1.239258, 1055.812
63, Hop4, -3, Hop4, 87, 90, 1, closed, closed, -6.290405, 3.010828, 153.2395, 1.002441, 1057.956
64, McLaughlinCluster, 172, McLaughlinCluster, 82, -90, 1, closed, closed, 9.726117, -0.8699646, 21.79224, 1.141602, 1060.239
65, Umplebys, -50, Umplebys, 40, -90, 2, closed, closed, 7.712605, 2.967684, -35.12497, 1.002686, 1062.745
66, RaunerFirst, 0, RaunerFirst, 90, 90, 1, open, open, -11.77396, 1.279922, 153.8865, 1.211182, 1065.195
67, PineEntrance, 0, PineEntrance, -90, -90, 1, open, open, 11.0063, -0.08856201, -176.4568, 0.8632813, 1069.915
68, neutral, 0, RaunerBackHall, -90, -90, 0, closed, closed, 11.74415, 0.8394778, -171.7903, 0.9747314, 1072.268
69, BakerBerry2nd, 94, BakerBerry2nd, 184, 90, 1, open, open, -4.188782, -0.3927002, 252.9201, 0.8353271, 1074.259
70, BakerBerryCharter, -90, BakerBerryCharter, -180, -90, 1, open, open, 14.21011, 4.794226, -263.6868, 1.016357, 1076.486
71, RollinsChapel3, 177, RollinsChapel3, 267, 90, 1, closed, closed, -3.284698, -0.4844971, 335.2825, 1.838501, 1087.583
72, Hop2, -1, Hop2, -91, -90, 1, closed, open, 6.532649, -8.234375, -153.48, 0.5290527, 1089.698
73, neutral, 0, BakerBerryHistoric2, 270, 90, 0, open, open, -5.984833, -3.775177, 339.8629, 1.044189, 1095.184
74, RaunerBackHall, 0, RaunerBackHall, 270, 90, 2, closed, closed, -7.790436, 1.12539, 341.0575, 1.25293, 1097.62
75, BakerBerryHistoric2, 180, BakerBerryHistoric2, 90, 90, 2, closed, closed, -7.450592, 6.091593, 160.7427, 1.183228, 1100.474
76, neutral, 0, Zimmerman, -190, -90, 0, closed, open, 4.390843, -4.127533, -258.7003, 1.197144, 1103.273
77, AllenSt, 0, AllenSt, 90, 90, 1, closed, closed, -6.201416, 2.515785, 157.569, 1.322632, 1105.737
78, PineEntrance, 0, PineEntrance, 90, -90, 2, closed, closed, 10.38994, 1.514438, 13.28024, 1.002319, 1108.327
79, Hop4, -3, Hop4, -93, -90, 1, open, open, 12.56981, 3.540566, -170.2186, 1.030273, 1110.512
80, RollinsChapel3, 177, RollinsChapel3, 87, 90, 2, open, open, -4.250336, 1.230757, 157.2579, 1.141602, 1112.879
81, Hop2, -1, Hop2, 89, 90, 1, open, open, -4.349121, -2.347931, 158.9951, 1.183228, 1117.459
82, MooreLot, 180, MooreLot, 270, 90, 1, open, open, -4.592499, 0.4421411, 335.8346, 0.9885254, 1119.854
83, 53Commons, 0, 53Commons, -90, -90, 1, closed, closed, 10.07626, -0.3948364, -163.9157, 0.8907471, 1121.873
84, neutral, 0, MooreLot, 90, -90, 0, closed, closed, 9.243624, -6.127716, 24.5289, 1.155518, 1124.713
85, BakerBerry2nd, 94, BakerBerry2nd, 4, -90, 1, closed, closed, 11.3229, -3.130859, -70.85437, 1.058228, 1126.982
86, Hop2, -1, Hop2, 89, -90, 2, open, open, 5.487431, -5.850922, 35.0036, 0.8631592, 1129.141
87, McLaughlinCluster, 172, McLaughlinCluster, 262, -90, 2, open, closed, 12.09557, -2.342285, 185.6296, 1.085815, 1132.927
88, AllenSt, 0, AllenSt, 90, -90, 2, closed, closed, 11.40718, -1.473907, 15.9805, 0.9746094, 1135.238
89, neutral, 0, Fairbanks, -90, -90, 0, open, open, 15.61389, -4.276215, -164.5976, 1.128052, 1137.536
90, neutral, 0, PineEntrance, -90, -90, 0, open, closed, 12.96632, 0.4316938, -166.9106, 1.406494, 1140.418
91, Umplebys, -50, Umplebys, -140, -90, 1, open, open, 16.33768, -1.480743, -221.1927, 0.8356934, 1142.617
92, BakerBerry2nd, 94, BakerBerry2nd, 4, -90, 1, closed, closed, 18.79573, -3.645905, -71.27081, 1.002563, 1144.761
93, neutral, 0, RaunerFirst, 90, 90, 0, open, open, -5.466217, -3.368225, 154.4549, 0.8215332, 1146.697
94, Maynard, 0, Maynard, -90, -90, 1, open, open, 15.28197, -2.772614, -167.4491, 1.280762, 1149.69
95, Umplebys, -50, Umplebys, -140, -90, 1, open, open, 9.167432, -7.512543, -212.2237, 0.7935791, 1152.92
96, RaunerBackHall, 0, RaunerBackHall, -90, -90, 1, closed, closed, 14.4943, -2.393646, -157.1668, 1.002808, 1155.802
97, BakerBerryHistoric2, 180, BakerBerryHistoric2, 90, -90, 1, closed, closed, 16.37217, -4.110779, 20.18045, 1.016602, 1158.127
98, McLaughlinCluster, 172, McLaughlinCluster, 262, 90, 1, open, open, -4.652618, 3.28257, 329.9981, 1.504028, 1163.724
99, neutral, 0, PineBackHall, 90, -90, 0, open, open, 9.752448, -0.3816833, 14.50583, 0.9051514, 1165.993
100, neutral, 0, RollinsChapel3, 267, 90, 0, closed, open, -9.27655, 3.962153, 332.6353, 1.601196, 1168.861
101, Umplebys, -50, Umplebys, 220, 90, 2, open, open, -8.464966, 0.4076889, 288.9007, 1.475708, 1172.077
102, neutral, 0, 53Commons, 90, 90, 0, open, open, -8.581543, -0.524292, 160.9913, 0.9053955, 1174.165
103, PineBackHall, 180, PineBackHall, 270, 90, 1, closed, closed, -14.62274, 0.5318775, 329.8363, 1.47583, 1177.005
104, MooreLot, 180, MooreLot, 270, -90, 2, open, open, 17.03953, -2.720642, 195.5287, 1.21106, 1179.358
105, BakerBerryCharter, -90, BakerBerryCharter, 0, -90, 2, closed, closed, 8.059114, -2.466858, -59.08392, 1.907837, 1182.811
106, RaunerBackHall, 0, RaunerBackHall, -90, -90, 1, closed, closed, 6.420345, -12.07065, -155.4572, 0.9605713, 1187.127
107, Zimmerman, -100, Zimmerman, 350, -90, 2, open, open, 6.861199, -4.575317, 266.407, 0.8634033, 1250.738
108, MooreLot, 180, MooreLot, 270, 90, 1, open, open, -5.812195, -2.891724, 333.3414, 1.141968, 1253.188
109, 53Commons, 0, 53Commons, -90, -90, 1, closed, closed, 6.099666, -5.775909, -164.7445, 0.8355713, 1255.305
110, RaunerFirst, 0, RaunerFirst, -90, -90, 1, closed, closed, 7.780251, -4.79364, -158.3359, 1.364502, 1258.117
111, Zimmerman, -100, Zimmerman, -10, 90, 1, open, open, -6.469238, -5.340881, 58.22754, 1.002441, 1260.386
112, AllenSt, 0, AllenSt, 90, 90, 1, closed, closed, -7.286041, -2.035553, 156.1741, 1.573364, 1264.702
113, PineBackHall, 180, PineBackHall, 270, -90, 2, closed, closed, 6.628862, -4.717529, 197.0541, 0.8352051, 1266.915
114, Fairbanks, 0, Fairbanks, 90, -90, 2, closed, open, 11.68091, -3.229431, 24.27182, 1.057495, 1269.073
115, RaunerFirst, 0, RaunerFirst, 270, 90, 2, closed, open, -9.746979, -1.374451, 336.6543, 1.016357, 1271.399
116, RollinsChapel3, 177, RollinsChapel3, 87, -90, 1, open, open, 3.591485, -6.104462, 10.66986, 1.03064, 1275.548
117, Hop2, -1, Hop2, 89, 90, 1, open, open, -5.791992, -1.416748, 154.8106, 0.9886475, 1279.042
118, RaunerFirst, 0, RaunerFirst, -90, -90, 1, closed, closed, 4.363825, -2.539246, -152.6532, 0.710083, 1281.116
119, neutral, 0, Hop2, -91, -90, 0, closed, closed, 8.241914, -4.36554, -147.2353, 1.350342, 1283.942
120, PineEntrance, 0, PineEntrance, 90, 90, 1, closed, closed, -5.257355, -0.7275696, 152.5944, 1.225342, 1286.936
121, BakerBerryCharter, -90, BakerBerryCharter, 0, 90, 1, closed, closed, -7.719849, 0.04960212, 65.46642, 1.086182, 1289.525
122, McLaughlinCluster, 172, McLaughlinCluster, 262, 90, 1, open, open, -7.460144, 3.763619, 331.6238, 1.935425, 1292.7
123, neutral, 0, Umplebys, 40, 90, 0, closed, closed, -8.443298, -3.37851, 110.8471, 1.239136, 1295.623
124, BakerBerryHistoric2, 180, BakerBerryHistoric2, 90, -90, 1, closed, closed, 1.125628, -0.6957092, 28.7778, 1.030273, 1298.282
125, 53Commons, 0, 53Commons, 270, 90, 2, closed, open, -8.02066, -2.640137, 341.6096, 1.322876, 1300.802
126, Hop4, -3, Hop4, 267, 90, 2, open, closed, -7.668671, -1.620514, 334.9943, 0.9324951, 1302.96
127, PineBackHall, 180, PineBackHall, 270, 90, 1, closed, closed, -8.529694, -7.672241, 333.1852, 1.11377, 1308.501
128, neutral, 0, RaunerBackHall, 90, 90, 0, open, open, -8.098206, -5.937683, 159.1022, 0.9327393, 1310.604
129, neutral, 0, BakerBerry2nd, 184, 90, 0, open, open, -9.916687, -3.843384, 250.5325, 1.239136, 1313.207
130, Fairbanks, 0, Fairbanks, 90, 90, 1, closed, open, -9.393463, -4.873291, 156.9454, 1.211182, 1315.671
131, Maynard, 0, Maynard, -90, -90, 1, open, open, 7.641726, -5.065979, -165.1169, 0.9605713, 1317.871
132, RollinsChapel3, 177, RollinsChapel3, 87, -90, 1, open, open, 7.845661, -1.967773, 19.18146, 0.9331055, 1320.168
133, Hop4, -3, Hop4, -93, -90, 1, open, open, 6.0579, -4.131287, -162.8535, 0.8215332, 1322.493
134, neutral, 0, AllenSt, -90, -90, 0, open, open, 7.664026, -4.629181, -158.0627, 0.9604492, 1324.651
135, Maynard, 0, Maynard, 270, 90, 2, open, open, -7.650696, -6.391663, 338.3092, 1.085815, 1328.229
136, BakerBerry2nd, 94, BakerBerry2nd, 4, 90, 2, closed, closed, -7.092377, -5.669373, 60.66531, 1.225098, 1330.68
137, BakerBerryCharter, -90, BakerBerryCharter, 0, 90, 1, closed, closed, -7.419312, -5.091034, 56.82862, 1.364502, 1334.035
138, Fairbanks, 0, Fairbanks, 90, 90, 1, closed, open, -9.831451, -7.003754, 154.4981, 1.211548, 1337.334
139, Zimmerman, -100, Zimmerman, -10, 90, 1, open, open, -9.799805, -6.901062, 51.87282, 1.155396, 1339.785
140, neutral, 0, Maynard, 90, 90, 0, closed, closed, -9.070648, -6.215088, 155.3726, 0.8911133, 1341.915
141, neutral, 0, BakerBerryCharter, -180, -90, 0, open, open, 7.678744, -6.145386, -243.689, 1.044067, 1344.156
142, neutral, 0, McLaughlinCluster, 82, -90, 0, closed, open, 4.579348, -10.92346, 20.18802, 1.03064, 1346.565
143, neutral, 0, Hop4, 87, 90, 0, closed, closed, -5.101044, -8.239868, 148.8422, 0.8771973, 1350.282
144, PineEntrance, 0, PineEntrance, 90, 90, 1, closed, closed, -9.133545, -4.510132, 155.0251, 1.058472, 1353.178
