trialIdx, primeName, primeAngleYaw, targetName, targetAngleYaw, targetSide, sameScenePrime, correctResponse, response, roll, pitch, yaw, rt, timestamp
1, neutral, 0, RaunerFirst, -90, -90, 0, closed, closed, 2.516876, 9.468346, -165.4667, 1.072083, 547.4505
2, Zimmerman, -100, Zimmerman, 170, 90, 2, closed, open, -2.213104, 6.550418, 238.269, 1.266785, 551.1956
3, neutral, 0, Hop4, -93, -90, 0, open, closed, 1.706198, 9.941266, -167.6646, 0.8771973, 554.7737
4, BakerBerryHistoric2, 180, BakerBerryHistoric2, 270, 90, 1, open, open, -0.8937378, 10.7307, 355.4893, 0.710144, 558.1151
5, BakerBerryCharter, -90, BakerBerryCharter, -180, -90, 1, open, open, 1.303977, 12.24548, -250.6755, 0.6959229, 563.4749
6, PineBackHall, 180, PineBackHall, 90, 90, 2, open, open, -1.732635, 12.94702, 160.0089, 2.450439, 567.9022
7, BakerBerry2nd, 94, BakerBerry2nd, 184, 90, 1, open, open, -0.2359009, 8.949986, 257.4679, 0.8214722, 570.7842
8, RaunerBackHall, 0, RaunerBackHall, 90, 90, 1, open, open, 0.5981377, 8.622705, 157.8266, 0.8210449, 573.0398
9, Hop2, -1, Hop2, 269, 90, 2, closed, closed, -0.4493713, 9.516828, 335.7211, 1.141418, 575.4759
10, BakerBerryHistoric2, 180, BakerBerryHistoric2, 270, -90, 2, open, closed, -0.1615601, 14.17722, 209.2932, 1.113342, 578.3441
11, neutral, 0, McLaughlinCluster, 262, 90, 0, open, open, -1.161499, 6.941495, 345.4553, 0.9049683, 581.7271
12, Zimmerman, -100, Zimmerman, -190, -90, 1, closed, closed, 0.6694059, 7.643462, -262.2757, 1.225342, 584.7205
13, Hop2, -1, Hop2, -91, -90, 1, closed, closed, 1.69139, 9.656396, -156.9612, 0.8217773, 589.2595
14, Hop4, -3, Hop4, 87, 90, 1, closed, closed, -0.7975464, 10.46545, 168.0552, 0.9471436, 592.5032
15, neutral, 0, AllenSt, 90, 90, 0, closed, closed, -0.2583618, 8.850958, 156.8357, 0.8493652, 595.7468
16, 53Commons, 0, 53Commons, 90, -90, 2, open, open, 0.3635992, 8.286025, 26.15363, 1.754272, 599.3807
17, BakerBerryHistoric2, 180, BakerBerryHistoric2, 270, 90, 1, open, open, 0.5465673, 11.29185, 348.9548, 0.710144, 606.4948
18, Zimmerman, -100, Zimmerman, -190, -90, 1, closed, closed, 1.104053, 8.130145, -256.3621, 0.7660522, 610.2819
19, Fairbanks, 0, Fairbanks, 270, 90, 2, open, closed, -1.468262, 7.843439, 344.0084, 0.8772583, 613.6371
20, Maynard, 0, Maynard, 90, 90, 1, closed, closed, -0.8158875, 6.221338, 167.5139, 0.612793, 616.895
21, RaunerFirst, 0, RaunerFirst, 90, -90, 2, open, open, 0.0232405, 11.69839, 15.22202, 2.004822, 621.9347
22, RollinsChapel3, 177, RollinsChapel3, 267, -90, 2, closed, closed, 2.251154, 5.605312, 200.1099, 1.323059, 624.8589
23, PineEntrance, 0, PineEntrance, 270, 90, 2, open, open, -1.97998, 7.863698, 345.5816, 1.058044, 627.2253
24, neutral, 0, Fairbanks, 90, 90, 0, closed, closed, -1.98288, 5.739279, 157.7836, 0.9049072, 631.1373
25, neutral, 0, Umplebys, -140, -90, 0, open, open, 0.3783214, 7.476125, -213.0866, 0.8633423, 633.379
26, neutral, 0, BakerBerryHistoric2, 90, -90, 0, closed, open, 1.009338, 9.854772, 25.96329, 0.9472656, 635.6624
27, neutral, 0, PineEntrance, 90, 90, 0, closed, open, -1.841339, 8.106049, 164.4719, 1.016418, 638.0011
28, neutral, 0, Zimmerman, -10, 90, 0, open, closed, -2.253326, 7.400746, 61.64915, 0.9747314, 644.8093
29, neutral, 0, MooreLot, 270, 90, 0, open, open, -0.2558594, 7.384838, 342.3508, 0.9466553, 648.0809
30, Maynard, 0, Maynard, 90, -90, 2, closed, open, 2.87943, 9.607197, 17.22388, 0.75177, 650.7401
31, PineBackHall, 180, PineBackHall, 90, -90, 1, open, open, 1.03014, 11.19017, 20.51279, 0.9189453, 653.8587
32, Umplebys, -50, Umplebys, 40, 90, 1, closed, closed, -1.491577, 7.996999, 115.4216, 0.7799683, 659.4138
33, Hop4, -3, Hop4, 87, -90, 2, closed, closed, 0.5093257, 10.96953, 14.53076, 0.9883423, 662.3929
34, neutral, 0, PineBackHall, 270, 90, 0, closed, closed, -2.474426, 11.85271, 345.7275, 0.9747314, 666.6673
35, neutral, 0, Hop2, 89, 90, 0, open, closed, -2.780182, 9.790583, 165.2785, 0.9051514, 677.7076
36, Fairbanks, 0, Fairbanks, -90, -90, 1, open, open, 1.998261, 8.516146, -159.3127, 1.364685, 681.0211
37, neutral, 0, RollinsChapel3, 87, -90, 0, open, open, -0.9109192, 11.66213, 26.48935, 0.9190674, 684.8915
38, neutral, 0, BakerBerryCharter, 0, 90, 0, closed, closed, -2.004852, 11.22519, 77.93795, 0.737915, 687.5645
39, PineEntrance, 0, PineEntrance, -90, -90, 1, open, open, 1.455568, 11.19988, -164.6237, 0.8773804, 690.1961
40, AllenSt, 0, AllenSt, -90, -90, 1, open, open, 1.258326, 8.096609, -162.4559, 0.8354492, 693.1055
41, 53Commons, 0, 53Commons, 90, 90, 1, open, open, -1.790222, 9.561953, 166.0923, 0.8217163, 697.5609
42, MooreLot, 180, MooreLot, 90, 90, 2, closed, closed, -2.68219, 9.219702, 159.0103, 1.225525, 700.8604
43, AllenSt, 0, AllenSt, -90, -90, 1, open, open, -0.3121643, 8.199383, -166.8443, 0.8909912, 703.6726
44, neutral, 0, 53Commons, -90, -90, 0, closed, closed, 1.258451, 7.523728, -159.1483, 1.099976, 708.2949
45, MooreLot, 180, MooreLot, 90, -90, 1, closed, closed, 0.0864534, 9.211394, 29.90094, 0.8492432, 711.3438
46, RollinsChapel3, 177, RollinsChapel3, 267, 90, 1, closed, open, -0.8847656, 8.581923, 333.9916, 0.8354492, 714.3651
47, neutral, 0, Maynard, -90, -90, 0, open, open, 1.122993, 6.05895, -150.2016, 1.893738, 718.1658
48, 53Commons, 0, 53Commons, 90, 90, 1, open, open, -2.015991, 8.375146, 161.6253, 0.8632202, 720.3794
49, Fairbanks, 0, Fairbanks, -90, -90, 1, open, open, 2.779099, 7.28121, -157.7657, 0.9885864, 723.1219
50, AllenSt, 0, AllenSt, 270, 90, 2, open, open, -1.959717, 9.345947, 341.4329, 1.225159, 725.6142
51, McLaughlinCluster, 172, McLaughlinCluster, 82, 90, 2, closed, closed, -2.178406, 6.221717, 167.3416, 0.7798462, 728.7607
52, RaunerBackHall, 0, RaunerBackHall, 90, 90, 1, open, open, -2.216095, 7.101812, 168.6905, 0.7796631, 736.8913
53, BakerBerry2nd, 94, BakerBerry2nd, 184, -90, 2, open, closed, -1.671967, 9.482259, 115.4487, 1.085938, 739.7454
54, BakerBerryCharter, -90, BakerBerryCharter, 180, 90, 2, open, open, -1.399536, 13.84205, 265.2292, 1.76825, 742.85
55, Umplebys, -50, Umplebys, 40, 90, 1, closed, closed, -0.4622803, 6.870164, 121.8324, 1.851685, 746.428
56, Maynard, 0, Maynard, 90, 90, 1, closed, open, -1.840424, 7.049313, 168.1526, 0.8214111, 749.1707
57, RaunerBackHall, 0, RaunerBackHall, 90, -90, 2, open, open, -0.4485168, 9.391608, 18.24353, 1.823669, 752.7903
58, PineBackHall, 180, PineBackHall, 90, -90, 1, open, open, 0.432478, 8.891769, 27.18033, 0.7518311, 755.2549
59, McLaughlinCluster, 172, McLaughlinCluster, 82, -90, 1, closed, closed, -0.07565308, 8.959841, 20.16043, 0.9049683, 758.0112
60, RaunerFirst, 0, RaunerFirst, 90, 90, 1, open, open, -1.408936, 11.3237, 166.865, 0.9465942, 760.4477
61, neutral, 0, BakerBerry2nd, 4, -90, 0, closed, closed, -0.1153259, 10.19374, -63.80347, 1.169739, 763.3435
62, MooreLot, 180, MooreLot, 90, -90, 1, closed, closed, 1.676556, 8.427904, 21.75037, 0.835083, 765.6268
63, Hop4, -3, Hop4, 87, 90, 1, closed, closed, -2.111938, 4.930207, 164.9536, 0.6132813, 767.6878
64, McLaughlinCluster, 172, McLaughlinCluster, 82, -90, 1, closed, closed, -1.469086, 5.064603, 17.21509, 1.016846, 770.5
65, Umplebys, -50, Umplebys, 40, -90, 2, closed, closed, -1.17926, 2.5912, -21.06311, 1.322754, 773.1587
66, RaunerFirst, 0, RaunerFirst, 90, 90, 1, open, open, -1.840027, 11.98801, 175.8917, 0.9468384, 775.5535
67, PineEntrance, 0, PineEntrance, -90, -90, 1, open, open, -0.6802979, 8.552872, -166.4767, 0.8771973, 777.9063
68, neutral, 0, RaunerBackHall, -90, -90, 0, closed, closed, -0.3944397, 9.591883, -162.9712, 0.9326172, 780.287
69, BakerBerry2nd, 94, BakerBerry2nd, 184, 90, 1, open, open, -1.446686, 9.19461, 265.9023, 0.696106, 782.445
70, BakerBerryCharter, -90, BakerBerryCharter, -180, -90, 1, open, open, 1.322283, 8.495831, -255.946, 0.6826172, 784.631
71, RollinsChapel3, 177, RollinsChapel3, 267, 90, 1, closed, closed, -3.431366, 9.697509, 345.8892, 0.9050903, 793.36
72, Hop2, -1, Hop2, -91, -90, 1, closed, closed, -1.016357, 9.534307, -155.8858, 1.072388, 795.8105
73, neutral, 0, BakerBerryHistoric2, 270, 90, 0, open, open, -3.506317, 8.929653, 346.746, 0.890686, 798.2048
74, RaunerBackHall, 0, RaunerBackHall, 270, 90, 2, closed, closed, -2.989899, 9.693089, 331.665, 1.378601, 801.1984
75, BakerBerryHistoric2, 180, BakerBerryHistoric2, 90, 90, 2, closed, closed, -2.480072, 14.08887, 163.364, 1.266785, 804.275
76, neutral, 0, Zimmerman, -190, -90, 0, closed, closed, -0.2721558, 6.907944, -248.6498, 1.072021, 806.8925
77, AllenSt, 0, AllenSt, 90, 90, 1, closed, closed, -1.652832, 8.055117, 154.8388, 0.7518921, 809.134
78, PineEntrance, 0, PineEntrance, 90, -90, 2, closed, closed, 0.1657987, 8.906178, 27.16776, 1.601196, 812.3502
79, Hop4, -3, Hop4, -93, -90, 1, open, open, -0.05679321, 9.053735, -154.2704, 0.7098389, 814.4244
80, RollinsChapel3, 177, RollinsChapel3, 87, 90, 2, open, closed, -2.370728, 8.758237, 169.7434, 0.8219604, 816.8057
81, Hop2, -1, Hop2, 89, 90, 1, open, open, -3.051178, 9.010768, 162.9977, 0.7940063, 819.033
82, MooreLot, 180, MooreLot, 270, 90, 1, open, open, -0.4561462, 8.759871, 344.6415, 0.737854, 821.2602
83, 53Commons, 0, 53Commons, -90, -90, 1, closed, closed, 0.313068, 8.146634, -151.4546, 0.737854, 823.265
84, neutral, 0, MooreLot, 90, -90, 0, closed, closed, 0.1057187, 9.158895, 22.53137, 0.8770142, 825.423
85, BakerBerry2nd, 94, BakerBerry2nd, 4, -90, 1, closed, closed, -1.126343, 6.368617, -64.87787, 0.9190063, 827.581
86, Hop2, -1, Hop2, 89, -90, 2, open, closed, 0.4582018, 8.061473, 21.28354, 0.710083, 829.4327
87, McLaughlinCluster, 172, McLaughlinCluster, 262, -90, 2, open, open, -0.05987549, 5.803838, 192.3888, 0.9468384, 831.6465
88, AllenSt, 0, AllenSt, 90, -90, 2, closed, closed, 0.887855, 7.726696, 28.19766, 0.9889526, 833.8603
89, neutral, 0, Fairbanks, -90, -90, 0, open, open, -0.4390259, 6.280092, -156.9451, 1.05835, 836.1851
90, neutral, 0, PineEntrance, -90, -90, 0, open, open, -0.3981018, 9.590168, -160.1074, 1.002441, 838.677
91, Umplebys, -50, Umplebys, -140, -90, 1, open, open, -0.6153259, 9.028589, -208.6902, 1.099976, 841.2526
92, BakerBerry2nd, 94, BakerBerry2nd, 4, -90, 1, closed, closed, -0.2412415, 10.43283, -59.04999, 0.9886475, 843.7728
93, neutral, 0, RaunerFirst, 90, 90, 0, open, open, -2.089661, 7.500399, 158.7984, 1.55896, 846.5569
94, Maynard, 0, Maynard, -90, -90, 1, open, open, -1.83844, 9.030815, -154.673, 0.8214722, 848.9518
95, Umplebys, -50, Umplebys, -140, -90, 1, open, open, -1.739105, 8.010659, -201.8146, 0.5984497, 851.2209
96, RaunerBackHall, 0, RaunerBackHall, -90, -90, 1, closed, closed, -0.5828552, 8.690879, -145.215, 1.962891, 854.7851
97, BakerBerryHistoric2, 180, BakerBerryHistoric2, 90, -90, 1, closed, closed, -2.990479, 12.18454, 43.31509, 0.7657471, 857.2636
98, McLaughlinCluster, 172, McLaughlinCluster, 262, 90, 1, open, open, -0.6220093, 10.1922, 347.235, 0.8908691, 859.4908
99, neutral, 0, PineBackHall, 90, -90, 0, open, open, -0.110199, 10.24717, 19.49329, 1.183655, 862.2894
100, neutral, 0, RollinsChapel3, 267, 90, 0, closed, closed, -1.850616, 12.8711, 340.8667, 1.085938, 864.6006
101, Umplebys, -50, Umplebys, 220, 90, 2, open, open, -1.714874, 8.494094, 304.9351, 0.9326172, 867.1759
102, neutral, 0, 53Commons, 90, 90, 0, open, open, -1.171356, 6.274524, 161.8949, 1.614868, 871.0881
103, PineBackHall, 180, PineBackHall, 270, 90, 1, closed, closed, 1.226041, 7.473512, 334.3715, 0.7241821, 873.0652
104, MooreLot, 180, MooreLot, 270, -90, 2, open, open, -1.310516, 6.711733, 202.2754, 1.016357, 875.4044
105, BakerBerryCharter, -90, BakerBerryCharter, 0, -90, 2, closed, open, -0.2185364, 8.754429, -66.026, 0.640686, 877.4926
106, RaunerBackHall, 0, RaunerBackHall, -90, -90, 1, closed, closed, -0.09320068, 10.38235, -155.4189, 1.447693, 880.2211
107, Zimmerman, -100, Zimmerman, 350, -90, 2, open, open, 0.0412097, 7.818566, 282.1658, 1.197266, 889.3542
108, MooreLot, 180, MooreLot, 270, 90, 1, open, open, -0.9422302, 8.998136, 345.6308, 0.7653809, 891.4286
109, 53Commons, 0, 53Commons, -90, -90, 1, closed, closed, -0.5947571, 8.352823, -152.0581, 0.8631592, 894.2967
110, RaunerFirst, 0, RaunerFirst, -90, -90, 1, closed, closed, -0.2576294, 7.573701, -153.1747, 0.585022, 896.1902
111, Zimmerman, -100, Zimmerman, -10, 90, 1, open, open, -3.063019, 8.975708, 62.48222, 1.225464, 898.7798
112, AllenSt, 0, AllenSt, 90, 90, 1, closed, closed, 0.087735, 7.461451, 158.1313, 0.7518311, 900.8263
113, PineBackHall, 180, PineBackHall, 270, -90, 2, closed, closed, 0.2255159, 11.30556, 206.549, 1.085938, 903.3461
114, Fairbanks, 0, Fairbanks, 90, -90, 2, closed, closed, 1.491553, 7.12128, 27.83463, 1.36438, 906.1862
115, RaunerFirst, 0, RaunerFirst, 270, 90, 2, closed, closed, -2.488068, 9.647528, 340.1398, 1.141663, 908.5254
116, RollinsChapel3, 177, RollinsChapel3, 87, -90, 1, open, open, -0.6682129, 8.649615, 26.29611, 0.6821289, 910.5441
117, Hop2, -1, Hop2, 89, 90, 1, open, closed, -0.8248901, 9.805772, 165.2325, 0.6958618, 912.9385
118, RaunerFirst, 0, RaunerFirst, -90, -90, 1, closed, closed, -0.1907654, 6.875498, -151.4645, 0.7238159, 915.0966
119, neutral, 0, Hop2, -91, -90, 0, closed, closed, 1.024406, 10.5625, -156.2302, 1.099792, 917.6862
120, PineEntrance, 0, PineEntrance, 90, 90, 1, closed, closed, 0.1593007, 9.33608, 160.238, 0.8078003, 920.0391
121, BakerBerryCharter, -90, BakerBerryCharter, 0, 90, 1, closed, closed, -2.431946, 11.61253, 68.78329, 0.9607544, 922.5591
122, McLaughlinCluster, 172, McLaughlinCluster, 262, 90, 1, open, open, 0.2295301, 9.898121, 327.74, 0.710144, 924.8563
123, neutral, 0, Umplebys, 40, 90, 0, closed, closed, -0.1378784, 8.687118, 122.7177, 1.141846, 927.3762
124, BakerBerryHistoric2, 180, BakerBerryHistoric2, 90, -90, 1, closed, closed, 0.264386, 11.05033, 20.7417, 1.00238, 930.7036
125, 53Commons, 0, 53Commons, 270, 90, 2, closed, closed, -0.7783813, 7.159501, 337.1133, 1.183716, 933.321
126, Hop4, -3, Hop4, 267, 90, 2, open, open, -1.224548, 10.41917, 341.0259, 1.280884, 935.9243
127, PineBackHall, 180, PineBackHall, 270, 90, 1, closed, closed, -0.8172607, 10.21018, 334.3215, 0.682312, 938.0268
128, neutral, 0, RaunerBackHall, 90, 90, 0, open, open, -2.828644, 11.98392, 168.7845, 0.9609375, 940.296
129, neutral, 0, BakerBerry2nd, 184, 90, 0, open, open, -1.580902, 10.11815, 259.6654, 1.308411, 943.0386
130, Fairbanks, 0, Fairbanks, 90, 90, 1, closed, closed, -2.109222, 6.004106, 158.8391, 0.9748535, 945.2524
131, Maynard, 0, Maynard, -90, -90, 1, open, open, 0.5953172, 9.217016, -158.6405, 1.169617, 947.8558
132, RollinsChapel3, 177, RollinsChapel3, 87, -90, 1, open, open, -0.6650085, 6.411234, 25.24866, 0.9188843, 950.1111
133, Hop4, -3, Hop4, -93, -90, 1, open, open, 0.7997481, 9.721313, -159.9296, 0.8491821, 952.3247
134, neutral, 0, AllenSt, -90, -90, 0, open, open, 1.272301, 8.172204, -156.5463, 1.211365, 954.8726
135, Maynard, 0, Maynard, 270, 90, 2, open, open, -2.238251, 8.061852, 340.3642, 1.169495, 957.3231
136, BakerBerry2nd, 94, BakerBerry2nd, 4, 90, 2, closed, closed, -2.600586, 8.695894, 71.77172, 1.350769, 960.0101
137, BakerBerryCharter, -90, BakerBerryCharter, 0, 90, 1, closed, closed, -0.812439, 6.285249, 69.39223, 0.668457, 962.0288
138, Fairbanks, 0, Fairbanks, 90, 90, 1, closed, closed, -1.414276, 6.825735, 154.4499, 0.7521362, 964.4373
139, Zimmerman, -100, Zimmerman, -10, 90, 1, open, closed, -2.399902, 7.316613, 59.96981, 0.7935181, 966.5255
140, neutral, 0, Maynard, 90, 90, 0, closed, closed, -3.081055, 8.809773, 164.0865, 0.9602661, 968.962
141, neutral, 0, BakerBerryCharter, -180, -90, 0, open, open, 1.224082, 10.95751, -254.1823, 0.8635864, 971.2037
142, neutral, 0, McLaughlinCluster, 82, -90, 0, closed, closed, -1.759766, 4.893357, 26.99103, 1.322815, 973.9044
143, neutral, 0, Hop4, 87, 90, 0, closed, closed, -0.1567078, 9.590269, 159.0013, 1.030762, 976.2714
144, PineEntrance, 0, PineEntrance, 90, 90, 1, closed, closed, 0.5638157, 9.511089, 171.8701, 0.7241211, 978.3456
