trialIdx, primeName, primeAngleYaw, targetName, targetAngleYaw, targetSide, sameScenePrime, correctResponse, response, roll, pitch, yaw, rt, timestamp
1, neutral, 0, RaunerFirst, -90, -90, 0, closed, closed, 6.449539, 4.001621, -185.5139, 2.589233, 646.127
2, Zimmerman, -100, Zimmerman, 170, 90, 2, closed, open, -1.348969, 1.229906, 241.2105, 2.589417, 654.3688
3, neutral, 0, Hop4, -93, -90, 0, open, open, 5.350112, 3.875157, -185.1636, 1.267029, 657.6268
4, BakerBerryHistoric2, 180, BakerBerryHistoric2, 270, 90, 1, open, open, 2.556862, 15.25478, 369.1773, 2.01886, 660.8848
5, BakerBerryCharter, -90, BakerBerryCharter, -180, -90, 1, open, open, 4.103523, 10.58161, -278.4656, 1.419739, 663.5715
6, PineBackHall, 180, PineBackHall, 90, 90, 2, open, closed, 3.152698, 17.05087, 177.8498, 1.740234, 666.4258
7, BakerBerry2nd, 94, BakerBerry2nd, 184, 90, 1, open, open, 0.2794668, 8.034985, 272.4219, 2.450317, 670.4495
8, RaunerBackHall, 0, RaunerBackHall, 90, 90, 1, open, open, 0.8700861, 7.608517, 186.0355, 1.795959, 673.4424
9, Hop2, -1, Hop2, 269, 90, 2, closed, closed, 1.204904, 10.96088, 389.6235, 1.545715, 676.1302
10, BakerBerryHistoric2, 180, BakerBerryHistoric2, 270, -90, 2, open, open, 3.319506, 11.68852, 183.4052, 1.643005, 679.1788
11, neutral, 0, McLaughlinCluster, 262, 90, 0, open, open, 1.53007, 7.621492, 346.0314, 0.8768311, 681.2527
12, Zimmerman, -100, Zimmerman, -190, -90, 1, closed, closed, 6.376297, -4.470734, -294.7226, 2.325073, 684.6918
13, Hop2, -1, Hop2, -91, -90, 1, closed, closed, 4.754014, 8.334844, -186.4664, 1.698242, 687.9774
14, Hop4, -3, Hop4, 87, 90, 1, closed, closed, -2.005402, 12.33535, 184.4174, 1.531616, 692.9341
15, neutral, 0, AllenSt, 90, 90, 0, closed, open, -1.08606, 4.283233, 208.8986, 1.893738, 696.0803
16, 53Commons, 0, 53Commons, 90, -90, 2, open, open, 4.981524, 3.410805, -7.069916, 1.517334, 698.9898
17, BakerBerryHistoric2, 180, BakerBerryHistoric2, 270, 90, 1, open, open, 1.062037, 18.92343, 371.4663, 1.837402, 702.0389
18, Zimmerman, -100, Zimmerman, -190, -90, 1, closed, open, 8.851156, -1.246704, -294.0355, 2.909912, 706.0765
19, Fairbanks, 0, Fairbanks, 270, 90, 2, open, open, -1.19696, 5.316039, 362.2883, 1.54541, 708.8886
20, Maynard, 0, Maynard, 90, 90, 1, closed, closed, -0.09533691, -1.56601, 163.6561, 3.452759, 713.5248
21, RaunerFirst, 0, RaunerFirst, 90, -90, 2, open, open, 3.681102, 15.19453, -14.29315, 2.186279, 716.9639
22, RollinsChapel3, 177, RollinsChapel3, 267, -90, 2, closed, open, 5.502574, -0.921875, 212.2486, 3.369019, 721.4884
23, PineEntrance, 0, PineEntrance, 270, 90, 2, open, open, -2.28183, 8.037072, 351.3889, 1.197449, 723.9109
24, neutral, 0, Fairbanks, 90, 90, 0, closed, closed, -1.75708, 1.935567, 166.3732, 2.394836, 727.4056
25, neutral, 0, Umplebys, -140, -90, 0, open, open, 1.703287, 5.12774, -229.7463, 1.462219, 730.0092
26, neutral, 0, BakerBerryHistoric2, 90, -90, 0, closed, closed, 2.993705, 17.77916, -11.80338, 1.893555, 733.0023
27, neutral, 0, PineEntrance, 90, 90, 0, closed, closed, 1.068592, 16.70778, 179.9521, 1.447937, 735.4107
28, neutral, 0, Zimmerman, -10, 90, 0, open, open, -1.936951, 4.820654, 76.97949, 1.462585, 738.1401
29, neutral, 0, MooreLot, 270, 90, 0, open, open, 0.570803, 2.921066, 358.3365, 1.322693, 740.3672
30, Maynard, 0, Maynard, 90, -90, 2, closed, closed, 4.669078, 5.955117, 9.601898, 1.907471, 743.5414
31, PineBackHall, 180, PineBackHall, 90, -90, 1, open, open, 2.878381, 13.32057, -7.965057, 2.937561, 747.6066
32, Umplebys, -50, Umplebys, 40, 90, 1, closed, closed, 0.8361815, 6.330029, 132.9957, 1.322632, 750.1962
33, Hop4, -3, Hop4, 87, -90, 2, closed, closed, 2.873376, 12.56476, -8.385101, 1.337036, 752.7164
34, neutral, 0, PineBackHall, 270, 90, 0, closed, closed, -0.1749573, 12.48501, 350.7114, 1.016235, 754.8741
35, neutral, 0, Hop2, 89, 90, 0, open, open, -2.792175, 7.73951, 172.0062, 1.127625, 762.6844
36, Fairbanks, 0, Fairbanks, -90, -90, 1, open, open, 11.87093, 3.159455, -166.358, 1.504333, 765.4695
37, neutral, 0, RollinsChapel3, 87, -90, 0, open, open, 4.711442, 5.601424, -2.087402, 1.795898, 768.7405
38, neutral, 0, BakerBerryCharter, 0, 90, 0, closed, closed, 0.9050815, 3.927477, 77.19064, 0.654541, 770.5785
39, PineEntrance, 0, PineEntrance, -90, -90, 1, open, open, 3.964986, 4.753051, -174.3946, 1.50354, 773.2098
40, AllenSt, 0, AllenSt, -90, -90, 1, open, open, 3.84173, 2.907454, -175.8699, 2.283203, 776.5928
41, 53Commons, 0, 53Commons, 90, 90, 1, open, open, -0.2794495, 5.494235, 168.8698, 1.629578, 779.4057
42, MooreLot, 180, MooreLot, 90, 90, 2, closed, closed, 0.03860835, 6.088488, 167.5398, 1.350403, 781.9947
43, AllenSt, 0, AllenSt, -90, -90, 1, open, open, 5.169537, 0.7004628, -170.8463, 1.545532, 784.6957
44, neutral, 0, 53Commons, -90, -90, 0, closed, open, 5.589624, 4.974198, -189.9734, 3.244263, 789.0813
45, MooreLot, 180, MooreLot, 90, -90, 1, closed, closed, 3.398167, 7.71781, -22.3389, 2.005249, 792.2557
46, RollinsChapel3, 177, RollinsChapel3, 267, 90, 1, closed, open, 0.8849205, 8.040016, 335.4499, 2.561218, 796.0282
47, neutral, 0, Maynard, -90, -90, 0, open, open, 4.646308, 3.649509, -189.4496, 1.782532, 798.9524
48, 53Commons, 0, 53Commons, 90, 90, 1, open, open, 0.7346811, 2.62438, 173.1675, 1.141541, 801.1656
49, Fairbanks, 0, Fairbanks, -90, -90, 1, open, open, 5.549056, 3.767682, -182.6115, 1.434204, 803.7416
50, AllenSt, 0, AllenSt, 270, 90, 2, open, open, -0.6334839, 3.207264, 357.7164, 1.23938, 806.0665
51, McLaughlinCluster, 172, McLaughlinCluster, 82, 90, 2, closed, closed, -2.297607, -4.279846, 175.6802, 1.656799, 808.837
52, RaunerBackHall, 0, RaunerBackHall, 90, 90, 1, open, open, -2.200043, 5.341121, 181.0754, 1.406128, 811.2178
53, BakerBerry2nd, 94, BakerBerry2nd, 184, -90, 2, open, open, 3.644317, 8.061206, 87.91962, 1.141357, 813.4869
54, BakerBerryCharter, -90, BakerBerryCharter, 180, 90, 2, open, open, -0.2677307, 5.724892, 263.3149, 0.7376709, 815.3527
55, Umplebys, -50, Umplebys, 40, 90, 1, closed, closed, 0.2624665, 5.555532, 130.5906, 1.545166, 818.0119
56, Maynard, 0, Maynard, 90, 90, 1, closed, closed, 0.4778369, 4.376797, 168.4268, 1.628967, 820.7546
57, RaunerBackHall, 0, RaunerBackHall, 90, -90, 2, open, open, 7.659882, 3.165776, 24.01077, 1.294678, 823.1908
58, PineBackHall, 180, PineBackHall, 90, -90, 1, open, open, 5.754807, 12.43472, 12.68701, 2.714844, 827.0612
59, McLaughlinCluster, 172, McLaughlinCluster, 82, -90, 1, closed, open, 8.699587, -1.472839, 10.08899, 1.489563, 829.6646
60, RaunerFirst, 0, RaunerFirst, 90, 90, 1, open, open, -3.85498, 8.90187, 175.3091, 1.239258, 832.0731
61, neutral, 0, BakerBerry2nd, 4, -90, 0, closed, closed, 3.813814, 10.53551, -32.69977, 2.937805, 836.1664
62, MooreLot, 180, MooreLot, 90, -90, 1, closed, closed, 8.188635, 6.570083, 5.019653, 1.921265, 839.6191
63, Hop4, -3, Hop4, 87, 90, 1, closed, closed, 2.28081, 7.781199, 164.0777, 1.907532, 842.6544
64, McLaughlinCluster, 172, McLaughlinCluster, 82, -90, 1, closed, open, 9.604972, -2.127808, 0.150238, 1.628784, 845.8422
65, Umplebys, -50, Umplebys, 40, -90, 2, closed, open, 13.51913, 5.345313, -56.24051, 3.717468, 850.6177
66, RaunerFirst, 0, RaunerFirst, 90, 90, 1, open, open, -4.90976, 7.246216, 169.5432, 1.503357, 854.8221
67, PineEntrance, 0, PineEntrance, -90, -90, 1, open, open, 8.282382, 7.169328, -170.3391, 1.461975, 857.4119
68, neutral, 0, RaunerBackHall, -90, -90, 0, closed, closed, 8.850425, 8.863516, -180.8623, 2.380981, 860.9203
69, BakerBerry2nd, 94, BakerBerry2nd, 184, 90, 1, open, open, -4.752441, 6.596667, 261.2254, 1.420166, 863.4681
70, BakerBerryCharter, -90, BakerBerryCharter, -180, -90, 1, open, open, 4.73887, 12.44088, -268.4912, 1.182617, 865.7652
71, RollinsChapel3, 177, RollinsChapel3, 267, 90, 1, closed, closed, -0.5294189, 7.254355, 345.9532, 1.600891, 874.2578
72, Hop2, -1, Hop2, -91, -90, 1, closed, closed, 4.015665, 9.328706, -165.9752, 1.197815, 876.611
73, neutral, 0, BakerBerryHistoric2, 270, 90, 0, open, closed, 0.257015, 12.96326, 350.2191, 1.37793, 879.2
74, RaunerBackHall, 0, RaunerBackHall, 270, 90, 2, closed, closed, 1.492146, 12.56174, 345.461, 1.559326, 881.6923
75, BakerBerryHistoric2, 180, BakerBerryHistoric2, 90, 90, 2, closed, closed, 1.738027, 15.5145, 169.5087, 1.489319, 884.031
76, neutral, 0, Zimmerman, -190, -90, 0, closed, open, 2.835664, 5.032486, -250.6969, 1.155457, 886.3285
77, AllenSt, 0, AllenSt, 90, 90, 1, closed, open, -1.056244, 7.773088, 170.3843, 1.378418, 888.918
78, PineEntrance, 0, PineEntrance, 90, -90, 2, closed, closed, 4.589482, 10.78246, 12.21289, 1.489624, 891.5631
79, Hop4, -3, Hop4, -93, -90, 1, open, open, 7.054427, 9.26667, -170.6376, 2.478027, 894.9185
80, RollinsChapel3, 177, RollinsChapel3, 87, 90, 2, open, open, -2.392822, 2.348773, 177.2314, 1.530701, 897.5776
81, Hop2, -1, Hop2, 89, 90, 1, open, open, -1.739319, 3.438656, 176.3726, 1.82428, 900.3206
82, MooreLot, 180, MooreLot, 270, 90, 1, open, open, 0.0231269, 4.569666, 351.0365, 1.350342, 902.7983
83, 53Commons, 0, 53Commons, -90, -90, 1, closed, open, 4.433092, 5.677606, -163.9681, 1.350586, 905.3186
84, neutral, 0, MooreLot, 90, -90, 0, closed, closed, 3.358173, 3.457512, 35.53482, 2.102417, 908.5345
85, BakerBerry2nd, 94, BakerBerry2nd, 4, -90, 1, closed, closed, 8.482917, 3.181494, -80.33548, 2.060425, 911.8202
86, Hop2, -1, Hop2, 89, -90, 2, open, open, 9.177691, 6.859541, 2.800018, 1.712463, 914.6742
87, McLaughlinCluster, 172, McLaughlinCluster, 262, -90, 2, open, open, 7.4238, 5.984207, 178.0979, 1.587341, 917.4031
88, AllenSt, 0, AllenSt, 90, -90, 2, closed, closed, 10.55098, 6.127464, -5.560974, 1.531555, 920.0486
89, neutral, 0, Fairbanks, -90, -90, 0, open, open, 8.625973, 2.470742, -170.6396, 0.9605713, 922.1922
90, neutral, 0, PineEntrance, -90, -90, 0, open, open, 6.934005, 6.180126, -179.5758, 1.309021, 924.6705
91, Umplebys, -50, Umplebys, -140, -90, 1, open, open, 6.834233, 5.76561, -225.6318, 1.238892, 927.0233
92, BakerBerry2nd, 94, BakerBerry2nd, 4, -90, 1, closed, closed, 4.799243, 4.782722, -82.84552, 1.100037, 929.2512
93, neutral, 0, RaunerFirst, 90, 90, 0, open, closed, 0.3430315, 7.347182, 167.6277, 1.350586, 931.7987
94, Maynard, 0, Maynard, -90, -90, 1, open, open, 3.947026, 2.666727, -171.0289, 1.587463, 934.9035
95, Umplebys, -50, Umplebys, -140, -90, 1, open, open, 8.834696, 4.739674, -226.1187, 1.266785, 937.2703
96, RaunerBackHall, 0, RaunerBackHall, -90, -90, 1, closed, closed, 3.853647, 5.003792, -175.0788, 1.127808, 939.4697
97, BakerBerryHistoric2, 180, BakerBerryHistoric2, 90, -90, 1, closed, closed, 6.619462, 10.63117, 7.485626, 1.406433, 942.0317
98, McLaughlinCluster, 172, McLaughlinCluster, 262, 90, 1, open, open, -1.362213, 7.686696, 344.5447, 1.336609, 944.5655
99, neutral, 0, PineBackHall, 90, -90, 0, open, open, 3.35231, 11.49882, -0.4544678, 1.002441, 946.6675
100, neutral, 0, RollinsChapel3, 267, 90, 0, closed, closed, 2.028386, 7.985175, 336.4333, 1.169128, 949.0203
101, Umplebys, -50, Umplebys, 220, 90, 2, open, open, -0.07745361, 5.3786, 300.1778, 1.879517, 952.0001
102, neutral, 0, 53Commons, 90, 90, 0, open, open, -0.9987488, 5.744308, 170.1595, 1.43396, 954.5897
103, PineBackHall, 180, PineBackHall, 270, 90, 1, closed, closed, -1.209869, 7.580039, 354.4105, 1.183289, 956.9282
104, MooreLot, 180, MooreLot, 270, -90, 2, open, open, 4.794014, 5.140539, 189.2852, 1.225159, 959.2951
105, BakerBerryCharter, -90, BakerBerryCharter, 0, -90, 2, closed, closed, 6.106745, 3.862983, -85.69543, 1.96344, 962.3862
106, RaunerBackHall, 0, RaunerBackHall, -90, -90, 1, closed, closed, 9.746748, 4.887209, -173.4284, 1.863525, 965.4765
107, Zimmerman, -100, Zimmerman, 350, -90, 2, open, open, 7.398216, 5.651578, 258.0065, 1.406006, 973.4543
108, MooreLot, 180, MooreLot, 270, 90, 1, open, open, 1.22136, 3.016281, 341.2612, 1.058044, 975.654
109, 53Commons, 0, 53Commons, -90, -90, 1, closed, open, 6.10428, 3.308673, -164.3869, 1.072021, 977.9091
110, RaunerFirst, 0, RaunerFirst, -90, -90, 1, closed, closed, 5.904725, 4.13317, -157.3982, 1.670776, 980.7216
111, Zimmerman, -100, Zimmerman, -10, 90, 1, open, open, -0.5699463, 1.105005, 54.40186, 1.002258, 982.8795
112, AllenSt, 0, AllenSt, 90, 90, 1, closed, open, -9.112832E-05, 1.725899, 139.847, 2.188293, 986.1676
113, PineBackHall, 180, PineBackHall, 270, -90, 2, closed, closed, 6.16424, 7.175244, 192.1126, 1.294922, 988.5878
114, Fairbanks, 0, Fairbanks, 90, -90, 2, closed, open, 9.116242, 3.43234, 24.30743, 1.963135, 991.6785
115, RaunerFirst, 0, RaunerFirst, 270, 90, 2, closed, closed, -0.9619446, 2.421387, 331.6852, 1.044434, 993.8505
116, RollinsChapel3, 177, RollinsChapel3, 87, -90, 1, open, open, 3.789771, 1.093944, 38.51221, 0.6546021, 995.7716
117, Hop2, -1, Hop2, 89, 90, 1, open, open, 0.8039029, 1.877198, 145.6968, 1.071594, 997.9714
118, RaunerFirst, 0, RaunerFirst, -90, -90, 1, closed, closed, 3.238925, 3.882739, -151.0099, 1.058044, 1000.157
119, neutral, 0, Hop2, -91, -90, 0, closed, closed, 5.193651, 4.891876, -154.3744, 1.28064, 1002.607
120, PineEntrance, 0, PineEntrance, 90, 90, 1, closed, closed, 2.767174, 5.25647, 151.2357, 1.099976, 1004.974
121, BakerBerryCharter, -90, BakerBerryCharter, 0, 90, 1, closed, closed, 2.006491, 3.12665, 58.64192, 1.211121, 1007.313
122, McLaughlinCluster, 172, McLaughlinCluster, 262, 90, 1, open, open, 1.454602, 4.935157, 327.2243, 1.071777, 1009.499
123, neutral, 0, Umplebys, 40, 90, 0, closed, open, 0.8436891, 4.034876, 103.8058, 0.9190063, 1011.546
124, BakerBerryHistoric2, 180, BakerBerryHistoric2, 90, -90, 1, closed, closed, 3.904548, 7.375059, 29.32703, 1.573181, 1015.639
125, 53Commons, 0, 53Commons, 270, 90, 2, closed, open, 1.582219, 2.383943, 326.5946, 0.8908081, 1017.657
126, Hop4, -3, Hop4, 267, 90, 2, open, open, -0.7751465, 6.75286, 331.9298, 1.211121, 1019.982
127, PineBackHall, 180, PineBackHall, 270, 90, 1, closed, closed, 1.096538, 6.588734, 340.185, 1.044006, 1022.168
128, neutral, 0, RaunerBackHall, 90, 90, 0, open, closed, 1.268328, 7.963803, 157.3048, 0.9608765, 1024.229
129, neutral, 0, BakerBerry2nd, 184, 90, 0, open, open, -0.9689026, 4.199123, 253.7632, 1.058472, 1026.457
130, Fairbanks, 0, Fairbanks, 90, 90, 1, closed, open, -0.3990479, 1.322493, 153.5976, 1.239258, 1028.782
131, Maynard, 0, Maynard, -90, -90, 1, open, open, 5.191874, 3.348464, -158.6922, 1.615356, 1031.483
132, RollinsChapel3, 177, RollinsChapel3, 87, -90, 1, open, open, -0.4795532, 4.846647, 28.95935, 1.280762, 1033.933
133, Hop4, -3, Hop4, -93, -90, 1, open, open, 2.467687, 1.402098, -151.0242, 1.573364, 1036.647
134, neutral, 0, AllenSt, -90, -90, 0, open, open, 6.92367, 2.576466, -158.8881, 0.9748535, 1038.861
135, Maynard, 0, Maynard, 270, 90, 2, open, open, 0.5349967, 2.511427, 335.4833, 0.9885254, 1040.935
136, BakerBerry2nd, 94, BakerBerry2nd, 4, 90, 2, closed, closed, 1.395898, 3.778632, 63.45125, 1.475708, 1043.442
137, BakerBerryCharter, -90, BakerBerryCharter, 0, 90, 1, closed, closed, -0.791748, 7.061318, 61.91582, 1.545776, 1045.906
138, Fairbanks, 0, Fairbanks, 90, 90, 1, closed, open, -0.8471375, 4.463152, 156.4351, 1.155762, 1048.217
139, Zimmerman, -100, Zimmerman, -10, 90, 1, open, open, -1.19989, 1.002809, 52.44915, 0.9748535, 1050.11
140, neutral, 0, Maynard, 90, 90, 0, closed, open, -0.3798828, 2.51882, 159.7927, 1.113647, 1052.352
141, neutral, 0, BakerBerryCharter, -180, -90, 0, open, open, 6.334839, 8.015338, -245.7159, 1.266846, 1054.788
142, neutral, 0, McLaughlinCluster, 82, -90, 0, closed, open, 1.849173, 0.2277379, 26.73767, 1.65686, 1057.559
143, neutral, 0, Hop4, 87, 90, 0, closed, closed, 0.4173076, 3.411669, 154.9333, 0.9326172, 1059.619
144, PineEntrance, 0, PineEntrance, 90, 90, 1, closed, closed, -1.009369, 7.314789, 153.2509, 1.378418, 1061.944
