trialIdx, primeName, primeAngleYaw, targetName, targetAngleYaw, targetSide, sameScenePrime, correctResponse, response, roll, pitch, yaw, rt, timestamp
1, neutral, 0, RaunerFirst, -90, -90, 0, closed, closed, 8.827548, 23.85896, -180.0062, 2.18103, 665.9472
2, Zimmerman, -100, Zimmerman, 170, 90, 2, closed, closed, 20.64974, 16.43434, 224.0001, 2.374939, 675.1275
3, neutral, 0, Hop4, -93, -90, 0, open, open, 7.769237, 2.67717, -186.8662, 2.097229, 680.3082
4, BakerBerryHistoric2, 180, BakerBerryHistoric2, 270, 90, 1, open, open, 15.37949, 14.52471, 340.6111, 2.375366, 687.0168
5, BakerBerryCharter, -90, BakerBerryCharter, -180, -90, 1, open, open, 14.18382, 24.24699, -270.0956, 1.819519, 692.5723
6, PineBackHall, 180, PineBackHall, 90, 90, 2, open, closed, 7.200305, 2.289841, 148.4339, 1.416626, 701.1835
7, BakerBerry2nd, 94, BakerBerry2nd, 184, 90, 1, open, open, 14.45786, 12.10953, 249.4878, 1.500061, 705.4891
8, RaunerBackHall, 0, RaunerBackHall, 90, 90, 1, open, open, 16.22077, 19.28324, 157.6971, 1.652771, 709.6006
9, Hop2, -1, Hop2, 269, 90, 2, closed, closed, 9.248747, 20.69352, 332.4659, 1.417053, 712.6006
10, BakerBerryHistoric2, 180, BakerBerryHistoric2, 270, -90, 2, open, open, 2.583386, 10.82114, 191.0267, 1.347534, 716.5173
11, neutral, 0, McLaughlinCluster, 262, 90, 0, open, open, 2.429816, 4.388912, 346.4479, 2.055542, 720.0864
12, Zimmerman, -100, Zimmerman, -190, -90, 1, closed, open, 2.183151, 1.932956, -277.5261, 1.75, 723.3228
13, Hop2, -1, Hop2, -91, -90, 1, closed, closed, -2.370758, 2.077789, -176.147, 1.194397, 726.7673
14, Hop4, -3, Hop4, 87, 90, 1, closed, closed, 4.867695, 20.97179, 163.063, 1.930725, 730.434
15, neutral, 0, AllenSt, 90, 90, 0, closed, closed, -1.031403, 13.1206, 179.6349, 1.569641, 733.5035
16, 53Commons, 0, 53Commons, 90, -90, 2, open, open, 3.443573, -5.42746, 7.844391, 1.194702, 737.0591
17, BakerBerryHistoric2, 180, BakerBerryHistoric2, 270, 90, 1, open, open, -2.808197, 10.8161, 369.5027, 1.542114, 740.0457
18, Zimmerman, -100, Zimmerman, -190, -90, 1, closed, open, 1.989751, 2.069099, -270.036, 2.069885, 743.9622
19, Fairbanks, 0, Fairbanks, 270, 90, 2, open, open, -2.10968, 7.240325, 373.115, 1.625183, 747.7675
20, Maynard, 0, Maynard, 90, 90, 1, closed, closed, -5.788757, 5.766134, 186.8414, 1.736328, 751.2122
21, RaunerFirst, 0, RaunerFirst, 90, -90, 2, open, open, 2.43264, 6.430424, -0.5111389, 1.666809, 755.2399
22, RollinsChapel3, 177, RollinsChapel3, 267, -90, 2, closed, closed, -2.969879, 3.575497, 190.2437, 2.388733, 760.2816
23, PineEntrance, 0, PineEntrance, 270, 90, 2, open, open, -5.717072, 10.63729, 364.9968, 1.222351, 763.3096
24, neutral, 0, Fairbanks, 90, 90, 0, closed, closed, -4.72583, 9.656222, 188.2647, 1.889099, 767.4763
25, neutral, 0, Umplebys, -140, -90, 0, open, open, -7.493713, 5.679528, -202.8328, 1.180725, 770.5734
26, neutral, 0, BakerBerryHistoric2, 90, -90, 0, closed, closed, -1.419983, 3.400041, 25.18655, 1.625183, 773.9761
27, neutral, 0, PineEntrance, 90, 90, 0, closed, closed, -6.430725, 11.40513, 186.349, 1.249939, 777.1985
28, neutral, 0, Zimmerman, -10, 90, 0, open, open, -7.202301, 7.668186, 87.15015, 1.208374, 780.6569
29, neutral, 0, MooreLot, 270, 90, 0, open, open, -8.435272, 11.61362, 363.3255, 1.708557, 784.4209
30, Maynard, 0, Maynard, 90, -90, 2, closed, closed, -0.132019, 6.805001, 9.922729, 1.527588, 788.3513
31, PineBackHall, 180, PineBackHall, 90, -90, 1, open, closed, -5.81076, 11.55107, 10.52219, 1.597412, 792.1572
32, Umplebys, -50, Umplebys, 40, 90, 1, closed, closed, -2.130219, 8.681273, 134.8672, 1.569397, 795.8654
33, Hop4, -3, Hop4, 87, -90, 2, closed, closed, -2.312347, 10.02366, 27.50159, 1.110962, 798.3238
34, neutral, 0, PineBackHall, 270, 90, 0, closed, closed, -8.172546, 11.21155, 359.3846, 1.180542, 801.7822
35, neutral, 0, Hop2, 89, 90, 0, open, open, -5.338348, 7.850225, 182.7269, 1.235901, 813.6851
36, Fairbanks, 0, Fairbanks, -90, -90, 1, open, open, -5.352844, 8.083332, -155.667, 1.152954, 816.866
37, neutral, 0, RollinsChapel3, 87, -90, 0, open, open, -3.138611, 7.436654, 17.58533, 1.027954, 821.2687
38, neutral, 0, BakerBerryCharter, 0, 90, 0, closed, closed, -4.507568, 11.95939, 102.3267, 1.028442, 823.6164
39, PineEntrance, 0, PineEntrance, -90, -90, 1, open, open, -4.797729, 12.40837, -165.1916, 0.874939, 826.0602
40, AllenSt, 0, AllenSt, -90, -90, 1, open, open, -9.182465, 11.52154, -165.1395, 1.15271, 829.4214
41, 53Commons, 0, 53Commons, 90, 90, 1, open, open, -4.803772, 11.78643, 181.0277, 1.22229, 832.1854
42, MooreLot, 180, MooreLot, 90, 90, 2, closed, closed, -1.117065, 12.20186, 180.6314, 1.375, 835.3799
43, AllenSt, 0, AllenSt, -90, -90, 1, open, open, -10.29086, 14.17135, -167.5135, 0.9447021, 837.8801
44, neutral, 0, 53Commons, -90, -90, 0, closed, closed, -4.602936, 9.339243, -151.7406, 1.444275, 840.7688
45, MooreLot, 180, MooreLot, 90, -90, 1, closed, closed, -9.325775, 12.54615, 14.68445, 1.180542, 843.644
46, RollinsChapel3, 177, RollinsChapel3, 267, 90, 1, closed, closed, -2.451965, 17.71455, 364.6946, 1.291382, 846.3661
47, neutral, 0, Maynard, -90, -90, 0, open, open, -7.03476, 11.12346, -167.3245, 1.527954, 849.7554
48, 53Commons, 0, 53Commons, 90, 90, 1, open, open, -1.512268, 7.87721, 186.3171, 1.180542, 853.4913
49, Fairbanks, 0, Fairbanks, -90, -90, 1, open, open, -4.126495, 7.329847, -169.0368, 0.9721069, 856.8245
50, AllenSt, 0, AllenSt, 270, 90, 2, open, open, -2.317261, 13.14727, 364.3496, 1.458618, 860.5332
51, McLaughlinCluster, 172, McLaughlinCluster, 82, 90, 2, closed, closed, -6.016144, 1.787928, 184.0327, 1.541992, 863.8943
52, RaunerBackHall, 0, RaunerBackHall, 90, 90, 1, open, open, -4.568542, 12.86403, 207.9785, 1.444153, 867.5192
53, BakerBerry2nd, 94, BakerBerry2nd, 184, -90, 2, open, open, -9.017517, 12.82465, 95.20135, 1.375244, 870.4777
54, BakerBerryCharter, -90, BakerBerryCharter, 180, 90, 2, open, open, -3.959137, 13.3303, 280.3928, 1.347351, 873.811
55, Umplebys, -50, Umplebys, 40, 90, 1, closed, closed, 0.9972401, 9.959365, 140.9667, 1.347412, 876.7138
56, Maynard, 0, Maynard, 90, 90, 1, closed, closed, -3.22522, 11.85114, 200.0911, 1.514038, 879.6861
57, RaunerBackHall, 0, RaunerBackHall, 90, -90, 2, open, open, -3.168274, 8.748806, 23.30075, 1.27832, 882.5892
58, PineBackHall, 180, PineBackHall, 90, -90, 1, open, closed, -2.25647, 10.37173, 27.8847, 1.485901, 885.7139
59, McLaughlinCluster, 172, McLaughlinCluster, 82, -90, 1, closed, open, -6.658997, 6.315414, -4.43219, 1.249939, 889.1166
60, RaunerFirst, 0, RaunerFirst, 90, 90, 1, open, closed, -7.051086, 15.545, 197.6241, 1.278076, 891.8114
61, neutral, 0, BakerBerry2nd, 4, -90, 0, closed, closed, -0.9587402, 11.0573, -86.91534, 1.291626, 894.7002
62, MooreLot, 180, MooreLot, 90, -90, 1, closed, closed, -5.938385, 12.4909, 6.710327, 1.069214, 897.3529
63, Hop4, -3, Hop4, 87, 90, 1, closed, closed, -1.532745, 16.11952, 179.4559, 1.291687, 900.117
64, McLaughlinCluster, 172, McLaughlinCluster, 82, -90, 1, closed, closed, -2.495117, 6.038062, 9.198669, 1.444458, 903.103
65, Umplebys, -50, Umplebys, 40, -90, 2, closed, closed, -5.542664, 5.304906, -20.74329, 0.9442749, 905.5197
66, RaunerFirst, 0, RaunerFirst, 90, 90, 1, open, closed, -12.96658, 17.64303, 200.5015, 1.40271, 908.4225
67, PineEntrance, 0, PineEntrance, -90, -90, 1, open, open, -1.84375, 14.60345, -175.3815, 1.263977, 911.2976
68, neutral, 0, RaunerBackHall, -90, -90, 0, closed, closed, -6.143433, 6.968307, -179.59, 1.180725, 913.8673
69, BakerBerry2nd, 94, BakerBerry2nd, 184, 90, 1, open, open, -3.798767, 12.83599, 282.2437, 1.194702, 916.6174
70, BakerBerryCharter, -90, BakerBerryCharter, -180, -90, 1, open, open, -9.093506, 10.06842, -258.3316, 1.221924, 919.2143
71, RollinsChapel3, 177, RollinsChapel3, 267, 90, 1, closed, open, -6.286926, 12.02174, 380.0512, 1.596924, 930.9926
72, Hop2, -1, Hop2, -91, -90, 1, closed, closed, -5.306915, 8.878844, -163.8492, 0.791687, 933.2842
73, neutral, 0, BakerBerryHistoric2, 270, 90, 0, open, open, -7.281403, 15.29394, 376.3632, 1.027832, 935.673
74, RaunerBackHall, 0, RaunerBackHall, 270, 90, 2, closed, closed, -7.320129, 14.11773, 380.4139, 1.361572, 938.5484
75, BakerBerryHistoric2, 180, BakerBerryHistoric2, 90, 90, 2, closed, closed, -11.2467, 16.90059, 205.8481, 1.152893, 941.187
76, neutral, 0, Zimmerman, -190, -90, 0, closed, open, 1.063353, 10.51407, -284.5562, 1.569397, 943.9786
77, AllenSt, 0, AllenSt, 90, 90, 1, closed, closed, -4.926514, 13.0029, 187.9768, 1.13916, 946.2844
78, PineEntrance, 0, PineEntrance, 90, -90, 2, closed, closed, -3.895782, 16.45256, 0.02960205, 1.166748, 948.8817
79, Hop4, -3, Hop4, -93, -90, 1, open, open, -7.76297, 14.72376, -176.5143, 1.083496, 951.3121
80, RollinsChapel3, 177, RollinsChapel3, 87, 90, 2, open, open, -12.17578, 9.074121, 189.523, 1.458191, 954.3955
81, Hop2, -1, Hop2, 89, 90, 1, open, open, -8.500854, 12.02285, 200.8652, 1.152771, 956.7705
82, MooreLot, 180, MooreLot, 270, 90, 1, open, open, -8.390472, 13.16662, 377.3604, 1.110962, 959.4511
83, 53Commons, 0, 53Commons, -90, -90, 1, closed, open, -6.03479, 3.464456, -163.5186, 2.152893, 963.0068
84, neutral, 0, MooreLot, 90, -90, 0, closed, closed, -4.966583, 9.401061, 15.98462, 0.9862671, 965.3956
85, BakerBerry2nd, 94, BakerBerry2nd, 4, -90, 1, closed, closed, 7.761459, 1.99656, -86.98123, 1.292053, 969.4932
86, Hop2, -1, Hop2, 89, -90, 2, open, closed, -4.90155, 5.508025, 12.98981, 1.125, 972.0069
87, McLaughlinCluster, 172, McLaughlinCluster, 262, -90, 2, open, open, -2.410889, 8.199162, 187.4861, 1.555847, 976.1877
88, AllenSt, 0, AllenSt, 90, -90, 2, closed, open, -3.381989, 8.205379, -0.4536133, 1.750183, 979.4794
89, neutral, 0, Fairbanks, -90, -90, 0, open, open, 6.238157, 7.136291, -182.9955, 1.097351, 981.9792
90, neutral, 0, PineEntrance, -90, -90, 0, open, open, -0.762146, 6.478563, -167.8711, 1.694397, 984.9653
91, Umplebys, -50, Umplebys, -140, -90, 1, open, open, -3.791626, 7.814604, -219.6465, 0.8748169, 987.1321
92, BakerBerry2nd, 94, BakerBerry2nd, 4, -90, 1, closed, closed, -3.816162, 8.976712, -88.88782, 1.097351, 989.4515
93, neutral, 0, RaunerFirst, 90, 90, 0, open, closed, -6.586823, 8.450939, 179.6429, 1.972046, 992.66
94, Maynard, 0, Maynard, -90, -90, 1, open, open, -2.591614, 8.219459, -167.5053, 0.8890381, 994.7991
95, Umplebys, -50, Umplebys, -140, -90, 1, open, open, -2.172485, 8.30364, -219.6774, 1.08374, 997.2575
96, RaunerBackHall, 0, RaunerBackHall, -90, -90, 1, closed, closed, -1.005707, 10.59895, -171.7016, 1.027832, 999.5212
97, BakerBerryHistoric2, 180, BakerBerryHistoric2, 90, -90, 1, closed, closed, -0.6014709, 7.268689, 7.87912, 1.472412, 1002.341
98, McLaughlinCluster, 172, McLaughlinCluster, 262, 90, 1, open, open, -1.986969, 13.52809, 355.9146, 1.402893, 1004.966
99, neutral, 0, PineBackHall, 90, -90, 0, open, open, -0.341156, 11.87505, -10.26389, 1.264282, 1007.535
100, neutral, 0, RollinsChapel3, 267, 90, 0, closed, closed, -4.636566, 13.20032, 361.0761, 1.611206, 1010.702
101, Umplebys, -50, Umplebys, 220, 90, 2, open, open, -2.371307, 12.36854, 322.4521, 1.430725, 1013.785
102, neutral, 0, 53Commons, 90, 90, 0, open, open, -6.817688, 12.04102, 184.6734, 1.097107, 1016.105
103, PineBackHall, 180, PineBackHall, 270, 90, 1, closed, closed, -6.808441, 12.59116, 375.0383, 1.097107, 1018.785
104, MooreLot, 180, MooreLot, 270, -90, 2, open, open, -1.486908, 7.592577, 180.7185, 1.083008, 1021.466
105, BakerBerryCharter, -90, BakerBerryCharter, 0, -90, 2, closed, closed, -0.7167358, 7.539935, -78.82297, 1.013977, 1023.646
106, RaunerBackHall, 0, RaunerBackHall, -90, -90, 1, closed, closed, -2.762299, 12.45007, -163.4227, 0.930542, 1025.883
107, Zimmerman, -100, Zimmerman, 350, -90, 2, open, open, -0.1960144, 6.642849, 257.3904, 0.97229, 1038.244
108, MooreLot, 180, MooreLot, 270, 90, 1, open, open, -1.264801, 11.7035, 347.9707, 1.403076, 1040.786
109, 53Commons, 0, 53Commons, -90, -90, 1, closed, closed, -7.861298, 7.037651, -168.129, 0.8193359, 1042.772
110, RaunerFirst, 0, RaunerFirst, -90, -90, 1, closed, closed, -7.161987, 6.85201, -167.1719, 0.9586182, 1044.953
111, Zimmerman, -100, Zimmerman, -10, 90, 1, open, open, -6.317902, 4.64841, 82.84041, 1.069824, 1047.189
112, AllenSt, 0, AllenSt, 90, 90, 1, closed, closed, -0.6251831, 9.663458, 168.2498, 1.403076, 1049.744
113, PineBackHall, 180, PineBackHall, 270, -90, 2, closed, closed, -3.592987, 9.06804, 199.5114, 0.8895264, 1051.995
114, Fairbanks, 0, Fairbanks, 90, -90, 2, closed, open, -5.400269, 5.632682, 19.45731, 1.430664, 1054.647
115, RaunerFirst, 0, RaunerFirst, 270, 90, 2, closed, closed, -7.13147, 10.263, 360.3534, 1.444336, 1057.536
116, RollinsChapel3, 177, RollinsChapel3, 87, -90, 1, open, open, -0.4382629, 8.877481, 5.98642, 1.013916, 1060.008
117, Hop2, -1, Hop2, 89, 90, 1, open, open, -4.679718, 10.29357, 179.5822, 0.9998779, 1062.328
118, RaunerFirst, 0, RaunerFirst, -90, -90, 1, closed, closed, -2.300354, 9.264963, -163.8034, 0.944458, 1064.578
119, neutral, 0, Hop2, -91, -90, 0, closed, closed, -2.607025, 10.21135, -161.1921, 1.360962, 1067.161
120, PineEntrance, 0, PineEntrance, 90, 90, 1, closed, closed, -1.332306, 14.62496, 174.0959, 1.23645, 1070.092
121, BakerBerryCharter, -90, BakerBerryCharter, 0, 90, 1, closed, closed, -3.951477, 11.12359, 88.59358, 1.013916, 1072.522
122, McLaughlinCluster, 172, McLaughlinCluster, 262, 90, 1, open, open, -3.706146, 14.1074, 346.3338, 1.236328, 1075.397
123, neutral, 0, Umplebys, 40, 90, 0, closed, closed, 1.4805, 11.87967, 131.6083, 1.958252, 1079.717
124, BakerBerryHistoric2, 180, BakerBerryHistoric2, 90, -90, 1, closed, closed, -3.074829, 5.647664, 16.56857, 1.930664, 1083.411
125, 53Commons, 0, 53Commons, 270, 90, 2, closed, open, -5.648163, 7.259806, 360.6589, 1.694702, 1086.717
126, Hop4, -3, Hop4, 267, 90, 2, open, open, -6.529144, 10.07453, 357.3091, 1.389038, 1089.8
127, PineBackHall, 180, PineBackHall, 270, 90, 1, closed, closed, -4.502228, 7.232738, 349.1308, 0.902832, 1093.259
128, neutral, 0, RaunerBackHall, 90, 90, 0, open, open, -4.408264, 5.758049, 188.8946, 0.8059082, 1099.787
129, neutral, 0, BakerBerry2nd, 184, 90, 0, open, open, -6.853149, 8.18337, 265.8113, 0.8613281, 1101.884
130, Fairbanks, 0, Fairbanks, 90, 90, 1, closed, open, -3.828033, 6.931798, 174.9526, 1.111206, 1104.676
131, Maynard, 0, Maynard, -90, -90, 1, open, open, -3.899109, 8.368831, -168.4114, 1.611328, 1108.023
132, RollinsChapel3, 177, RollinsChapel3, 87, -90, 1, open, open, -7.388062, 9.917978, 16.36084, 0.902832, 1110.12
133, Hop4, -3, Hop4, -93, -90, 1, open, open, -4.919281, 8.57183, -169.523, 0.9862061, 1112.342
134, neutral, 0, AllenSt, -90, -90, 0, open, open, -4.16217, 5.119079, -165.3884, 0.9726563, 1114.509
135, Maynard, 0, Maynard, 270, 90, 2, open, open, 0.081172, 12.50756, 344.6563, 1.236206, 1117.884
136, BakerBerry2nd, 94, BakerBerry2nd, 4, 90, 2, closed, closed, 3.775429, 20.6773, 118.2155, 1.56958, 1120.606
137, BakerBerryCharter, -90, BakerBerryCharter, 0, 90, 1, closed, closed, -4.242401, 8.8465, 72.43731, 0.7641602, 1122.94
138, Fairbanks, 0, Fairbanks, 90, 90, 1, closed, open, -1.784515, 10.16671, 181.0655, 1.513916, 1126.051
139, Zimmerman, -100, Zimmerman, -10, 90, 1, open, open, -5.330719, 9.71466, 78.51933, 0.90271, 1128.37
140, neutral, 0, Maynard, 90, 90, 0, closed, closed, -5.442841, 10.85332, 172.5745, 1.319458, 1131.134
141, neutral, 0, BakerBerryCharter, -180, -90, 0, open, open, -0.1267395, 12.85941, -262.7936, 1.500366, 1134.023
142, neutral, 0, McLaughlinCluster, 82, -90, 0, closed, closed, -2.368164, 2.549683, 23.98077, 1.555908, 1137.009
143, neutral, 0, Hop4, 87, 90, 0, closed, closed, -2.054962, 13.50541, 173.4437, 1.013672, 1140.356
144, PineEntrance, 0, PineEntrance, 90, 90, 1, closed, closed, -1.874115, 16.32783, 162.0876, 1.389038, 1142.995
