trialIdx, primeName, primeAngleYaw, targetName, targetAngleYaw, targetSide, sameScenePrime, correctResponse, response, roll, pitch, yaw, rt, timestamp
1, neutral, 0, RaunerFirst, -90, -90, 0, closed, closed, -5.527924, 9.242911, -150.322, 1.306396, 527.3954
2, Zimmerman, -100, Zimmerman, 170, 90, 2, closed, open, -0.498291, 7.894139, 220.8285, 1.486328, 529.9363
3, neutral, 0, Hop4, -93, -90, 0, open, open, -2.879272, 5.791288, -156.2914, 0.722229, 531.686
4, BakerBerryHistoric2, 180, BakerBerryHistoric2, 270, 90, 1, open, open, -1.914185, 11.28837, 324.2621, 1.20874, 533.9224
5, BakerBerryCharter, -90, BakerBerryCharter, -180, -90, 1, open, open, -3.335052, 5.222572, -237.8503, 0.6947021, 535.4919
6, PineBackHall, 180, PineBackHall, 90, 90, 2, open, closed, -2.653687, 9.306778, 145.1898, 1.277954, 537.8529
7, BakerBerry2nd, 94, BakerBerry2nd, 184, 90, 1, open, open, -0.7366638, 11.94592, 235.9923, 1.77771, 540.7416
8, RaunerBackHall, 0, RaunerBackHall, 90, 90, 1, open, open, -1.826691, 11.77766, 140.3225, 1.305847, 543.145
9, Hop2, -1, Hop2, 269, 90, 2, closed, closed, -7.913239, 1.837273, 285.3903, 3.124939, 547.4225
10, BakerBerryHistoric2, 180, BakerBerryHistoric2, 270, -90, 2, open, open, -3.947937, 15.04599, 205.9433, 1.722107, 550.478
11, neutral, 0, McLaughlinCluster, 262, 90, 0, open, open, -0.07312012, 7.818894, 310.329, 1.055542, 552.7143
12, Zimmerman, -100, Zimmerman, -190, -90, 1, closed, open, -1.468109, 7.883272, -253.9297, 0.9025879, 554.7141
13, Hop2, -1, Hop2, -91, -90, 1, closed, closed, -5.06131, 5.029751, -147.5373, 0.833252, 556.8255
14, Hop4, -3, Hop4, 87, 90, 1, closed, closed, 2.217443, 4.999812, 105.8522, 0.9585571, 558.7421
15, neutral, 0, AllenSt, 90, 90, 0, closed, closed, -0.7492065, 5.43564, 92.82604, 1.152893, 560.8533
16, 53Commons, 0, 53Commons, 90, -90, 2, open, open, -2.105072, 8.722505, 28.86716, 1.416382, 563.242
17, BakerBerryHistoric2, 180, BakerBerryHistoric2, 270, 90, 1, open, open, 3.373337, 7.538907, 303.3931, 0.805481, 565.131
18, Zimmerman, -100, Zimmerman, -190, -90, 1, closed, open, -1.526093, 5.101596, -204.0802, 0.5831909, 566.7977
19, Fairbanks, 0, Fairbanks, 270, 90, 2, open, open, -1.210205, 4.79372, 258.8578, 0.6251221, 568.4645
20, Maynard, 0, Maynard, 90, 90, 1, closed, closed, -0.9268494, 4.961705, 79.24319, 0.8609619, 570.4921
21, RaunerFirst, 0, RaunerFirst, 90, -90, 2, open, open, 0.6711062, 8.739794, 24.95233, 1.694397, 573.2702
22, RollinsChapel3, 177, RollinsChapel3, 267, -90, 2, closed, open, 0.07234982, 2.341441, 256.455, 0.7219238, 575.1865
23, PineEntrance, 0, PineEntrance, 270, 90, 2, open, open, -0.3283081, 9.074606, 312.3859, 1.527771, 577.8256
24, neutral, 0, Fairbanks, 90, 90, 0, closed, open, -2.104828, 11.60977, 138.9932, 1.125244, 580.0064
25, neutral, 0, Umplebys, -140, -90, 0, open, open, -1.126648, 6.80033, -199.5894, 0.9862061, 581.8951
26, neutral, 0, BakerBerryHistoric2, 90, -90, 0, closed, closed, 2.583022, 3.562465, 64.21939, 1.291748, 584.2287
27, neutral, 0, PineEntrance, 90, 90, 0, closed, closed, -2.651947, 9.007975, 142.1782, 1.000122, 586.2982
28, neutral, 0, Zimmerman, -10, 90, 0, open, open, -1.149384, 8.085045, 30.33367, 0.847168, 588.0063
29, neutral, 0, MooreLot, 270, 90, 0, open, open, -0.5643311, 4.574281, 292.6597, 0.6802979, 589.7007
30, Maynard, 0, Maynard, 90, -90, 2, closed, open, -3.617432, 2.466019, 69.15317, 1.167053, 591.8817
31, PineBackHall, 180, PineBackHall, 90, -90, 1, open, closed, -0.98703, 2.394122, 74.26376, 0.9584351, 593.7426
32, Umplebys, -50, Umplebys, 40, 90, 1, closed, closed, -0.8811035, 3.7133, 48.64831, 1.166504, 595.8259
33, Hop4, -3, Hop4, 87, -90, 2, closed, closed, 3.724517, 4.457354, 73.97913, 1.389038, 598.5067
34, neutral, 0, PineBackHall, 270, 90, 0, closed, closed, 0.4039232, 6.556349, 306.3648, 0.9308472, 600.5067
35, neutral, 0, Hop2, 89, 90, 0, open, open, -1.426788, 9.643664, 131.0788, 1.028076, 608.1595
36, Fairbanks, 0, Fairbanks, -90, -90, 1, open, open, -3.287231, 2.630679, -108.7361, 0.6809692, 609.9235
37, neutral, 0, RollinsChapel3, 87, -90, 0, open, open, -2.972504, 2.57497, 79.69992, 0.5974731, 611.729
38, neutral, 0, BakerBerryCharter, 0, 90, 0, closed, closed, -3.046204, 2.614053, -6.78656, 0.7221069, 613.3261
39, PineEntrance, 0, PineEntrance, -90, -90, 1, open, open, -2.981293, 2.588542, -97.24835, 0.749939, 615.1039
40, AllenSt, 0, AllenSt, -90, -90, 1, open, open, -3.014526, 2.626891, -97.37772, 1.180603, 617.2846
41, 53Commons, 0, 53Commons, 90, 90, 1, open, open, -3.157867, 2.703815, 82.75009, 0.7780762, 619.2708
42, MooreLot, 180, MooreLot, 90, 90, 2, closed, closed, -6.529022, 4.119215, 93.2558, 2.097168, 622.229
43, AllenSt, 0, AllenSt, -90, -90, 1, open, closed, -2.692413, 2.123971, -104.2844, 0.7636719, 623.8401
44, neutral, 0, 53Commons, -90, -90, 0, closed, open, -2.122375, 4.083402, -116.0963, 1.194641, 626.146
45, MooreLot, 180, MooreLot, 90, -90, 1, closed, closed, -3.682617, 7.148458, 50.63855, 1.277466, 628.3818
46, RollinsChapel3, 177, RollinsChapel3, 267, 90, 1, closed, open, 2.228411, 11.18267, 299.4674, 1.166626, 630.6042
47, neutral, 0, Maynard, -90, -90, 0, open, open, 1.08663, 2.218325, -152.2636, 1.277588, 632.9235
48, 53Commons, 0, 53Commons, 90, 90, 1, open, closed, -0.3321533, 1.860549, 85.64197, 0.7918701, 634.8544
49, Fairbanks, 0, Fairbanks, -90, -90, 1, open, open, -1.116821, 2.901146, -106.1795, 0.7915649, 636.6599
50, AllenSt, 0, AllenSt, 270, 90, 2, open, closed, 0.868454, 9.412164, 310.2333, 1.152893, 638.91
51, McLaughlinCluster, 172, McLaughlinCluster, 82, 90, 2, closed, closed, -1.2966, 8.254677, 104.1687, 1.680542, 641.7153
52, RaunerBackHall, 0, RaunerBackHall, 90, 90, 1, open, closed, -0.4455872, 5.166423, 101.9334, 0.8059692, 643.4518
53, BakerBerry2nd, 94, BakerBerry2nd, 184, -90, 2, open, open, -1.263824, 3.987138, 126.7704, 0.9168091, 645.2296
54, BakerBerryCharter, -90, BakerBerryCharter, 180, 90, 2, open, closed, 1.795967, 8.333858, 217.8954, 0.8329468, 647.0071
55, Umplebys, -50, Umplebys, 40, 90, 1, closed, closed, -0.8980713, 16.38763, 86.67674, 1.25, 649.285
56, Maynard, 0, Maynard, 90, 90, 1, closed, open, -3.451843, 14.99364, 145.1554, 1.486389, 651.688
57, RaunerBackHall, 0, RaunerBackHall, 90, -90, 2, open, open, 0.7855785, 7.59956, 24.52692, 1.125061, 654.049
58, PineBackHall, 180, PineBackHall, 90, -90, 1, open, open, -0.1659546, 8.156886, 25.62952, 1.137268, 656.2993
59, McLaughlinCluster, 172, McLaughlinCluster, 82, -90, 1, closed, open, -6.216064, 13.64452, 89.96535, 1.029297, 658.1893
60, RaunerFirst, 0, RaunerFirst, 90, 90, 1, open, open, -5.126953, 5.16843, 143.8638, 1.680664, 661.6604
61, neutral, 0, BakerBerry2nd, 4, -90, 0, closed, closed, 0.08557632, 3.667296, -50.68915, 1.194397, 663.8546
62, MooreLot, 180, MooreLot, 90, -90, 1, closed, closed, -0.872406, 3.500997, 38.66962, 1.138855, 665.8408
63, Hop4, -3, Hop4, 87, 90, 1, closed, closed, -0.3639526, 4.302084, 99.97367, 0.8613281, 667.688
64, McLaughlinCluster, 172, McLaughlinCluster, 82, -90, 1, closed, closed, -1.863251, 0.32354, 29.83423, 1.236084, 669.7852
65, Umplebys, -50, Umplebys, 40, -90, 2, closed, closed, -0.959198, 8.057255, -16.15948, 1.097046, 671.9936
66, RaunerFirst, 0, RaunerFirst, 90, 90, 1, open, open, 1.514822, 4.94213, 117.102, 1.014038, 674.0076
67, PineEntrance, 0, PineEntrance, -90, -90, 1, open, open, -2.216309, 3.565217, -128.0215, 0.7780762, 675.8133
68, neutral, 0, RaunerBackHall, -90, -90, 0, closed, closed, 0.04161295, 5.562599, -140.7674, 1.138977, 678.091
69, BakerBerry2nd, 94, BakerBerry2nd, 184, 90, 1, open, open, -0.6653137, 3.022641, 177.4869, 1.055664, 680.2023
70, BakerBerryCharter, -90, BakerBerryCharter, -180, -90, 1, open, open, 1.78641, 7.445052, -243.2302, 2.416809, 683.9938
71, RollinsChapel3, 177, RollinsChapel3, 267, 90, 1, closed, closed, 1.79976, 12.61499, 298.4417, 1.208435, 694.2579
72, Hop2, -1, Hop2, -91, -90, 1, closed, closed, -2.581909, 5.933331, -122.143, 0.65271, 695.7858
73, neutral, 0, BakerBerryHistoric2, 270, 90, 0, open, open, 1.960197, 10.92597, 308.5045, 1.319641, 698.0218
74, RaunerBackHall, 0, RaunerBackHall, 270, 90, 2, closed, closed, 3.595474, 7.466712, 293.9053, 0.7636719, 699.6329
75, BakerBerryHistoric2, 180, BakerBerryHistoric2, 90, 90, 2, closed, open, 1.770983, 15.50473, 138.7596, 1.208679, 701.8693
76, neutral, 0, Zimmerman, -190, -90, 0, closed, open, -2.966736, 4.197557, -233.2211, 0.8198242, 703.6611
77, AllenSt, 0, AllenSt, 90, 90, 1, closed, closed, 1.291385, 4.896072, 108.5995, 0.7642822, 705.3556
78, PineEntrance, 0, PineEntrance, 90, -90, 2, closed, open, -1.528687, 4.309777, 33.49493, 0.7919922, 707.4944
79, Hop4, -3, Hop4, -93, -90, 1, open, open, -1.63031, 4.184657, -128.0031, 0.6389771, 709.0916
80, RollinsChapel3, 177, RollinsChapel3, 87, 90, 2, open, closed, -0.2297668, 7.513154, 128.976, 1.222046, 711.2025
81, Hop2, -1, Hop2, 89, 90, 1, open, open, -1.467072, 4.16639, 80.97021, 0.861145, 712.9388
82, MooreLot, 180, MooreLot, 270, 90, 1, open, closed, 0.389855, 9.454396, 314.4847, 1.44458, 715.2582
83, 53Commons, 0, 53Commons, -90, -90, 1, closed, open, -2.642487, 6.08272, -99.51981, 0.930603, 717.1613
84, neutral, 0, MooreLot, 90, -90, 0, closed, closed, -1.529358, 6.931273, 44.17755, 0.9866333, 719.4394
85, BakerBerry2nd, 94, BakerBerry2nd, 4, -90, 1, closed, closed, -1.541656, 5.52077, -41.48703, 1.347534, 721.7446
86, Hop2, -1, Hop2, 89, -90, 2, open, closed, -1.715454, 5.306609, 67.35779, 0.7640381, 723.5082
87, McLaughlinCluster, 172, McLaughlinCluster, 262, -90, 2, open, closed, 2.091072, 6.029055, 219.5714, 1.31958, 725.7864
88, AllenSt, 0, AllenSt, 90, -90, 2, closed, closed, 1.262091, 9.164742, 32.74463, 0.97229, 728.0223
89, neutral, 0, Fairbanks, -90, -90, 0, open, open, -1.138245, 5.5067, -137.1771, 1.180847, 730.4252
90, neutral, 0, PineEntrance, -90, -90, 0, open, open, -1.249084, 5.446951, -142.2667, 0.8468628, 732.1472
91, Umplebys, -50, Umplebys, -140, -90, 1, open, open, -1.147003, 8.267517, -198.7815, 1.055298, 734.1334
92, BakerBerry2nd, 94, BakerBerry2nd, 4, -90, 1, closed, closed, -2.118286, 7.985465, -44.60681, 1.152649, 736.2308
93, neutral, 0, RaunerFirst, 90, 90, 0, open, open, -3.288177, 9.10262, 140.2923, 1.805664, 739.2448
94, Maynard, 0, Maynard, -90, -90, 1, open, open, -1.830353, 5.709577, -133.6278, 1.000122, 741.1199
95, Umplebys, -50, Umplebys, -140, -90, 1, open, open, -1.79718, 6.98654, -194.6669, 0.986084, 743.2445
96, RaunerBackHall, 0, RaunerBackHall, -90, -90, 1, closed, closed, -1.657196, 6.764155, -137.3219, 1.083374, 745.2865
97, BakerBerryHistoric2, 180, BakerBerryHistoric2, 90, -90, 1, closed, closed, -2.92276, 6.919871, 52.37006, 0.8192749, 747.2308
98, McLaughlinCluster, 172, McLaughlinCluster, 262, 90, 1, open, open, 2.172715, 8.263201, 296.6065, 1.541565, 749.856
99, neutral, 0, PineBackHall, 90, -90, 0, open, open, -0.0350647, 7.383699, 33.25119, 1.625244, 752.5228
100, neutral, 0, RollinsChapel3, 267, 90, 0, closed, closed, 2.291813, 8.694535, 302.8267, 1.097229, 754.4949
101, Umplebys, -50, Umplebys, 220, 90, 2, open, open, -2.368225, 9.951796, 270.0102, 1.458252, 757.106
102, neutral, 0, 53Commons, 90, 90, 0, open, open, -2.206573, 6.86606, 141.961, 1.124878, 759.0643
103, PineBackHall, 180, PineBackHall, 270, 90, 1, closed, closed, -2.266937, 5.876838, 276.618, 0.9168091, 761.0507
104, MooreLot, 180, MooreLot, 270, -90, 2, open, closed, -1.653961, 5.383376, 248.0912, 0.7781982, 762.9952
105, BakerBerryCharter, -90, BakerBerryCharter, 0, -90, 2, closed, closed, -0.01361084, 8.251466, -66.54211, 2.472046, 766.5089
106, RaunerBackHall, 0, RaunerBackHall, -90, -90, 1, closed, closed, -0.9408264, 4.895904, -117.5826, 0.777771, 768.3562
107, Zimmerman, -100, Zimmerman, 350, -90, 2, open, open, -0.8233948, 7.50343, 292.7993, 1.000244, 776.1619
108, MooreLot, 180, MooreLot, 270, 90, 1, open, closed, 2.2485, 7.291677, 290.1035, 0.7501831, 777.8983
109, 53Commons, 0, 53Commons, -90, -90, 1, closed, closed, -2.016022, 5.939599, -141.1075, 1.126648, 780.0942
110, RaunerFirst, 0, RaunerFirst, -90, -90, 1, closed, closed, -2.188263, 6.260793, -129.0959, 0.763855, 781.9118
111, Zimmerman, -100, Zimmerman, -10, 90, 1, open, open, 2.039294, 7.557515, 23.19618, 1.083191, 784.0925
112, AllenSt, 0, AllenSt, 90, 90, 1, closed, closed, 0.2270645, 8.96523, 98.80647, 0.833374, 785.8843
113, PineBackHall, 180, PineBackHall, 270, -90, 2, closed, closed, -2.365387, 8.241407, 235.9962, 0.8613281, 787.8151
114, Fairbanks, 0, Fairbanks, 90, -90, 2, closed, closed, -1.741028, 4.973902, 43.24017, 1.18103, 790.0234
115, RaunerFirst, 0, RaunerFirst, 270, 90, 2, closed, closed, -0.01437378, 8.39601, 302.1557, 1.347717, 792.2318
116, RollinsChapel3, 177, RollinsChapel3, 87, -90, 1, open, open, -2.160675, 4.587086, 34.84467, 0.9169312, 795.0511
117, Hop2, -1, Hop2, 89, 90, 1, open, open, 1.15187, 6.457988, 125.1214, 0.9865723, 797.1902
118, RaunerFirst, 0, RaunerFirst, -90, -90, 1, closed, closed, -2.763397, 4.568973, -132.6361, 0.7501831, 798.8845
119, neutral, 0, Hop2, -91, -90, 0, closed, closed, -2.662811, 5.641646, -141.3344, 0.833374, 800.6901
120, PineEntrance, 0, PineEntrance, 90, 90, 1, closed, closed, 0.7333614, 5.641261, 125.5961, 0.972229, 802.9402
121, BakerBerryCharter, -90, BakerBerryCharter, 0, 90, 1, closed, closed, -1.414001, 5.515893, 9.606627, 0.6529541, 804.5652
122, McLaughlinCluster, 172, McLaughlinCluster, 262, 90, 1, open, open, -0.3075562, 7.086731, 287.6306, 0.9031982, 806.5654
123, neutral, 0, Umplebys, 40, 90, 0, closed, closed, -0.8660278, 8.574315, 89.31015, 1.388916, 809.0792
124, BakerBerryHistoric2, 180, BakerBerryHistoric2, 90, -90, 1, closed, closed, -1.372009, 5.300246, 67.75601, 1.221924, 811.4677
125, 53Commons, 0, 53Commons, 270, 90, 2, closed, open, -2.396393, 5.542021, 265.2008, 0.7501221, 813.2042
126, Hop4, -3, Hop4, 267, 90, 2, open, closed, -1.914581, 5.617613, 260.9382, 0.84729, 815.1206
127, PineBackHall, 180, PineBackHall, 270, 90, 1, closed, closed, -1.855957, 5.732179, 263.7007, 0.763855, 816.8708
128, neutral, 0, RaunerBackHall, 90, 90, 0, open, closed, 1.375811, 9.079987, 120.1906, 1.236145, 819.2321
129, neutral, 0, BakerBerry2nd, 184, 90, 0, open, open, -2.266022, 8.465836, 238.071, 1.208008, 821.4818
130, Fairbanks, 0, Fairbanks, 90, 90, 1, closed, open, -1.847046, 6.919026, 101.3997, 0.9586182, 824.1073
131, Maynard, 0, Maynard, -90, -90, 1, open, open, -2.251007, 7.886286, -137.9995, 1.166809, 826.3433
132, RollinsChapel3, 177, RollinsChapel3, 87, -90, 1, open, open, -0.3506165, 6.36732, 70.46991, 0.777832, 828.1627
133, Hop4, -3, Hop4, -93, -90, 1, open, open, -1.300232, 6.234175, -142.6427, 0.763855, 830.0377
134, neutral, 0, AllenSt, -90, -90, 0, open, open, 1.275568, 7.617989, -147.887, 1.125061, 832.2877
135, Maynard, 0, Maynard, 270, 90, 2, open, open, 1.478779, 8.378209, 311.8058, 1.097534, 834.4684
136, BakerBerry2nd, 94, BakerBerry2nd, 4, 90, 2, closed, open, 2.569224, 9.624037, 40.14983, 0.8331909, 836.3712
137, BakerBerryCharter, -90, BakerBerryCharter, 0, 90, 1, closed, closed, -2.466797, 11.36598, 45.35656, 1.236206, 838.7878
138, Fairbanks, 0, Fairbanks, 90, 90, 1, closed, closed, 0.9092655, 8.829728, 134.1126, 1.055176, 840.9682
139, Zimmerman, -100, Zimmerman, -10, 90, 1, open, open, -0.1154175, 6.634336, 8.931416, 0.8192749, 842.8572
140, neutral, 0, Maynard, 90, 90, 0, closed, open, 0.7351671, 6.387121, 111.8741, 0.7778931, 844.7741
141, neutral, 0, BakerBerryCharter, -180, -90, 0, open, closed, -0.1938477, 6.533784, -177.3184, 0.666748, 846.5239
142, neutral, 0, McLaughlinCluster, 82, -90, 0, closed, open, -0.06524658, 6.646101, 83.45476, 0.7088013, 848.6354
143, neutral, 0, Hop4, 87, 90, 0, closed, closed, -0.2372131, 6.75666, 88.83311, 0.65271, 850.1489
144, PineEntrance, 0, PineEntrance, 90, 90, 1, closed, closed, -0.1335449, 7.021122, 91.42096, 0.7636108, 851.7739
