trialIdx, primeName, primeAngleYaw, targetName, targetAngleYaw, targetSide, sameScenePrime, correctResponse, response, roll, pitch, yaw, rt, timestamp
1, neutral, 0, RaunerFirst, -90, -90, 0, closed, closed, 0.1478773, 9.130569, -171.4042, 1.044189, 679.838
2, Zimmerman, -100, Zimmerman, 170, 90, 2, closed, open, -0.4486084, 5.361952, 247.7013, 1.253113, 686.3816
3, neutral, 0, Hop4, -93, -90, 0, open, open, 1.697335, 8.895819, -166.1918, 0.9602661, 694.2336
4, BakerBerryHistoric2, 180, BakerBerryHistoric2, 270, 90, 1, open, open, 0.2702367, 12.85662, 351.2359, 1.099792, 697.0739
5, BakerBerryCharter, -90, BakerBerryCharter, -180, -90, 1, open, closed, 0.9621394, 13.47356, -258.451, 1.448181, 699.8862
6, PineBackHall, 180, PineBackHall, 90, 90, 2, open, closed, 0.7343323, 9.077061, 161.3729, 1.294495, 704.0489
7, BakerBerry2nd, 94, BakerBerry2nd, 184, 90, 1, open, open, 1.458857, 7.705537, 262.5599, 0.9329834, 706.4853
8, RaunerBackHall, 0, RaunerBackHall, 90, 90, 1, open, open, 1.368556, 7.92394, 172.2414, 0.9187012, 708.657
9, Hop2, -1, Hop2, 269, 90, 2, closed, closed, 1.286252, 9.075824, 350.5149, 0.9470825, 711.6507
10, BakerBerryHistoric2, 180, BakerBerryHistoric2, 270, -90, 2, open, closed, -0.7997131, 13.88929, 205.0775, 1.545654, 715.0476
11, neutral, 0, McLaughlinCluster, 262, 90, 0, open, open, -0.5262756, 9.684471, 344.6368, 1.824219, 718.4308
12, Zimmerman, -100, Zimmerman, -190, -90, 1, closed, closed, 1.556516, 13.09743, -271.6877, 1.25293, 721.1454
13, Hop2, -1, Hop2, -91, -90, 1, closed, closed, 1.629247, 11.39085, -161.6609, 1.183105, 724.9462
14, Hop4, -3, Hop4, 87, 90, 1, closed, closed, 0.3329175, 8.794815, 168.1098, 0.7515259, 728.3988
15, neutral, 0, AllenSt, 90, 90, 0, closed, closed, 1.642659, 9.121272, 162.9924, 1.461548, 732.13
16, 53Commons, 0, 53Commons, 90, -90, 2, open, open, 1.211614, 10.18645, 14.34027, 1.030029, 734.4272
17, BakerBerryHistoric2, 180, BakerBerryHistoric2, 270, 90, 1, open, closed, -0.2779236, 13.72745, 349.8233, 1.25293, 737.0308
18, Zimmerman, -100, Zimmerman, -190, -90, 1, closed, closed, 1.032704, 15.65661, -270.6796, 1.405823, 739.648
19, Fairbanks, 0, Fairbanks, 270, 90, 2, open, open, 0.5807901, 7.864565, 354.1435, 1.475952, 742.3911
20, Maynard, 0, Maynard, 90, 90, 1, closed, closed, 2.173366, 5.428481, 174.8375, 0.9190063, 744.73
21, RaunerFirst, 0, RaunerFirst, 90, -90, 2, open, open, -0.2826233, 14.4286, 9.836792, 1.823975, 747.7371
22, RollinsChapel3, 177, RollinsChapel3, 267, -90, 2, closed, closed, 4.448575, 12.05499, 188.0878, 2.520142, 751.7191
23, PineEntrance, 0, PineEntrance, 270, 90, 2, open, open, -1.488953, 7.606861, 348.0333, 1.336365, 755.9094
24, neutral, 0, Fairbanks, 90, 90, 0, closed, open, -0.3035889, 8.354913, 175.7854, 1.629028, 758.6384
25, neutral, 0, Umplebys, -140, -90, 0, open, open, -0.1326904, 13.48946, -219.3629, 0.9603882, 760.6985
26, neutral, 0, BakerBerryHistoric2, 90, -90, 0, closed, closed, 1.299246, 15.76391, 8.599548, 1.072205, 762.8847
27, neutral, 0, PineEntrance, 90, 90, 0, closed, closed, 0.7350114, 10.885, 174.4927, 0.9326782, 764.9172
28, neutral, 0, Zimmerman, -10, 90, 0, open, open, 1.225803, 11.55066, 76.5782, 0.9887085, 767.1448
29, neutral, 0, MooreLot, 270, 90, 0, open, open, 1.962546, 7.662367, 352.45, 1.322571, 769.6369
30, Maynard, 0, Maynard, 90, -90, 2, closed, closed, 1.91602, 13.00369, 10.21738, 1.141663, 772.5607
31, PineBackHall, 180, PineBackHall, 90, -90, 1, open, closed, 0.04585374, 16.46039, 2.187897, 1.279968, 774.9411
32, Umplebys, -50, Umplebys, 40, 90, 1, closed, closed, 1.430961, 10.21854, 123.3328, 0.9747925, 777.0436
33, Hop4, -3, Hop4, 87, -90, 2, closed, closed, -1.908295, 13.73269, 2.143311, 1.280945, 779.4521
34, neutral, 0, PineBackHall, 270, 90, 0, closed, closed, -0.02850342, 9.167995, 352.5499, 1.002502, 781.7633
35, neutral, 0, Hop2, 89, 90, 0, open, open, -1.961273, 8.846151, 166.1075, 0.9327393, 795.2816
36, Fairbanks, 0, Fairbanks, -90, -90, 1, open, open, 2.068987, 11.2111, -168.5269, 1.100037, 800.099
37, neutral, 0, RollinsChapel3, 87, -90, 0, open, open, 1.314764, 11.37212, 9.953339, 0.9328613, 802.5352
38, neutral, 0, BakerBerryCharter, 0, 90, 0, closed, closed, -0.06420898, 9.076164, 81.22361, 0.7797241, 804.4705
39, PineEntrance, 0, PineEntrance, -90, -90, 1, open, open, 0.160754, 11.66634, -169.0807, 0.8914795, 806.4755
40, AllenSt, 0, AllenSt, -90, -90, 1, open, open, 1.326015, 10.70613, -173.183, 0.8493652, 808.8282
41, 53Commons, 0, 53Commons, 90, 90, 1, open, closed, -0.0118103, 7.920983, 178.1171, 0.682312, 810.8748
42, MooreLot, 180, MooreLot, 90, 90, 2, closed, closed, 0.3912178, 7.826154, 169.531, 0.8630981, 813.4225
43, AllenSt, 0, AllenSt, -90, -90, 1, open, open, -0.9595032, 10.10773, -167.6674, 0.7658691, 815.497
44, neutral, 0, 53Commons, -90, -90, 0, closed, closed, 0.6860019, 12.20388, -170.7766, 1.15564, 817.9473
45, MooreLot, 180, MooreLot, 90, -90, 1, closed, closed, 0.5288312, 13.29388, 3.116821, 0.8632202, 820.0636
46, RollinsChapel3, 177, RollinsChapel3, 267, 90, 1, closed, closed, 0.7306299, 10.03565, 346.2802, 1.127869, 822.4165
47, neutral, 0, Maynard, -90, -90, 0, open, open, -0.5338745, 9.924938, -165.9618, 0.9052124, 824.6718
48, 53Commons, 0, 53Commons, 90, 90, 1, open, open, -0.9792175, 5.638072, 174.2152, 0.6819458, 826.537
49, Fairbanks, 0, Fairbanks, -90, -90, 1, open, open, 1.141139, 8.735092, -168.0179, 0.7797241, 828.4586
50, AllenSt, 0, AllenSt, 270, 90, 2, open, open, 0.194558, 5.398114, 342.4158, 1.127686, 830.9508
51, McLaughlinCluster, 172, McLaughlinCluster, 82, 90, 2, closed, closed, 0.4258668, 7.004767, 155.4529, 0.9327393, 833.2338
52, RaunerBackHall, 0, RaunerBackHall, 90, 90, 1, open, open, -0.1410522, 6.161778, 177.0949, 0.8076172, 835.183
53, BakerBerry2nd, 94, BakerBerry2nd, 184, -90, 2, open, open, -0.5427551, 11.10285, 106.3062, 1.587402, 838.1346
54, BakerBerryCharter, -90, BakerBerryCharter, 180, 90, 2, open, closed, -0.7695618, 6.258297, 254.8415, 1.183472, 840.4737
55, Umplebys, -50, Umplebys, 40, 90, 1, closed, closed, 0.6397856, 6.61576, 119.8555, 0.9188843, 842.5339
56, Maynard, 0, Maynard, 90, 90, 1, closed, open, 0.4094992, 7.000688, 170.5788, 0.9328003, 844.6364
57, RaunerBackHall, 0, RaunerBackHall, 90, -90, 2, open, open, 1.471943, 7.705214, 28.92419, 1.071716, 846.5714
58, PineBackHall, 180, PineBackHall, 90, -90, 1, open, closed, -0.04046631, 10.15559, 21.73291, 1.308899, 849.2446
59, McLaughlinCluster, 172, McLaughlinCluster, 82, -90, 1, closed, closed, 0.3463814, 9.516224, 8.933777, 1.169556, 851.7368
60, RaunerFirst, 0, RaunerFirst, 90, 90, 1, open, open, -1.721344, 6.547516, 169.5529, 0.7519531, 853.7276
61, neutral, 0, BakerBerry2nd, 4, -90, 0, closed, closed, -0.276001, 8.84965, -70.24585, 0.9616699, 855.8586
62, MooreLot, 180, MooreLot, 90, -90, 1, closed, closed, 0.4429267, 10.16741, 18.39493, 0.7796631, 857.779
63, Hop4, -3, Hop4, 87, 90, 1, closed, closed, 1.49634, 11.63746, 172.2818, 0.6963501, 859.6865
64, McLaughlinCluster, 172, McLaughlinCluster, 82, -90, 1, closed, closed, -1.063293, 8.423072, 3.830139, 0.9468994, 861.7748
65, Umplebys, -50, Umplebys, 40, -90, 2, closed, closed, 0.190393, 8.763374, -29.98764, 0.9050293, 863.9606
66, RaunerFirst, 0, RaunerFirst, 90, 90, 1, open, open, -1.719299, 5.325305, 171.0551, 0.640564, 865.687
67, PineEntrance, 0, PineEntrance, -90, -90, 1, open, open, 0.5819411, 9.446939, -146.1194, 1.016113, 868.1509
68, neutral, 0, RaunerBackHall, -90, -90, 0, closed, closed, -0.05187988, 9.0186, -153.8228, 0.8355103, 870.3509
69, BakerBerry2nd, 94, BakerBerry2nd, 184, 90, 1, open, open, 0.2183891, 5.739034, 255.1263, 0.6264038, 872.2581
70, BakerBerryCharter, -90, BakerBerryCharter, -180, -90, 1, open, closed, 0.5932167, 10.56312, -256.7062, 0.9191284, 874.4163
71, RollinsChapel3, 177, RollinsChapel3, 267, 90, 1, closed, closed, -0.8636475, 9.744555, 342.8549, 1.155762, 905.2542
72, Hop2, -1, Hop2, -91, -90, 1, closed, closed, 0.5882303, 8.397449, -153.5063, 0.7098999, 907.3422
73, neutral, 0, BakerBerryHistoric2, 270, 90, 0, open, closed, -1.129822, 8.347634, 346.8397, 1.016174, 909.528
74, RaunerBackHall, 0, RaunerBackHall, 270, 90, 2, closed, closed, -0.4414978, 8.456417, 351.6378, 1.044067, 911.7695
75, BakerBerryHistoric2, 180, BakerBerryHistoric2, 90, 90, 2, closed, closed, -0.03872681, 12.01039, 171.4578, 0.918396, 913.9137
76, neutral, 0, Zimmerman, -190, -90, 0, closed, closed, 0.2056536, 10.3707, -265.4126, 1.935242, 917.0602
77, AllenSt, 0, AllenSt, 90, 90, 1, closed, closed, -1.05542, 8.01433, 160.9759, 0.9606934, 919.176
78, PineEntrance, 0, PineEntrance, 90, -90, 2, closed, closed, -1.591888, 13.79216, 23.46924, 1.197144, 921.7379
79, Hop4, -3, Hop4, -93, -90, 1, open, open, 0.9558617, 11.38269, -163.5067, 1.016479, 923.9516
80, RollinsChapel3, 177, RollinsChapel3, 87, 90, 2, open, open, -1.619568, 4.928581, 169.0471, 1.183289, 926.3046
81, Hop2, -1, Hop2, 89, 90, 1, open, open, -0.8913879, 7.453676, 168.549, 0.7661133, 928.24
82, MooreLot, 180, MooreLot, 270, 90, 1, open, open, 0.05697665, 7.204035, 347.1333, 1.141357, 930.509
83, 53Commons, 0, 53Commons, -90, -90, 1, closed, closed, 0.5178425, 11.05129, -155.9037, 1.197449, 932.9175
84, neutral, 0, MooreLot, 90, -90, 0, closed, closed, 1.046583, 9.703422, 23.00616, 1.072144, 937.0385
85, BakerBerry2nd, 94, BakerBerry2nd, 4, -90, 1, closed, closed, 0.9180351, 10.01919, -57.63385, 1.350281, 939.7115
86, Hop2, -1, Hop2, 89, -90, 2, open, open, 0.3593473, 12.8367, 11.2063, 1.183472, 942.2594
87, McLaughlinCluster, 172, McLaughlinCluster, 262, -90, 2, open, closed, 2.352249, 14.10083, 182.6586, 1.726624, 945.1415
88, AllenSt, 0, AllenSt, 90, -90, 2, closed, closed, 0.1050268, 9.784185, 12.65256, 0.8770752, 947.4803
89, neutral, 0, Fairbanks, -90, -90, 0, open, open, 2.033605, 7.185932, -168.4788, 1.002319, 950.0975
90, neutral, 0, PineEntrance, -90, -90, 0, open, open, 0.6683798, 10.03634, -167.4238, 1.225403, 953.648
91, Umplebys, -50, Umplebys, -140, -90, 1, open, open, -0.2044983, 10.57198, -215.6786, 1.211182, 956.14
92, BakerBerry2nd, 94, BakerBerry2nd, 4, -90, 1, closed, closed, 0.5542952, 11.53858, -71.55502, 0.8909912, 958.1448
93, neutral, 0, RaunerFirst, 90, 90, 0, open, open, 0.8232343, 9.024328, 167.644, 0.9468994, 960.4003
94, Maynard, 0, Maynard, -90, -90, 1, open, closed, 0.745988, 9.865731, -162.2431, 1.030334, 962.6697
95, Umplebys, -50, Umplebys, -140, -90, 1, open, open, 0.4672004, 9.503449, -207.3548, 0.7657471, 964.8553
96, RaunerBackHall, 0, RaunerBackHall, -90, -90, 1, closed, closed, 2.070222, 10.26266, -149.9774, 0.848938, 966.9717
97, BakerBerryHistoric2, 180, BakerBerryHistoric2, 90, -90, 1, closed, closed, 1.372191, 11.77674, 20.54288, 0.7794189, 969.0179
98, McLaughlinCluster, 172, McLaughlinCluster, 262, 90, 1, open, closed, -0.6713867, 13.46563, 339.825, 2.492249, 972.8188
99, neutral, 0, PineBackHall, 90, -90, 0, open, closed, 1.711925, 12.3983, 18.42322, 1.267151, 975.7706
100, neutral, 0, RollinsChapel3, 267, 90, 0, closed, closed, 0.5012242, 10.65355, 341.6416, 1.183777, 978.0816
101, Umplebys, -50, Umplebys, 220, 90, 2, open, open, 1.23634, 8.389585, 294.8076, 1.378662, 980.5877
102, neutral, 0, 53Commons, 90, 90, 0, open, open, -0.6328735, 8.261458, 170.7823, 0.9468384, 982.7595
103, PineBackHall, 180, PineBackHall, 270, 90, 1, closed, closed, -0.4962463, 10.24481, 344.2906, 1.127625, 985.0844
104, MooreLot, 180, MooreLot, 270, -90, 2, open, open, 0.6215475, 9.651033, 192.7296, 0.9887085, 987.3259
105, BakerBerryCharter, -90, BakerBerryCharter, 0, -90, 2, closed, closed, 1.925283, 11.05723, -62.93823, 1.044312, 989.5399
106, RaunerBackHall, 0, RaunerBackHall, -90, -90, 1, closed, closed, 0.302686, 9.826393, -153.3244, 0.9886475, 991.6561
107, Zimmerman, -100, Zimmerman, 350, -90, 2, open, open, 1.32087, 10.86351, 274.0665, 1.406311, 1012.4
108, MooreLot, 180, MooreLot, 270, 90, 1, open, open, -0.0791626, 8.938417, 342.6023, 0.9050293, 1014.488
109, 53Commons, 0, 53Commons, -90, -90, 1, closed, closed, 1.999302, 12.01835, -163.5013, 1.656738, 1017.343
110, RaunerFirst, 0, RaunerFirst, -90, -90, 1, closed, closed, 3.315407, 10.26255, -157.7383, 0.9327393, 1019.5
111, Zimmerman, -100, Zimmerman, -10, 90, 1, open, open, -1.372284, 6.445817, 66.66843, 0.9326782, 1021.547
112, AllenSt, 0, AllenSt, 90, 90, 1, closed, closed, -1.334991, 7.454885, 158.6452, 0.9607544, 1023.789
113, PineBackHall, 180, PineBackHall, 270, -90, 2, closed, closed, 2.413386, 10.44984, 206.0108, 0.7799072, 1025.78
114, Fairbanks, 0, Fairbanks, 90, -90, 2, closed, closed, 2.096179, 11.44906, 15.53616, 1.976807, 1028.981
115, RaunerFirst, 0, RaunerFirst, 270, 90, 2, closed, closed, -1.323151, 6.718705, 341.5178, 1.002808, 1031.279
116, RollinsChapel3, 177, RollinsChapel3, 87, -90, 1, open, open, 0.3116689, 8.65322, 16.99963, 0.696167, 1033.075
117, Hop2, -1, Hop2, 89, 90, 1, open, open, -1.530243, 6.783807, 162.3503, 0.8907471, 1035.33
118, RaunerFirst, 0, RaunerFirst, -90, -90, 1, closed, closed, 0.9569641, 10.47339, -158.7043, 0.751709, 1037.391
119, neutral, 0, Hop2, -91, -90, 0, closed, closed, 0.8782794, 10.8487, -161.7355, 0.9331055, 1039.618
120, PineEntrance, 0, PineEntrance, 90, 90, 1, closed, closed, -1.866547, 7.052621, 163.9878, 0.6679688, 1041.442
121, BakerBerryCharter, -90, BakerBerryCharter, 0, 90, 1, closed, closed, 3.01419, 5.685166, 65.71601, 1.308594, 1044.059
122, McLaughlinCluster, 172, McLaughlinCluster, 262, 90, 1, open, closed, 0.1196798, 10.86182, 339.6767, 1.211304, 1046.719
123, neutral, 0, Umplebys, 40, 90, 0, closed, closed, 0.1344368, 10.84096, 123.2198, 0.8212891, 1048.654
124, BakerBerryHistoric2, 180, BakerBerryHistoric2, 90, -90, 1, closed, closed, 0.06524383, 9.698483, 25.36252, 0.6962891, 1050.756
125, 53Commons, 0, 53Commons, 270, 90, 2, closed, closed, -1.902771, 7.425012, 341.8997, 0.7521973, 1052.719
126, Hop4, -3, Hop4, 267, 90, 2, open, open, -0.8697815, 9.302458, 342.3687, 1.545654, 1055.42
127, PineBackHall, 180, PineBackHall, 270, 90, 1, closed, closed, -1.041351, 8.874884, 347.5213, 0.7929688, 1057.578
128, neutral, 0, RaunerBackHall, 90, 90, 0, open, open, 0.6816157, 8.222789, 163.5299, 0.9191895, 1059.792
129, neutral, 0, BakerBerry2nd, 184, 90, 0, open, open, 0.2559602, 6.742847, 260.6416, 0.7939453, 1063.119
130, Fairbanks, 0, Fairbanks, 90, 90, 1, closed, closed, 0.08571374, 6.448703, 166.9771, 1.086182, 1066.196
131, Maynard, 0, Maynard, -90, -90, 1, open, open, 0.1297496, 7.755953, -154.1329, 0.710083, 1068.563
132, RollinsChapel3, 177, RollinsChapel3, 87, -90, 1, open, open, -2.177734, 6.908965, 18.3685, 0.5708008, 1073.254
133, Hop4, -3, Hop4, -93, -90, 1, open, open, -0.6242065, 7.494687, -160.7712, 0.5986328, 1076.888
134, neutral, 0, AllenSt, -90, -90, 0, open, open, -0.3352356, 8.221922, -153.9597, 0.9608154, 1079.408
135, Maynard, 0, Maynard, 270, 90, 2, open, open, 0.5608866, 6.734749, 340.2068, 0.9467773, 1081.942
136, BakerBerry2nd, 94, BakerBerry2nd, 4, 90, 2, closed, closed, -0.0144043, 6.252898, 74.02981, 0.8911133, 1086.174
137, BakerBerryCharter, -90, BakerBerryCharter, 0, 90, 1, closed, closed, -0.1039124, 7.760265, 71.58893, 0.7799072, 1088.332
138, Fairbanks, 0, Fairbanks, 90, 90, 1, closed, closed, -1.325073, 5.758863, 164.3904, 1.308594, 1091.033
139, Zimmerman, -100, Zimmerman, -10, 90, 1, open, open, -0.5608521, 5.025328, 68.77814, 0.8911133, 1093.191
140, neutral, 0, Maynard, 90, 90, 0, closed, closed, 0.3631317, 4.939614, 160.0106, 0.8909912, 1095.739
141, neutral, 0, BakerBerryCharter, -180, -90, 0, open, open, -0.2987671, 14.03423, -249.7677, 1.447998, 1098.37
142, neutral, 0, McLaughlinCluster, 82, -90, 0, closed, closed, -1.513, 6.791605, 18.87433, 1.127441, 1101.516
143, neutral, 0, Hop4, 87, 90, 0, closed, closed, -0.8037109, 7.090328, 153.8782, 0.8909912, 1103.577
144, PineEntrance, 0, PineEntrance, 90, 90, 1, closed, closed, -0.7047424, 8.38533, 161.4704, 0.7657471, 1105.554
