trialIdx, primeName, primeAngleYaw, targetName, targetAngleYaw, targetSide, sameScenePrime, correctResponse, response, roll, pitch, yaw, rt, timestamp
1, neutral, 0, RaunerFirst, -90, -90, 0, closed, closed, -11.09494, 8.049791, -168.0269, 1.805603, 558.0731
2, Zimmerman, -100, Zimmerman, 170, 90, 2, closed, open, -1.557281, 1.167016, 145.9962, 0.4445801, 562.2259
3, neutral, 0, Hop4, -93, -90, 0, open, open, -9.082733, 6.398858, -170.4755, 1.930481, 567.0733
4, BakerBerryHistoric2, 180, BakerBerryHistoric2, 270, 90, 1, open, closed, 0.4624916, 3.987029, 293.6825, 0.6946411, 569.9764
5, BakerBerryCharter, -90, BakerBerryCharter, -180, -90, 1, open, open, -11.63916, 8.750005, -261.8483, 2.611145, 575.7125
6, PineBackHall, 180, PineBackHall, 90, 90, 2, open, closed, 13.73073, 15.3812, 179.7915, 3.458374, 580.7264
7, BakerBerry2nd, 94, BakerBerry2nd, 184, 90, 1, open, open, 9.248503, 7.62895, 265.0067, 2.972534, 585.3239
8, RaunerBackHall, 0, RaunerBackHall, 90, 90, 1, open, open, 13.09929, 9.40596, 176.3546, 1.791748, 589.2126
9, Hop2, -1, Hop2, 269, 90, 2, closed, closed, 12.75776, 11.10738, 355.8044, 1.638794, 592.2681
10, BakerBerryHistoric2, 180, BakerBerryHistoric2, 270, -90, 2, open, closed, -11.25845, 13.49289, 194.574, 2.014038, 596.0043
11, neutral, 0, McLaughlinCluster, 262, 90, 0, open, open, 16.55476, 10.44174, 339.7396, 1.597351, 599.5322
12, Zimmerman, -100, Zimmerman, -190, -90, 1, closed, open, -9.512054, 5.031494, -260.3241, 2.611206, 603.5046
13, Hop2, -1, Hop2, -91, -90, 1, closed, closed, -4.743896, 7.600197, -155.7234, 1.666931, 606.8518
14, Hop4, -3, Hop4, 87, 90, 1, closed, closed, 13.55855, 9.783276, 172.9245, 1.485962, 609.5461
15, neutral, 0, AllenSt, 90, 90, 0, closed, open, 3.239293, 9.102699, 161.2899, 1.84729, 612.6158
16, 53Commons, 0, 53Commons, 90, -90, 2, open, open, -8.157196, 8.670104, 16.49884, 1.666931, 615.7548
17, BakerBerryHistoric2, 180, BakerBerryHistoric2, 270, 90, 1, open, open, 12.41168, 18.60855, 356.6709, 2.138672, 619.1991
18, Zimmerman, -100, Zimmerman, -190, -90, 1, closed, open, -6.576782, 7.157657, -259.0031, 1.736328, 622.1715
19, Fairbanks, 0, Fairbanks, 270, 90, 2, open, open, 8.033135, 8.348342, 342.0072, 1.43042, 625.2546
20, Maynard, 0, Maynard, 90, 90, 1, closed, closed, 8.274743, 10.97438, 167.7064, 1.472046, 628.0741
21, RaunerFirst, 0, RaunerFirst, 90, -90, 2, open, open, -6.332062, 9.292495, 20.89825, 2.069702, 631.8939
22, RollinsChapel3, 177, RollinsChapel3, 267, -90, 2, closed, open, -0.1323242, -0.7835388, 206.417, 2.458313, 635.6299
23, PineEntrance, 0, PineEntrance, 270, 90, 2, open, open, 8.353538, 8.401939, 343.4134, 1.958618, 639.5605
24, neutral, 0, Fairbanks, 90, 90, 0, closed, open, 0.1955792, 7.094671, 158.8253, 1.180603, 641.9079
25, neutral, 0, Umplebys, -140, -90, 0, open, open, -4.860657, 6.56184, -210.5513, 1.09729, 644.2829
26, neutral, 0, BakerBerryHistoric2, 90, -90, 0, closed, closed, -4.860504, 11.36121, 16.88809, 1.027771, 646.519
27, neutral, 0, PineEntrance, 90, 90, 0, closed, closed, 3.218445, 7.90056, 163.8263, 1.583374, 649.4633
28, neutral, 0, Zimmerman, -10, 90, 0, open, open, 2.674692, 6.688158, 68.0209, 1.554932, 652.3249
29, neutral, 0, MooreLot, 270, 90, 0, open, open, 2.482805, 9.221799, 343.9297, 2.777893, 656.7415
30, Maynard, 0, Maynard, 90, -90, 2, closed, closed, -6.251984, 7.264167, 16.80945, 1.319397, 659.2135
31, PineBackHall, 180, PineBackHall, 90, -90, 1, open, open, -2.443848, 12.96299, 16.22385, 1.944763, 662.3665
32, Umplebys, -50, Umplebys, 40, 90, 1, closed, closed, 5.435293, 10.75854, 114.8926, 1.222473, 665.3805
33, Hop4, -3, Hop4, 87, -90, 2, closed, closed, -5.275757, 14.44679, 12.16656, 1.291565, 668.1024
34, neutral, 0, PineBackHall, 270, 90, 0, closed, closed, 1.514817, 9.86109, 341.0372, 0.9306641, 670.5471
35, neutral, 0, Hop2, 89, 90, 0, open, closed, -2.314362, 7.695515, 117.6809, 2.429932, 682.4359
36, Fairbanks, 0, Fairbanks, -90, -90, 1, open, open, -1.495361, 3.899129, -146.4573, 1.111206, 687.6445
37, neutral, 0, RollinsChapel3, 87, -90, 0, open, closed, -3.3703, 2.541136, 33.03397, 1.763977, 690.7142
38, neutral, 0, BakerBerryCharter, 0, 90, 0, closed, closed, 8.883356, 18.11976, 80.93747, 1.791748, 698.1862
39, PineEntrance, 0, PineEntrance, -90, -90, 1, open, open, 9.147591, 1.304441, -160.0376, 1.610962, 701.6168
40, AllenSt, 0, AllenSt, -90, -90, 1, open, open, 4.610824, 1.437128, -153.363, 1.361206, 704.2141
41, 53Commons, 0, 53Commons, 90, 90, 1, open, open, 6.829713, 9.315677, 165.1804, 1.902954, 707.3117
42, MooreLot, 180, MooreLot, 90, 90, 2, closed, closed, 1.003269, 2.18883, 160.4555, 1.333435, 709.881
43, AllenSt, 0, AllenSt, -90, -90, 1, open, open, 7.965733, 0.07456712, -153.3443, 0.9860229, 712.6865
44, neutral, 0, 53Commons, -90, -90, 0, closed, open, 3.898276, 2.621453, -154.3657, 1.73645, 716.7979
45, MooreLot, 180, MooreLot, 90, -90, 1, closed, closed, 3.224796, 8.270391, 21.20093, 2.013733, 720.1034
46, RollinsChapel3, 177, RollinsChapel3, 267, 90, 1, closed, open, 14.89124, 24.87599, 342.6692, 5.735779, 727.0202
47, neutral, 0, Maynard, -90, -90, 0, open, open, -0.4887085, 5.035933, -155.8287, 1.541992, 731.4786
48, 53Commons, 0, 53Commons, 90, 90, 1, open, open, 4.713389, 2.134099, 164.4895, 1.402893, 734.076
49, Fairbanks, 0, Fairbanks, -90, -90, 1, open, open, 3.126519, 5.187219, -146.6804, 2.124878, 737.5063
50, AllenSt, 0, AllenSt, 270, 90, 2, open, open, 3.878073, 9.104018, 334.1015, 1.639099, 740.4786
51, McLaughlinCluster, 172, McLaughlinCluster, 82, 90, 2, closed, closed, 4.808872, 4.793234, 142.9448, 1.833313, 743.562
52, RaunerBackHall, 0, RaunerBackHall, 90, 90, 1, open, open, -0.5906677, 4.022912, 151.8671, 2.041687, 747.2288
53, BakerBerry2nd, 94, BakerBerry2nd, 184, -90, 2, open, open, -6.208771, 11.73083, 111.8564, 2.332581, 750.826
54, BakerBerryCharter, -90, BakerBerryCharter, 180, 90, 2, open, open, 1.638505, 7.489704, 247.1868, 1.59729, 753.6038
55, Umplebys, -50, Umplebys, 40, 90, 1, closed, open, -0.9278564, 3.626277, 99.00935, 1.888977, 756.7705
56, Maynard, 0, Maynard, 90, 90, 1, closed, open, -3.439148, 3.569336, 150.0901, 0.9865723, 759.1875
57, RaunerBackHall, 0, RaunerBackHall, 90, -90, 2, open, closed, -2.740723, 9.2006, 22.6994, 1.361145, 762.4929
58, PineBackHall, 180, PineBackHall, 90, -90, 1, open, open, -8.811615, 20.05867, 13.31409, 2.055603, 766.0486
59, McLaughlinCluster, 172, McLaughlinCluster, 82, -90, 1, closed, closed, -4.043549, 9.677846, 16.7019, 1.862854, 769.6473
60, RaunerFirst, 0, RaunerFirst, 90, 90, 1, open, open, -0.6628113, 8.626666, 149.6156, 1.291687, 772.2014
61, neutral, 0, BakerBerry2nd, 4, -90, 0, closed, closed, -1.257629, 10.95027, -54.93475, 1.736328, 775.4098
62, MooreLot, 180, MooreLot, 90, -90, 1, closed, closed, 1.421182, 4.890131, 43.6727, 1.819458, 778.4656
63, Hop4, -3, Hop4, 87, 90, 1, closed, closed, 0.3953055, 7.503567, 146.0596, 1.291748, 781.3682
64, McLaughlinCluster, 172, McLaughlinCluster, 82, -90, 1, closed, closed, -4.070587, 7.939497, 22.49313, 1.444458, 784.2432
65, Umplebys, -50, Umplebys, 40, -90, 2, closed, closed, 1.06524, 11.26984, -6.112732, 1.124878, 786.7432
66, RaunerFirst, 0, RaunerFirst, 90, 90, 1, open, open, -2.981842, 7.593913, 150.4093, 1.374939, 789.4237
67, PineEntrance, 0, PineEntrance, -90, -90, 1, open, open, -1.725403, 15.10192, -154.1682, 1.958313, 792.6599
68, neutral, 0, RaunerBackHall, -90, -90, 0, closed, closed, -2.55014, 19.43133, -158.4688, 1.527832, 795.4518
69, BakerBerry2nd, 94, BakerBerry2nd, 184, 90, 1, open, open, 0.2507777, 9.90145, 246.1783, 0.986084, 797.7988
70, BakerBerryCharter, -90, BakerBerryCharter, -180, -90, 1, open, open, 2.387614, 16.01855, -241.7163, 2.11145, 801.1879
71, RollinsChapel3, 177, RollinsChapel3, 267, 90, 1, closed, closed, 9.881495, 2.971982, 316.0793, 3.166992, 820.4243
72, Hop2, -1, Hop2, -91, -90, 1, closed, closed, -0.1694641, 6.933576, -155.0582, 1.472412, 825.4659
73, neutral, 0, BakerBerryHistoric2, 270, 90, 0, open, open, 14.55233, 10.21436, 344.8147, 1.403137, 828.0635
74, RaunerBackHall, 0, RaunerBackHall, 270, 90, 2, closed, closed, 4.115886, 8.279849, 334.4492, 1.638855, 830.5773
75, BakerBerryHistoric2, 180, BakerBerryHistoric2, 90, 90, 2, closed, closed, 6.66444, 12.81783, 155.6292, 1.652954, 833.4524
76, neutral, 0, Zimmerman, -190, -90, 0, closed, open, -8.960388, 9.314462, -254.4937, 1.555786, 836.2441
77, AllenSt, 0, AllenSt, 90, 90, 1, closed, closed, 17.11189, -8.330475, 158.88, 1.236084, 839.7301
78, PineEntrance, 0, PineEntrance, 90, -90, 2, closed, closed, 1.872724, 8.885178, 66.686, 1.596924, 842.7716
79, Hop4, -3, Hop4, -93, -90, 1, open, open, -0.4885559, 17.45547, -131.5403, 2.250427, 846.9526
80, RollinsChapel3, 177, RollinsChapel3, 87, 90, 2, open, open, 0.8851732, -0.151947, 163.8255, 2.986328, 851.661
81, Hop2, -1, Hop2, 89, 90, 1, open, open, 7.033313, -0.7762756, 150.8211, 1.722229, 854.4942
82, MooreLot, 180, MooreLot, 270, 90, 1, open, closed, 16.17342, -2.430786, 354.0727, 2.735962, 859.4249
83, 53Commons, 0, 53Commons, -90, -90, 1, closed, closed, -9.887512, 13.11513, -139.9457, 1.66687, 862.2584
84, neutral, 0, MooreLot, 90, -90, 0, closed, closed, -7.485718, 17.89173, 46.80679, 1.34729, 865.0498
85, BakerBerry2nd, 94, BakerBerry2nd, 4, -90, 1, closed, closed, -10.18958, 22.76987, -48.5755, 1.305481, 868.1747
86, Hop2, -1, Hop2, 89, -90, 2, open, open, -18.00131, 17.54693, 24.7926, 1.930664, 871.2861
87, McLaughlinCluster, 172, McLaughlinCluster, 262, -90, 2, open, closed, -17.74518, 24.31059, 195.7168, 2.055603, 874.6335
88, AllenSt, 0, AllenSt, 90, -90, 2, closed, closed, -4.910614, 20.60729, 37.94199, 1.388794, 877.425
89, neutral, 0, Fairbanks, -90, -90, 0, open, open, -13.32202, 21.98446, -150.0541, 1.139099, 879.9669
90, neutral, 0, PineEntrance, -90, -90, 0, open, open, -11.38696, 21.47628, -146.6398, 1.305908, 882.5781
91, Umplebys, -50, Umplebys, -140, -90, 1, open, open, -9.606689, 20.02131, -186.205, 1.472046, 885.3834
92, BakerBerry2nd, 94, BakerBerry2nd, 4, -90, 1, closed, closed, -11.58481, 20.46705, -45.06885, 2.097046, 888.8555
93, neutral, 0, RaunerFirst, 90, 90, 0, open, closed, 7.654079, 8.204623, 152.925, 1.819519, 891.9115
94, Maynard, 0, Maynard, -90, -90, 1, open, open, -12.716, 19.21968, -145.3492, 1.277649, 894.4529
95, Umplebys, -50, Umplebys, -140, -90, 1, open, open, -7.572968, 19.77968, -179.136, 1.625, 897.7449
96, RaunerBackHall, 0, RaunerBackHall, -90, -90, 1, closed, closed, -22.62885, 24.64815, -150.4903, 1.430176, 900.5085
97, BakerBerryHistoric2, 180, BakerBerryHistoric2, 90, -90, 1, closed, closed, -15.27026, 24.28072, 41.78122, 0.916748, 902.759
98, McLaughlinCluster, 172, McLaughlinCluster, 262, 90, 1, open, open, 11.72046, 12.25089, 333.1798, 4.264099, 908.2868
99, neutral, 0, PineBackHall, 90, -90, 0, open, closed, -16.03409, 23.03679, 28.86777, 1.708313, 911.3144
100, neutral, 0, RollinsChapel3, 267, 90, 0, closed, open, 16.69486, 13.82748, 343.2263, 1.903076, 914.7729
101, Umplebys, -50, Umplebys, 220, 90, 2, open, open, 12.28305, 7.96235, 293.2407, 1.555725, 917.6758
102, neutral, 0, 53Commons, 90, 90, 0, open, open, 15.58636, 4.15375, 160.0591, 1.889221, 920.7592
103, PineBackHall, 180, PineBackHall, 270, 90, 1, closed, closed, 14.76982, 9.095255, 344.2087, 1.263977, 923.2174
104, MooreLot, 180, MooreLot, 270, -90, 2, open, open, -13.4313, 20.0948, 212.5753, 1.750305, 926.3148
105, BakerBerryCharter, -90, BakerBerryCharter, 0, -90, 2, closed, closed, -13.38586, 17.94677, -56.72125, 1.75061, 929.7179
106, RaunerBackHall, 0, RaunerBackHall, -90, -90, 1, closed, open, -14.43384, 20.93856, -153.2259, 1.069336, 932.2729
107, Zimmerman, -100, Zimmerman, 350, -90, 2, open, closed, 11.91679, -2.083313, 316.9471, 2.13916, 946.8152
108, MooreLot, 180, MooreLot, 270, 90, 1, open, closed, -4.927979, -1.253815, 319.8372, 1.846985, 950.5231
109, 53Commons, 0, 53Commons, -90, -90, 1, closed, closed, 2.719903, 3.002186, -123.6895, 1.333557, 953.1207
110, RaunerFirst, 0, RaunerFirst, -90, -90, 1, closed, closed, 5.472665, 3.306545, -129.2795, 1.180908, 955.454
111, Zimmerman, -100, Zimmerman, -10, 90, 1, open, open, -3.604919, 1.552294, 39.66441, 1.639038, 958.343
112, AllenSt, 0, AllenSt, 90, 90, 1, closed, closed, -0.8686829, -1.116272, 139.9344, 1.41687, 961.3568
113, PineBackHall, 180, PineBackHall, 270, -90, 2, closed, closed, 4.694062, 6.426764, 234.2802, 0.9446411, 963.6904
114, Fairbanks, 0, Fairbanks, 90, -90, 2, closed, open, 10.61327, 2.943786, 52.59198, 2.555664, 967.5376
115, RaunerFirst, 0, RaunerFirst, 270, 90, 2, closed, closed, -3.965363, -3.509796, 325.0566, 1.306091, 970.8296
116, RollinsChapel3, 177, RollinsChapel3, 87, -90, 1, open, open, 2.935354, 3.234851, 49.98749, 1.305664, 973.3293
117, Hop2, -1, Hop2, 89, 90, 1, open, open, -0.07196045, -6.909424, 147.1891, 1.208374, 975.8016
118, RaunerFirst, 0, RaunerFirst, -90, -90, 1, closed, closed, 4.600904, 4.027003, -128.1221, 1.819458, 978.8849
119, neutral, 0, Hop2, -91, -90, 0, closed, closed, 4.89644, 4.507276, -123.9529, 1.042297, 981.2606
120, PineEntrance, 0, PineEntrance, 90, 90, 1, closed, closed, 0.3392685, -2.145355, 143.1348, 1.028076, 983.4961
121, BakerBerryCharter, -90, BakerBerryCharter, 0, 90, 1, closed, closed, 1.186387, 1.881801, 47.525, 1.125244, 985.7878
122, McLaughlinCluster, 172, McLaughlinCluster, 262, 90, 1, open, open, -2.642517, 4.541841, 310.5389, 1.305908, 988.2185
123, neutral, 0, Umplebys, 40, 90, 0, closed, closed, 1.687929, 5.057225, 77.49869, 1.472534, 991.1492
124, BakerBerryHistoric2, 180, BakerBerryHistoric2, 90, -90, 1, closed, closed, 7.161506, 8.624847, 60.86212, 1.166626, 993.6906
125, 53Commons, 0, 53Commons, 270, 90, 2, closed, closed, -1.601044, 1.799044, 315.5119, 1.180603, 996.2047
126, Hop4, -3, Hop4, 267, 90, 2, open, closed, -3.844818, 6.748394, 320.3936, 1.652893, 998.9963
127, PineBackHall, 180, PineBackHall, 270, 90, 1, closed, closed, -5.416321, 7.006562, 329.1733, 1.111145, 1001.427
128, neutral, 0, RaunerBackHall, 90, 90, 0, open, open, -3.734772, 0.7800751, 151.7485, 1.875122, 1004.691
129, neutral, 0, BakerBerry2nd, 184, 90, 0, open, open, -3.859314, 2.874776, 242.3834, 1.69458, 1007.705
130, Fairbanks, 0, Fairbanks, 90, 90, 1, closed, open, -1.829041, 3.088575, 140.127, 1.236206, 1010.094
131, Maynard, 0, Maynard, -90, -90, 1, open, open, 9.567085, 3.232729, -132.272, 1.916504, 1013.219
132, RollinsChapel3, 177, RollinsChapel3, 87, -90, 1, open, open, -2.655945, 4.659244, 53.37024, 1.042725, 1015.553
133, Hop4, -3, Hop4, -93, -90, 1, open, open, 1.173694, 2.972409, -130.3596, 1.055603, 1018.024
134, neutral, 0, AllenSt, -90, -90, 0, open, open, 4.006191, 6.401737, -124.0805, 4.208557, 1023.525
135, Maynard, 0, Maynard, 270, 90, 2, open, open, -0.7068787, 3.897882, 316.4421, 1.847412, 1040.705
136, BakerBerry2nd, 94, BakerBerry2nd, 4, 90, 2, closed, closed, -5.062988, 3.295731, 60.55955, 1.541382, 1043.552
137, BakerBerryCharter, -90, BakerBerryCharter, 0, 90, 1, closed, closed, -4.008881, 3.42962, 58.05717, 0.9880371, 1045.804
138, Fairbanks, 0, Fairbanks, 90, 90, 1, closed, closed, -3.838837, 1.282597, 142.3475, 1.5979, 1048.636
139, Zimmerman, -100, Zimmerman, -10, 90, 1, open, closed, -2.660065, 0.6623122, 39.78281, 1.611084, 1051.691
140, neutral, 0, Maynard, 90, 90, 0, closed, closed, -3.096893, 1.581316, 141.0937, 1.389038, 1054.372
141, neutral, 0, BakerBerryCharter, -180, -90, 0, open, open, 6.20615, 6.913682, -221.4822, 1.472534, 1057.136
142, neutral, 0, McLaughlinCluster, 82, -90, 0, closed, closed, 5.740726, 1.910803, 45.54297, 2.194458, 1060.608
143, neutral, 0, Hop4, 87, 90, 0, closed, closed, -7.276428, 8.795742, 131.8374, 3.26416, 1065.289
144, PineEntrance, 0, PineEntrance, 90, 90, 1, closed, closed, -6.977539, 4.701686, 141.2066, 1.458496, 1068.664
