trialIdx, primeName, primeAngleYaw, targetName, targetAngleYaw, targetSide, sameScenePrime, correctResponse, response, roll, pitch, yaw, rt, timestamp
1, neutral, 0, RaunerFirst, -90, -90, 0, closed, closed, -1.348114, 0.2368442, -177.1249, 1.057861, 554.0761
2, Zimmerman, -100, Zimmerman, 170, 90, 2, closed, open, -5.448914, 2.523178, 236.2453, 1.225159, 559.4642
3, neutral, 0, Hop4, -93, -90, 0, open, open, 2.888192, -1.220367, -174.7574, 0.8632813, 562.8334
4, BakerBerryHistoric2, 180, BakerBerryHistoric2, 270, 90, 1, open, open, -5.189301, 5.776146, 335.6385, 0.8914795, 565.5901
5, BakerBerryCharter, -90, BakerBerryCharter, -180, -90, 1, open, open, 2.87733, -0.02392578, -262.8763, 0.9186401, 568.0399
6, PineBackHall, 180, PineBackHall, 90, 90, 2, open, closed, -6.596466, 8.560894, 157.7214, 1.183228, 570.9358
7, BakerBerry2nd, 94, BakerBerry2nd, 184, 90, 1, open, open, -4.798035, 5.917903, 249.2224, 0.8632813, 573.5394
8, RaunerBackHall, 0, RaunerBackHall, 90, 90, 1, open, open, -2.156799, 5.443184, 155.1153, 0.8492432, 575.9064
9, Hop2, -1, Hop2, 269, 90, 2, closed, closed, -5.523438, 4.40868, 334.213, 1.016296, 578.468
10, BakerBerryHistoric2, 180, BakerBerryHistoric2, 270, -90, 2, open, open, 4.398401, 4.906998, 196.05, 1.22583, 581.5316
11, neutral, 0, McLaughlinCluster, 262, 90, 0, open, open, -3.002563, 4.399331, 326.5233, 1.225342, 583.9257
12, Zimmerman, -100, Zimmerman, -190, -90, 1, closed, open, 7.743036, 0.5544117, -274.2802, 1.002563, 586.1948
13, Hop2, -1, Hop2, -91, -90, 1, closed, closed, 3.029022, -0.9385986, -173.5862, 0.8632202, 588.84
14, Hop4, -3, Hop4, 87, 90, 1, closed, closed, -4.933044, 1.206566, 149.184, 0.8074341, 591.4156
15, neutral, 0, AllenSt, 90, 90, 0, closed, closed, -5.031952, 1.84674, 150.5338, 1.127808, 594.0053
16, 53Commons, 0, 53Commons, 90, -90, 2, open, open, 3.495869, -0.6986694, 8.085388, 0.9466553, 596.5251
17, BakerBerryHistoric2, 180, BakerBerryHistoric2, 270, 90, 1, open, open, -6.020264, 9.147144, 336.9485, 0.821106, 598.6413
18, Zimmerman, -100, Zimmerman, -190, -90, 1, closed, open, 4.297702, -2.033417, -271.7399, 0.9332275, 600.9108
19, Fairbanks, 0, Fairbanks, 270, 90, 2, open, open, -4.073364, 3.379375, 333.4687, 1.239075, 603.4306
20, Maynard, 0, Maynard, 90, 90, 1, closed, open, -5.287231, 2.952036, 150.9389, 1.141785, 605.7697
21, RaunerFirst, 0, RaunerFirst, 90, -90, 2, open, open, 2.105895, -0.9309692, 12.45422, 1.058472, 608.067
22, RollinsChapel3, 177, RollinsChapel3, 267, -90, 2, closed, closed, 3.843368, -2.774597, 199.212, 1.267029, 610.4755
23, PineEntrance, 0, PineEntrance, 270, 90, 2, open, open, -3.347504, 4.109722, 329.8143, 0.9886475, 612.8563
24, neutral, 0, Fairbanks, 90, 90, 0, closed, closed, -5.545685, 2.502911, 151.6335, 1.072021, 615.0834
25, neutral, 0, Umplebys, -140, -90, 0, open, open, 1.641061, -0.4729309, -212.7334, 0.9606323, 617.1581
26, neutral, 0, BakerBerryHistoric2, 90, -90, 0, closed, closed, 2.155574, 0.1682681, 11.90421, 0.8635254, 619.5389
27, neutral, 0, PineEntrance, 90, 90, 0, closed, closed, -4.414185, 2.165814, 151.0163, 1.00238, 621.9894
28, neutral, 0, Zimmerman, -10, 90, 0, open, open, -4.985626, 0.5739889, 54.1425, 0.9188843, 624.1053
29, neutral, 0, MooreLot, 270, 90, 0, open, open, -4.593018, 1.104638, 331.8465, 0.9190674, 626.4305
30, Maynard, 0, Maynard, 90, -90, 2, closed, closed, 0.4385869, -1.753235, 14.58377, 0.9605713, 628.6716
31, PineBackHall, 180, PineBackHall, 90, -90, 1, open, closed, -1.248474, -0.9958496, 17.05478, 1.155762, 631.1639
32, Umplebys, -50, Umplebys, 40, 90, 1, closed, closed, -0.3900146, 0.9297469, 99.11828, 0.7102661, 633.0852
33, Hop4, -3, Hop4, 87, -90, 2, closed, closed, 1.918948, 1.526957, 12.29333, 1.058044, 635.4657
34, neutral, 0, PineBackHall, 270, 90, 0, closed, closed, -3.263153, 1.834731, 331.5187, 0.9047852, 638.0135
35, neutral, 0, Hop2, 89, 90, 0, open, open, -6.90155, -3.277435, 152.8857, 1.016541, 647.105
36, Fairbanks, 0, Fairbanks, -90, -90, 1, open, open, -0.7909241, -2.408783, -165.4649, 0.8909912, 652.5068
37, neutral, 0, RollinsChapel3, 87, -90, 0, open, open, -1.602203, -2.296783, 11.01184, 1.072266, 654.8876
38, neutral, 0, BakerBerryCharter, 0, 90, 0, closed, closed, -0.6793213, 1.491543, 58.58357, 0.8212891, 657.0175
39, PineEntrance, 0, PineEntrance, -90, -90, 1, open, open, 0.7960492, -2.506378, -166.1169, 0.8353271, 659.0502
40, AllenSt, 0, AllenSt, -90, -90, 1, open, open, -1.641907, -2.814667, -170.2798, 0.7099609, 660.8879
41, 53Commons, 0, 53Commons, 90, 90, 1, open, open, -4.391083, 0.5633076, 147.1521, 1.100037, 663.1017
42, MooreLot, 180, MooreLot, 90, 90, 2, closed, closed, -4.517975, 0.7063292, 150.2498, 1.002686, 665.1902
43, AllenSt, 0, AllenSt, -90, -90, 1, open, open, -0.7724915, -1.457184, -165.5912, 0.737915, 667.0139
44, neutral, 0, 53Commons, -90, -90, 0, closed, closed, -0.5623779, -1.320831, -168.361, 0.9053345, 668.9908
45, MooreLot, 180, MooreLot, 90, -90, 1, closed, closed, -4.472107, -3.840759, 16.64612, 0.7515869, 670.8143
46, RollinsChapel3, 177, RollinsChapel3, 267, 90, 1, closed, closed, -2.050262, 6.385146, 325.3661, 0.8353882, 672.736
47, neutral, 0, Maynard, -90, -90, 0, open, open, -0.05438232, -2.635315, -168.8794, 1.044495, 674.8381
48, 53Commons, 0, 53Commons, 90, 90, 1, open, open, -5.381897, 0.9889641, 146.0696, 0.9747314, 676.9407
49, Fairbanks, 0, Fairbanks, -90, -90, 1, open, open, -0.01034546, -3.893524, -165.3894, 0.8216553, 679.001
50, AllenSt, 0, AllenSt, 270, 90, 2, open, open, -7.721497, 1.111233, 330.0406, 1.03009, 681.1727
51, McLaughlinCluster, 172, McLaughlinCluster, 82, 90, 2, closed, closed, -7.045227, 0.2106873, 139.8037, 1.072388, 683.4842
52, RaunerBackHall, 0, RaunerBackHall, 90, 90, 1, open, open, -3.918671, 0.1922638, 147.6416, 0.9329834, 685.4889
53, BakerBerry2nd, 94, BakerBerry2nd, 184, -90, 2, open, open, 1.297462, -1.627716, 106.0504, 1.072266, 687.7443
54, BakerBerryCharter, -90, BakerBerryCharter, 180, 90, 2, open, open, -2.816711, 2.057974, 233.981, 0.9887085, 690.0413
55, Umplebys, -50, Umplebys, 40, 90, 1, closed, closed, -2.634094, 2.419815, 93.03774, 0.8491821, 692.1853
56, Maynard, 0, Maynard, 90, 90, 1, closed, open, -1.512268, 1.022576, 143.7839, 0.7237549, 694.0786
57, RaunerBackHall, 0, RaunerBackHall, 90, -90, 2, open, open, -4.903259, -1.556549, 20.76062, 0.793396, 695.9999
58, PineBackHall, 180, PineBackHall, 90, -90, 1, open, closed, -1.748108, -1.273926, 18.54068, 0.9610596, 698.0886
59, McLaughlinCluster, 172, McLaughlinCluster, 82, -90, 1, closed, closed, -2.769135, -2.592224, 13.16003, 0.8349609, 700.2044
60, RaunerFirst, 0, RaunerFirst, 90, 90, 1, open, open, -2.858765, 2.701633, 147.2212, 0.8352051, 702.2093
61, neutral, 0, BakerBerry2nd, 4, -90, 0, closed, closed, -2.083649, -2.334747, -69.65781, 0.9187012, 704.2559
62, MooreLot, 180, MooreLot, 90, -90, 1, closed, closed, -2.315643, -3.033447, 19.17059, 0.7799072, 706.1633
63, Hop4, -3, Hop4, 87, 90, 1, closed, closed, -3.018616, -0.433136, 140.7352, 0.7380371, 708.015
64, McLaughlinCluster, 172, McLaughlinCluster, 82, -90, 1, closed, closed, -3.707672, -4.463074, 12.1059, 0.7379761, 709.8806
65, Umplebys, -50, Umplebys, 40, -90, 2, closed, closed, -3.66217, -4.110016, -26.9743, 1.12793, 712.1221
66, RaunerFirst, 0, RaunerFirst, 90, 90, 1, open, open, -5.748169, 1.331389, 144.7528, 0.7518311, 713.9738
67, PineEntrance, 0, PineEntrance, -90, -90, 1, open, open, -2.162811, -3.202057, -164.3955, 0.737793, 715.9091
68, neutral, 0, RaunerBackHall, -90, -90, 0, closed, closed, -0.2784424, -1.773407, -163.4602, 0.8215942, 717.886
69, BakerBerry2nd, 94, BakerBerry2nd, 184, 90, 1, open, open, -5.450195, 0.5559003, 239.3497, 0.8075562, 719.8489
70, BakerBerryCharter, -90, BakerBerryCharter, -180, -90, 1, open, open, -1.113495, -1.069702, -251.7483, 0.807373, 721.8538
71, RollinsChapel3, 177, RollinsChapel3, 267, 90, 1, closed, closed, -3.216888, 0.6559553, 330.6682, 0.8634644, 735.6369
72, Hop2, -1, Hop2, -91, -90, 1, closed, closed, 2.306641, -4.494507, -157.8144, 0.7235718, 737.6277
73, neutral, 0, BakerBerryHistoric2, 270, 90, 0, open, open, -5.410004, -2.056152, 334.9851, 0.9188232, 739.9805
74, RaunerBackHall, 0, RaunerBackHall, 270, 90, 2, closed, open, -4.199005, -1.072571, 330.5047, 0.7657471, 742.1246
75, BakerBerryHistoric2, 180, BakerBerryHistoric2, 90, 90, 2, closed, closed, -3.910126, 1.569221, 149.1625, 0.8633423, 745.4523
76, neutral, 0, Zimmerman, -190, -90, 0, closed, closed, -0.686676, -3.070435, -254.2562, 0.9327393, 747.5262
77, AllenSt, 0, AllenSt, 90, 90, 1, closed, closed, -3.28894, 0.5651227, 148.3298, 0.8492432, 751.2577
78, PineEntrance, 0, PineEntrance, 90, -90, 2, closed, closed, 1.038246, -1.240143, 21.60593, 0.9607544, 753.4434
79, Hop4, -3, Hop4, -93, -90, 1, open, open, -1.452606, -1.855621, -158.7021, 0.8632202, 755.5317
80, RollinsChapel3, 177, RollinsChapel3, 87, 90, 2, open, open, -5.886719, -1.551056, 143.8391, 1.169189, 757.8705
81, Hop2, -1, Hop2, 89, 90, 1, open, open, -2.186188, -0.4873657, 144.7049, 0.9744873, 759.987
82, MooreLot, 180, MooreLot, 270, 90, 1, open, open, -1.462311, 2.258992, 327.9663, 0.7792969, 761.9498
83, 53Commons, 0, 53Commons, -90, -90, 1, closed, closed, -1.46051, -0.6060181, -151.1159, 0.793396, 764.3584
84, neutral, 0, MooreLot, 90, -90, 0, closed, open, -1.635468, -1.764771, 27.46219, 0.9607544, 766.6279
85, BakerBerry2nd, 94, BakerBerry2nd, 4, -90, 1, closed, closed, 1.830925, -3.877319, -62.15009, 0.8908691, 770.5398
86, Hop2, -1, Hop2, 89, -90, 2, open, closed, 0.02632127, -2.264832, 24.23572, 0.6403809, 772.4752
87, McLaughlinCluster, 172, McLaughlinCluster, 262, -90, 2, open, closed, -0.977478, -1.117462, 203.4833, 1.559509, 776.3735
88, AllenSt, 0, AllenSt, 90, -90, 2, closed, closed, 0.3964265, -4.398254, 25.87201, 1.15509, 778.7123
89, neutral, 0, Fairbanks, -90, -90, 0, open, open, 0.6312194, -5.481018, -155.0927, 0.9051514, 780.8705
90, neutral, 0, PineEntrance, -90, -90, 0, open, open, 3.506427, -4.17514, -158.9774, 1.030212, 783.1118
91, Umplebys, -50, Umplebys, -140, -90, 1, open, open, 0.6983117, -3.21463, -202.6336, 0.9608765, 785.3256
92, BakerBerry2nd, 94, BakerBerry2nd, 4, -90, 1, closed, closed, -1.479858, -0.7754211, -62.65579, 0.9747925, 787.8038
93, neutral, 0, RaunerFirst, 90, 90, 0, open, open, -1.474915, -0.5932312, 151.6764, 0.9606934, 789.8643
94, Maynard, 0, Maynard, -90, -90, 1, open, open, -1.68576, -5.588593, -151.9439, 0.9191895, 791.897
95, Umplebys, -50, Umplebys, -140, -90, 1, open, open, -0.2841187, 0.3211105, -199.1907, 0.8492432, 793.8321
96, RaunerBackHall, 0, RaunerBackHall, -90, -90, 1, closed, closed, 1.87399, -1.313293, -156.9483, 1.113953, 796.1016
97, BakerBerryHistoric2, 180, BakerBerryHistoric2, 90, -90, 1, closed, closed, 3.849758, -2.197784, 24.34451, 1.016296, 798.1898
98, McLaughlinCluster, 172, McLaughlinCluster, 262, 90, 1, open, closed, -5.792572, 2.168018, 321.6628, 1.726257, 801.0021
99, neutral, 0, PineBackHall, 90, -90, 0, open, closed, 1.462099, -3.700348, 25.02765, 1.322571, 803.4523
100, neutral, 0, RollinsChapel3, 267, 90, 0, closed, closed, -6.385223, 1.91024, 323.3554, 1.225037, 805.8192
101, Umplebys, -50, Umplebys, 220, 90, 2, open, open, -4.901459, 2.302484, 284.4723, 1.156494, 808.0753
102, neutral, 0, 53Commons, 90, 90, 0, open, open, -5.010895, 3.280597, 149.8121, 1.155518, 810.4135
103, PineBackHall, 180, PineBackHall, 270, 90, 1, closed, closed, -3.715698, 2.529866, 326.3297, 0.8631592, 812.4183
104, MooreLot, 180, MooreLot, 270, -90, 2, open, open, 8.997024, 0.555423, 203.5169, 1.531433, 815.676
105, BakerBerryCharter, -90, BakerBerryCharter, 0, -90, 2, closed, closed, 1.157637, -1.201111, -63.37888, 0.9468384, 817.7228
106, RaunerBackHall, 0, RaunerBackHall, -90, -90, 1, closed, closed, 2.044508, 0.9310425, -153.621, 1.044434, 819.8668
107, Zimmerman, -100, Zimmerman, 350, -90, 2, open, open, 1.124196, -6.30545, 286.5863, 1.447754, 829.6679
108, MooreLot, 180, MooreLot, 270, 90, 1, open, open, -4.715607, 0.620934, 325.6457, 0.8630981, 832.2157
109, 53Commons, 0, 53Commons, -90, -90, 1, closed, closed, -0.3144226, -5.28714, -153.1205, 0.7238159, 834.1929
110, RaunerFirst, 0, RaunerFirst, -90, -90, 1, closed, closed, 3.998499, -2.634857, -146.313, 2.046326, 837.2974
111, Zimmerman, -100, Zimmerman, -10, 90, 1, open, open, -6.345032, 1.453331, 44.5369, 1.113647, 839.5248
112, AllenSt, 0, AllenSt, 90, 90, 1, closed, closed, -4.428162, 2.425952, 146.6823, 0.9468384, 841.6694
113, PineBackHall, 180, PineBackHall, 270, -90, 2, closed, closed, -1.908813, -1.726532, 209.7771, 0.9186401, 843.799
114, Fairbanks, 0, Fairbanks, 90, -90, 2, closed, closed, -0.1874084, -2.512726, 29.91116, 1.225342, 846.138
115, RaunerFirst, 0, RaunerFirst, 270, 90, 2, closed, closed, -2.705078, 0.9536363, 322.0119, 0.9745483, 848.2124
116, RollinsChapel3, 177, RollinsChapel3, 87, -90, 1, open, open, -4.89502, -0.5726624, 30.80035, 0.7659302, 850.1201
117, Hop2, -1, Hop2, 89, 90, 1, open, open, -2.429749, 1.382804, 136.3543, 0.8074951, 852.0134
118, RaunerFirst, 0, RaunerFirst, -90, -90, 1, closed, closed, -1.026489, -2.043213, -148.872, 0.7515259, 853.8787
119, neutral, 0, Hop2, -91, -90, 0, closed, closed, -1.048828, -0.8615417, -150.465, 0.9053345, 855.8562
120, PineEntrance, 0, PineEntrance, 90, 90, 1, closed, closed, -4.432098, 2.294047, 141.0593, 0.835022, 857.8884
121, BakerBerryCharter, -90, BakerBerryCharter, 0, 90, 1, closed, closed, -4.970612, 1.520381, 55.77009, 0.9049072, 859.9351
122, McLaughlinCluster, 172, McLaughlinCluster, 262, 90, 1, open, closed, -3.869568, 3.923542, 319.824, 1.127747, 862.3436
123, neutral, 0, Umplebys, 40, 90, 0, closed, closed, -3.045685, 1.35557, 96.31173, 0.8078613, 864.3209
124, BakerBerryHistoric2, 180, BakerBerryHistoric2, 90, -90, 1, closed, closed, 2.761494, 1.815238, 28.61139, 0.9328613, 866.3949
125, 53Commons, 0, 53Commons, 270, 90, 2, closed, closed, -2.109192, 0.1525027, 326.3298, 1.545288, 869.1656
126, Hop4, -3, Hop4, 267, 90, 2, open, open, -2.528473, 0.8657895, 321.7082, 1.058472, 871.5742
127, PineBackHall, 180, PineBackHall, 270, 90, 1, closed, closed, -1.962067, 0.4151085, 323.0345, 0.737915, 873.4537
128, neutral, 0, RaunerBackHall, 90, 90, 0, open, open, -0.4274902, 0.0714027, 146.53, 1.002502, 875.6118
129, neutral, 0, BakerBerry2nd, 184, 90, 0, open, open, -3.612488, 3.087269, 243.0038, 1.155457, 877.9088
130, Fairbanks, 0, Fairbanks, 90, 90, 1, closed, closed, -2.554626, -0.5689392, 143.5281, 0.8213501, 880.3869
131, Maynard, 0, Maynard, -90, -90, 1, open, open, 0.05614372, -0.3756714, -153.2952, 0.9050293, 882.6564
132, RollinsChapel3, 177, RollinsChapel3, 87, -90, 1, open, open, -2.212646, 1.253857, 28.2467, 0.8352051, 885.2319
133, Hop4, -3, Hop4, -93, -90, 1, open, open, -5.982361, 1.400386, -148.502, 0.710022, 887.334
134, neutral, 0, AllenSt, -90, -90, 0, open, open, -3.090332, 1.033129, -151.6512, 0.7664795, 889.2698
135, Maynard, 0, Maynard, 270, 90, 2, open, open, -1.056122, 2.67383, 317.9482, 1.058289, 891.7755
136, BakerBerry2nd, 94, BakerBerry2nd, 4, 90, 2, closed, open, -0.02487183, 0.6695996, 53.28167, 0.737854, 893.7942
137, BakerBerryCharter, -90, BakerBerryCharter, 0, 90, 1, closed, open, -3.666321, 0.5443369, 48.98215, 0.890564, 896.5924
138, Fairbanks, 0, Fairbanks, 90, 90, 1, closed, closed, -1.481842, -2.576965, 143.9591, 0.7380371, 898.9037
139, Zimmerman, -100, Zimmerman, -10, 90, 1, open, open, 0.4324577, -2.880219, 44.23459, 0.8074341, 901.1312
140, neutral, 0, Maynard, 90, 90, 0, closed, open, -1.556793, 0.404009, 145.4244, 0.8493042, 903.2752
141, neutral, 0, BakerBerryCharter, -180, -90, 0, open, closed, -5.17923, -2.883179, -239.2679, 0.6958618, 906.6024
142, neutral, 0, McLaughlinCluster, 82, -90, 0, closed, closed, -4.982941, -2.948486, 27.31082, 1.434204, 910.9048
143, neutral, 0, Hop4, 87, 90, 0, closed, closed, 0.9275111, 2.918644, 136.6018, 1.127808, 913.3134
144, PineEntrance, 0, PineEntrance, 90, 90, 1, closed, closed, 0.4386855, -0.5464783, 143.2832, 0.8912354, 915.3598
