trialIdx, primeName, primeAngleYaw, targetName, targetAngleYaw, targetSide, sameScenePrime, correctResponse, response, roll, pitch, yaw, rt, timestamp
1, neutral, 0, RaunerFirst, -90, -90, 0, closed, closed, -5.370209, 13.54932, -171.9814, 1.239014, 692.6364
2, Zimmerman, -100, Zimmerman, 170, 90, 2, closed, open, -0.6750488, 28.41833, 174.1648, 2.895996, 702.8416
3, neutral, 0, Hop4, -93, -90, 0, open, open, -7.119751, 19.89998, -170.2471, 2.464478, 708.9952
4, BakerBerryHistoric2, 180, BakerBerryHistoric2, 270, 90, 1, open, open, -1.680664, 35.94645, 254.2133, 2.324951, 713.2417
5, BakerBerryCharter, -90, BakerBerryCharter, -180, -90, 1, open, open, -12.60916, 29.36559, -257.5396, 2.492371, 718.0587
6, PineBackHall, 180, PineBackHall, 90, 90, 2, open, open, -0.8093872, 35.20121, 81.86411, 3.884583, 723.4884
7, BakerBerry2nd, 94, BakerBerry2nd, 184, 90, 1, open, open, -0.0725708, 31.69188, 168.8522, 2.784363, 728.2914
8, RaunerBackHall, 0, RaunerBackHall, 90, 90, 1, open, open, -6.451904, 37.99765, 80.80539, 2.032776, 732.0925
9, Hop2, -1, Hop2, 269, 90, 2, closed, closed, -2.380829, 35.60529, 260.4535, 1.851746, 735.3779
10, BakerBerryHistoric2, 180, BakerBerryHistoric2, 270, -90, 2, open, open, -4.39801, 40.74484, 221.5383, 1.990723, 738.8723
11, neutral, 0, McLaughlinCluster, 262, 90, 0, open, open, -2.829102, 33.70806, 250.737, 2.088562, 742.5203
12, Zimmerman, -100, Zimmerman, -190, -90, 1, closed, open, -4.451447, 38.6547, -218.9531, 1.93512, 746.0979
13, Hop2, -1, Hop2, -91, -90, 1, closed, closed, 0.3357936, 33.92435, -126.2988, 2.255493, 749.8294
14, Hop4, -3, Hop4, 87, 90, 1, closed, closed, -6.621918, 23.20818, 72.40497, 3.285522, 756.2195
15, neutral, 0, AllenSt, 90, 90, 0, closed, open, -5.391327, 21.70187, 69.36511, 3.341309, 762.7493
16, 53Commons, 0, 53Commons, 90, -90, 2, open, open, -3.904938, 32.06423, 34.97903, 2.18573, 766.5082
17, BakerBerryHistoric2, 180, BakerBerryHistoric2, 270, 90, 1, open, open, -13.25513, 26.69489, 239.9112, 2.311035, 770.3647
18, Zimmerman, -100, Zimmerman, -190, -90, 1, closed, open, -9.185455, 30.86999, -236.7181, 2.13031, 773.8314
19, Fairbanks, 0, Fairbanks, 270, 90, 2, open, open, -8.090546, 25.24611, 240.9202, 2.700867, 777.8688
20, Maynard, 0, Maynard, 90, 90, 1, closed, closed, -3.944611, 28.69181, 67.37061, 2.826477, 782.1152
21, RaunerFirst, 0, RaunerFirst, 90, -90, 2, open, open, -2.047852, 28.89257, 58.39972, 2.422241, 785.9435
22, RollinsChapel3, 177, RollinsChapel3, 267, -90, 2, closed, open, -2.793976, 32.25566, 223.1472, 2.533936, 790.5521
23, PineEntrance, 0, PineEntrance, 270, 90, 2, open, open, 2.778531, 23.29691, 266.9075, 4.469421, 796.2046
24, neutral, 0, Fairbanks, 90, 90, 0, closed, open, -16.34048, 29.76182, 57.38547, 2.492249, 802.3723
25, neutral, 0, Umplebys, -140, -90, 0, open, open, 6.306081, 31.38562, -163.8518, 1.962891, 808.5952
26, neutral, 0, BakerBerryHistoric2, 90, -90, 0, closed, closed, -1.923706, 42.17828, 63.66211, 1.85144, 812.2427
27, neutral, 0, PineEntrance, 90, 90, 0, closed, closed, -5.333832, 38.77733, 74.43829, 2.130005, 815.6261
28, neutral, 0, Zimmerman, -10, 90, 0, open, open, -6.569946, 37.53051, -29.29239, 2.645325, 819.3991
29, neutral, 0, MooreLot, 270, 90, 0, open, open, -5.097015, 33.95545, 257.3125, 1.89325, 822.4618
30, Maynard, 0, Maynard, 90, -90, 2, closed, closed, -2.489014, 37.75389, 61.87589, 2.005127, 825.7477
31, PineBackHall, 180, PineBackHall, 90, -90, 1, open, open, 0.483348, 32.29632, 67.70282, 2.450134, 829.5065
32, Umplebys, -50, Umplebys, 40, 90, 1, closed, open, 9.403913, 33.72998, 24.4566, 3.257874, 834.2542
33, Hop4, -3, Hop4, 87, -90, 2, closed, closed, -1.851807, 37.75314, 54.60516, 1.76825, 837.6512
34, neutral, 0, PineBackHall, 270, 90, 0, closed, closed, -1.576324, 33.13019, 255.9726, 2.631592, 841.4105
35, neutral, 0, Hop2, 89, 90, 0, open, open, 2.901127, 31.79338, 79.01428, 2.144104, 862.3074
36, Fairbanks, 0, Fairbanks, -90, -90, 1, open, open, -0.3526001, 37.93, -115.1486, 1.879395, 865.3286
37, neutral, 0, RollinsChapel3, 87, -90, 0, open, open, -1.263702, 37.70429, 28.91745, 1.921265, 868.5168
38, neutral, 0, BakerBerryCharter, 0, 90, 0, closed, closed, 0.5359372, 36.66819, -18.76489, 2.144287, 872.3735
39, PineEntrance, 0, PineEntrance, -90, -90, 1, open, open, -1.387238, 38.19946, -125.1084, 2.032898, 875.5339
40, AllenSt, 0, AllenSt, -90, -90, 1, open, open, 2.704259, 38.06546, -120.6953, 2.617554, 879.3208
41, 53Commons, 0, 53Commons, 90, 90, 1, open, open, 0.8071427, 38.80128, 69.98999, 2.338745, 882.7871
42, MooreLot, 180, MooreLot, 90, 90, 2, closed, closed, -4.666016, 36.91339, 66.80475, 2.687012, 886.588
43, AllenSt, 0, AllenSt, -90, -90, 1, open, open, -1.755341, 41.83197, -130.5943, 2.130188, 889.8322
44, neutral, 0, 53Commons, -90, -90, 0, closed, open, -3.742126, 34.79574, -149.7993, 2.269165, 893.1592
45, MooreLot, 180, MooreLot, 90, -90, 1, closed, closed, -4.838104, 40.41704, 50.00946, 1.893372, 896.626
46, RollinsChapel3, 177, RollinsChapel3, 267, 90, 1, closed, open, -9.969513, 37.52479, 230.9367, 2.534424, 900.3575
47, neutral, 0, Maynard, -90, -90, 0, open, open, -5.638245, 40.15854, -138.5637, 2.464172, 904.1579
48, 53Commons, 0, 53Commons, 90, 90, 1, open, open, -6.899078, 32.55091, 52.9809, 2.311401, 907.6246
49, Fairbanks, 0, Fairbanks, -90, -90, 1, open, open, -0.5102539, 35.44004, -140.5435, 1.990967, 910.8268
50, AllenSt, 0, AllenSt, 270, 90, 2, open, open, -14.35211, 43.07887, 222.8438, 2.269165, 914.6971
51, McLaughlinCluster, 172, McLaughlinCluster, 82, 90, 2, closed, closed, -0.1230774, 38.13301, 80.41974, 2.492065, 918.317
52, RaunerBackHall, 0, RaunerBackHall, 90, 90, 1, open, open, 0.2598092, 36.10232, 78.60654, 2.478149, 922.5494
53, BakerBerry2nd, 94, BakerBerry2nd, 184, -90, 2, open, open, -0.2337036, 33.0742, 133.6237, 2.018921, 925.7375
54, BakerBerryCharter, -90, BakerBerryCharter, 180, 90, 2, open, open, 2.262167, 31.14886, 180.6347, 2.756226, 930.8886
55, Umplebys, -50, Umplebys, 40, 90, 1, closed, closed, -9.124634, 27.11554, 19.63419, 2.811401, 935.4415
56, Maynard, 0, Maynard, 90, 90, 1, closed, closed, -7.067078, 34.25127, 52.40903, 3.675476, 940.7876
57, RaunerBackHall, 0, RaunerBackHall, 90, -90, 2, open, open, 1.948469, 22.6893, 73.95825, 2.896179, 945.0899
58, PineBackHall, 180, PineBackHall, 90, -90, 1, open, open, -4.164612, 29.80076, 39.58823, 2.422668, 948.8486
59, McLaughlinCluster, 172, McLaughlinCluster, 82, -90, 1, closed, open, -3.62793, 28.6757, 18.01807, 5.054016, 955.3086
60, RaunerFirst, 0, RaunerFirst, 90, 90, 1, open, open, -9.024994, 25.88004, 83.59305, 2.700928, 959.9445
61, neutral, 0, BakerBerry2nd, 4, -90, 0, closed, closed, -4.557587, 29.99396, -56.81915, 2.11615, 963.286
62, MooreLot, 180, MooreLot, 90, -90, 1, closed, closed, -4.192017, 34.64858, 28.9209, 2.158264, 967.0311
63, Hop4, -3, Hop4, 87, 90, 1, closed, closed, -11.81516, 29.25614, 47.53577, 2.99353, 971.3055
64, McLaughlinCluster, 172, McLaughlinCluster, 82, -90, 1, closed, open, 7.078793, 22.75081, 59.4353, 2.227905, 977.5009
65, Umplebys, -50, Umplebys, 40, -90, 2, closed, closed, -1.2388, 42.08897, 5.850006, 2.40863, 981.2042
66, RaunerFirst, 0, RaunerFirst, 90, 90, 1, open, open, 1.557568, 31.03753, 67.62256, 2.32489, 984.7123
67, PineEntrance, 0, PineEntrance, -90, -90, 1, open, open, 4.10488, 37.82988, -130.6053, 1.963013, 987.9979
68, neutral, 0, RaunerBackHall, -90, -90, 0, closed, closed, 1.489384, 35.94835, -139.6074, 2.032532, 991.3811
69, BakerBerry2nd, 94, BakerBerry2nd, 184, 90, 1, open, open, 1.848968, 31.31868, 159.0242, 2.617126, 995.3627
70, BakerBerryCharter, -90, BakerBerryCharter, -180, -90, 1, open, open, 4.904387, 33.40907, -222.3792, 1.893433, 998.7044
71, RollinsChapel3, 177, RollinsChapel3, 267, 90, 1, closed, open, 0.8809891, 27.18139, 251.7918, 2.854431, 1011.541
72, Hop2, -1, Hop2, -91, -90, 1, closed, closed, 5.698578, 32.59937, -116.8147, 1.893555, 1014.548
73, neutral, 0, BakerBerryHistoric2, 270, 90, 0, open, open, -4.971283, 31.48787, 235.5033, 2.589478, 1018.307
74, RaunerBackHall, 0, RaunerBackHall, 270, 90, 2, closed, closed, -6.142761, 35.48307, 247.3303, 2.325256, 1021.885
75, BakerBerryHistoric2, 180, BakerBerryHistoric2, 90, 90, 2, closed, closed, -3.292389, 36.80275, 72.24042, 2.129578, 1024.976
76, neutral, 0, Zimmerman, -190, -90, 0, closed, open, 2.094992, 34.91603, -211.7468, 2.088745, 1028.345
77, AllenSt, 0, AllenSt, 90, 90, 1, closed, closed, -7.682465, 40.42138, 69.0025, 2.158081, 1031.672
78, PineEntrance, 0, PineEntrance, 90, -90, 2, closed, closed, 0.3363098, 33.29653, 47.10309, 1.865479, 1034.707
79, Hop4, -3, Hop4, -93, -90, 1, open, open, 4.75101, 36.26382, -143.2965, 1.851318, 1037.645
80, RollinsChapel3, 177, RollinsChapel3, 87, 90, 2, open, open, 0.4703931, 35.83489, 65.83966, 2.241211, 1041.056
81, Hop2, -1, Hop2, 89, 90, 1, open, open, -2.740845, 35.20741, 65.70636, 1.963135, 1044.23
82, MooreLot, 180, MooreLot, 270, 90, 1, open, open, -2.174683, 39.65616, 238.5824, 1.977051, 1047.405
83, 53Commons, 0, 53Commons, -90, -90, 1, closed, open, -1.783722, 35.2252, -138.1178, 1.65686, 1050.078
84, neutral, 0, MooreLot, 90, -90, 0, closed, closed, 2.370936, 36.8862, 45.14954, 1.809937, 1053.001
85, BakerBerry2nd, 94, BakerBerry2nd, 4, -90, 1, closed, closed, 3.748518, 40.42835, -28.1254, 1.949341, 1056.162
86, Hop2, -1, Hop2, 89, -90, 2, open, open, 3.286513, 38.49246, 50.78876, 1.837769, 1059.127
87, McLaughlinCluster, 172, McLaughlinCluster, 262, -90, 2, open, open, -1.240906, 34.83188, 223.6335, 1.782349, 1061.912
88, AllenSt, 0, AllenSt, 90, -90, 2, closed, closed, -8.528259, 27.6128, 2.506714, 2.422485, 1065.406
89, neutral, 0, Fairbanks, -90, -90, 0, open, open, 6.774482, 35.81694, -146.4864, 2.047119, 1068.622
90, neutral, 0, PineEntrance, -90, -90, 0, open, open, 4.16456, 37.12456, -152.1703, 1.963135, 1071.699
91, Umplebys, -50, Umplebys, -140, -90, 1, open, open, -3.480164, 38.56551, -196.0281, 1.601074, 1074.428
92, BakerBerry2nd, 94, BakerBerry2nd, 4, -90, 1, closed, closed, -0.7250366, 41.21656, -31.82681, 1.573242, 1077.143
93, neutral, 0, RaunerFirst, 90, 90, 0, open, open, -1.299835, 31.31981, 66.96674, 4.148804, 1082.391
94, Maynard, 0, Maynard, -90, -90, 1, open, open, 0.2322787, 34.48595, -133.448, 1.657104, 1085.246
95, Umplebys, -50, Umplebys, -140, -90, 1, open, open, 0.1417552, 40.06926, -194.4974, 1.754395, 1088.127
96, RaunerBackHall, 0, RaunerBackHall, -90, -90, 1, closed, closed, -2.403442, 28.90939, -113.3166, 2.116211, 1091.371
97, BakerBerryHistoric2, 180, BakerBerryHistoric2, 90, -90, 1, closed, closed, -3.47699, 32.55329, 49.6832, 1.614746, 1094.086
98, McLaughlinCluster, 172, McLaughlinCluster, 262, 90, 1, open, open, -3.922485, 25.61064, 246.028, 1.991455, 1097.33
99, neutral, 0, PineBackHall, 90, -90, 0, open, open, -1.237457, 40.48369, 43.03354, 2.018799, 1100.532
100, neutral, 0, RollinsChapel3, 267, 90, 0, closed, open, -4.020355, 27.74708, 237.1201, 1.963135, 1103.637
101, Umplebys, -50, Umplebys, 220, 90, 2, open, open, -11.37378, 33.73497, 203.5306, 2.436401, 1107.173
102, neutral, 0, 53Commons, 90, 90, 0, open, open, -7.044067, 29.42638, 62.26813, 2.074585, 1110.305
103, PineBackHall, 180, PineBackHall, 270, 90, 1, closed, closed, -6.760864, 23.42816, 239.9812, 2.310913, 1113.716
104, MooreLot, 180, MooreLot, 270, -90, 2, open, open, -2.591125, 27.85384, 227.9508, 1.907471, 1116.793
105, BakerBerryCharter, -90, BakerBerryCharter, 0, -90, 2, closed, closed, -5.3927, 31.9415, -30.31924, 2.213501, 1120.121
106, RaunerBackHall, 0, RaunerBackHall, -90, -90, 1, closed, closed, -2.138458, 23.68658, -114.9346, 1.991089, 1123.253
107, Zimmerman, -100, Zimmerman, 350, -90, 2, open, open, 1.371634, 22.22191, 321.0654, 1.740112, 1132.122
108, MooreLot, 180, MooreLot, 270, 90, 1, open, open, -7.232819, 26.19028, 246.3536, 1.976807, 1135.226
109, 53Commons, 0, 53Commons, -90, -90, 1, closed, open, 3.486004, 30.46957, -130.1165, 1.726318, 1138.052
110, RaunerFirst, 0, RaunerFirst, -90, -90, 1, closed, closed, 1.005958, 35.55897, -138.5827, 1.670654, 1140.823
111, Zimmerman, -100, Zimmerman, -10, 90, 1, open, open, -4.100464, 26.87241, -30.5997, 2.672974, 1144.554
112, AllenSt, 0, AllenSt, 90, 90, 1, closed, closed, 3.494062, 31.71404, 73.21597, 2.158203, 1148.021
113, PineBackHall, 180, PineBackHall, 270, -90, 2, closed, closed, -3.052765, 36.12548, 239.649, 2.171631, 1151.766
114, Fairbanks, 0, Fairbanks, 90, -90, 2, closed, open, 2.320406, 31.49354, 60.32877, 2.533936, 1155.581
115, RaunerFirst, 0, RaunerFirst, 270, 90, 2, closed, closed, -0.9928284, 31.02911, 247.904, 2.130127, 1158.908
116, RollinsChapel3, 177, RollinsChapel3, 87, -90, 1, open, open, -6.499573, 29.82465, 43.39914, 3.285889, 1163.308
117, Hop2, -1, Hop2, 89, 90, 1, open, open, 1.078932, 30.05199, 61.70517, 2.060669, 1166.593
118, RaunerFirst, 0, RaunerFirst, -90, -90, 1, closed, closed, -0.1666565, 33.78612, -120.888, 1.656738, 1169.336
119, neutral, 0, Hop2, -91, -90, 0, closed, closed, 4.522521, 34.73493, -123.35, 1.642578, 1172.079
120, PineEntrance, 0, PineEntrance, 90, 90, 1, closed, closed, 0.6734325, 35.58778, 67.21692, 2.088501, 1175.253
121, BakerBerryCharter, -90, BakerBerryCharter, 0, 90, 1, closed, closed, 1.831025, 35.39317, -24.91223, 2.297119, 1178.608
122, McLaughlinCluster, 172, McLaughlinCluster, 262, 90, 1, open, open, -8.295776, 39.24247, 230.5648, 1.921631, 1181.504
123, neutral, 0, Umplebys, 40, 90, 0, closed, closed, -3.981995, 37.06516, 15.78717, 2.311279, 1184.929
124, BakerBerryHistoric2, 180, BakerBerryHistoric2, 90, -90, 1, closed, closed, -3.126862, 23.80959, 60.28732, 1.879639, 1187.755
125, 53Commons, 0, 53Commons, 270, 90, 2, closed, open, 1.053277, 26.79589, 248.1776, 2.366943, 1191.152
126, Hop4, -3, Hop4, 267, 90, 2, open, open, -3.797363, 25.73025, 251.1267, 2.074585, 1194.313
127, PineBackHall, 180, PineBackHall, 270, 90, 1, closed, closed, -3.83139, 24.89443, 254.1001, 2.116333, 1197.501
128, neutral, 0, RaunerBackHall, 90, 90, 0, open, open, -6.321899, 28.11155, 69.51248, 2.074585, 1200.703
129, neutral, 0, BakerBerry2nd, 184, 90, 0, open, open, -2.332642, 25.26798, 172.5475, 3.522339, 1205.311
130, Fairbanks, 0, Fairbanks, 90, 90, 1, closed, open, -1.487579, 25.50187, 64.39978, 2.185913, 1208.639
131, Maynard, 0, Maynard, -90, -90, 1, open, open, -1.981903, 28.26186, -129.427, 1.795898, 1211.771
132, RollinsChapel3, 177, RollinsChapel3, 87, -90, 1, open, open, 1.602415, 29.00184, 46.84854, 1.893677, 1214.765
133, Hop4, -3, Hop4, -93, -90, 1, open, open, 0.2851396, 28.20641, -132.7458, 1.712402, 1217.577
134, neutral, 0, AllenSt, -90, -90, 0, open, open, -4.689575, 33.25597, -138.589, 1.865601, 1220.542
135, Maynard, 0, Maynard, 270, 90, 2, open, open, 7.807029, 36.09422, 259.4449, 2.186035, 1223.647
136, BakerBerry2nd, 94, BakerBerry2nd, 4, 90, 2, closed, closed, -11.34875, 43.5648, -20.00919, 3.563965, 1228.422
137, BakerBerryCharter, -90, BakerBerryCharter, 0, 90, 1, closed, closed, 4.642896, 24.40323, -17.15933, 2.033081, 1231.722
138, Fairbanks, 0, Fairbanks, 90, 90, 1, closed, open, 0.9598589, 24.35274, 66.21039, 2.325439, 1235.217
139, Zimmerman, -100, Zimmerman, -10, 90, 1, open, open, 0.423687, 24.98924, -31.48788, 2.255615, 1238.711
140, neutral, 0, Maynard, 90, 90, 0, closed, closed, -3.108124, 31.2498, 71.44012, 2.158081, 1241.983
141, neutral, 0, BakerBerryCharter, -180, -90, 0, open, open, -4.583374, 38.71712, -221.6962, 1.991089, 1245.519
142, neutral, 0, McLaughlinCluster, 82, -90, 0, closed, open, -12.29947, 19.10261, 9.687866, 3.021362, 1249.654
143, neutral, 0, Hop4, 87, 90, 0, closed, closed, -0.02746582, 27.80193, 64.77087, 2.979614, 1253.775
144, PineEntrance, 0, PineEntrance, 90, 90, 1, closed, closed, -5.571228, 32.6583, 66.85834, 2.3396, 1257.409
