trialIdx, primeName, primeAngleYaw, targetName, targetAngleYaw, targetSide, sameScenePrime, correctResponse, response, roll, pitch, yaw, rt, timestamp
1, neutral, 0, RaunerFirst, -90, -90, 0, closed, closed, 1.414978, -0.2219543, -187.3963, 0.9468384, 724.3716
2, Zimmerman, -100, Zimmerman, 170, 90, 2, closed, closed, -11.44229, -4.707153, 257.0741, 1.768127, 734.6185
3, neutral, 0, Hop4, -93, -90, 0, open, open, 2.377018, 2.976484, -188.9379, 1.16925, 737.7649
4, BakerBerryHistoric2, 180, BakerBerryHistoric2, 270, 90, 1, open, open, -11.7739, 14.4016, 362.0316, 1.43396, 742.0531
5, BakerBerryCharter, -90, BakerBerryCharter, -180, -90, 1, open, open, 3.083186, 5.020244, -271.7015, 1.00238, 745.5474
6, PineBackHall, 180, PineBackHall, 90, 90, 2, open, open, -3.330017, -1.456146, 88.89996, 0.5571289, 749.4598
7, BakerBerry2nd, 94, BakerBerry2nd, 184, 90, 1, open, open, -12.54803, -1.385223, 264.3889, 1.32312, 760.1662
8, RaunerBackHall, 0, RaunerBackHall, 90, 90, 1, open, open, -14.32071, -1.624298, 177.7953, 1.308838, 764.4959
9, Hop2, -1, Hop2, 269, 90, 2, closed, closed, -11.91489, -0.7725525, 350.8019, 1.378662, 767.6424
10, BakerBerryHistoric2, 180, BakerBerryHistoric2, 270, -90, 2, open, open, 4.123346, 15.13754, 187.3008, 1.392456, 771.0811
11, neutral, 0, McLaughlinCluster, 262, 90, 0, open, open, -6.234589, 2.410638, 356.8547, 1.364319, 776.2043
12, Zimmerman, -100, Zimmerman, -190, -90, 1, closed, closed, 3.70374, -9.364044, -285.695, 1.378418, 779.6573
13, Hop2, -1, Hop2, -91, -90, 1, closed, closed, 6.024675, 3.709375, -181.36, 1.155457, 782.4276
14, Hop4, -3, Hop4, 87, 90, 1, closed, open, -12.65594, -4.817719, 174.8822, 1.656555, 786.1866
15, neutral, 0, AllenSt, 90, 90, 0, closed, closed, -9.334778, 3.390309, 171.3308, 1.684814, 793.8998
16, 53Commons, 0, 53Commons, 90, -90, 2, open, open, 7.31067, 1.225857, 1.216278, 1.322815, 797.2552
17, BakerBerryHistoric2, 180, BakerBerryHistoric2, 270, 90, 1, open, open, -14.21442, 12.58186, 355.3601, 1.252808, 800.1509
18, Zimmerman, -100, Zimmerman, -190, -90, 1, closed, closed, 7.248615, -2.501678, -275.1448, 0.9331665, 804.3416
19, Fairbanks, 0, Fairbanks, 270, 90, 2, open, open, -9.975647, -4.233795, 354.2694, 1.684692, 807.85
20, Maynard, 0, Maynard, 90, 90, 1, closed, closed, -11.89627, 1.555205, 171.8643, 1.322388, 810.8431
21, RaunerFirst, 0, RaunerFirst, 90, -90, 2, open, open, 4.912951, 1.501303, -2.533112, 2.004639, 815.8133
22, RollinsChapel3, 177, RollinsChapel3, 267, -90, 2, closed, open, 5.436193, -3.91687, 180.169, 1.698242, 819.7116
23, PineEntrance, 0, PineEntrance, 270, 90, 2, open, open, -12.88062, -1.29007, 348.5332, 1.378113, 824.0552
24, neutral, 0, Fairbanks, 90, 90, 0, closed, closed, -11.77179, -0.05331421, 175.3972, 1.796143, 827.4108
25, neutral, 0, Umplebys, -140, -90, 0, open, open, 4.573685, 2.28316, -231.7521, 1.002136, 832.5339
26, neutral, 0, BakerBerryHistoric2, 90, -90, 0, closed, closed, 2.762946, 3.702697, 3.473022, 1.462341, 835.6669
27, neutral, 0, PineEntrance, 90, 90, 0, closed, closed, -10.92642, -1.049469, 179.5479, 1.044373, 838.3118
28, neutral, 0, Zimmerman, -10, 90, 0, open, open, -16.45392, -9.187653, 79.82678, 1.573303, 842.377
29, neutral, 0, MooreLot, 270, 90, 0, open, open, -10.47531, -1.414154, 354.956, 1.143005, 844.8983
30, Maynard, 0, Maynard, 90, -90, 2, closed, open, 5.611964, 1.871025, -0.6058655, 2.116577, 848.4196
31, PineBackHall, 180, PineBackHall, 90, -90, 1, open, open, 6.682778, 4.685773, -5.802246, 1.461914, 851.4406
32, Umplebys, -50, Umplebys, 40, 90, 1, closed, closed, -13.22464, -0.1920471, 128.2455, 1.461853, 854.4895
33, Hop4, -3, Hop4, 87, -90, 2, closed, closed, 5.402773, 4.48346, 13.69547, 1.128784, 858.9319
34, neutral, 0, PineBackHall, 270, 90, 0, closed, closed, -15.83417, -1.622162, 352.1955, 1.002502, 861.2698
35, neutral, 0, Hop2, 89, 90, 0, open, open, -9.729767, -3.149078, 172.7179, 0.9190063, 890.0333
36, Fairbanks, 0, Fairbanks, -90, -90, 1, open, open, 6.214404, -1.84494, -171.3168, 0.9191895, 892.4141
37, neutral, 0, RollinsChapel3, 87, -90, 0, open, open, -1.612732, -4.255341, 1.522705, 1.364319, 895.3375
38, neutral, 0, BakerBerryCharter, 0, 90, 0, closed, closed, -12.49783, -2.868286, 83.19578, 1.35022, 900.6556
39, PineEntrance, 0, PineEntrance, -90, -90, 1, open, open, 4.206971, 0.3485047, -178.8249, 1.253418, 903.2596
40, AllenSt, 0, AllenSt, -90, -90, 1, open, open, 3.990974, -0.9825134, -171.4447, 1.406311, 906.0718
41, 53Commons, 0, 53Commons, 90, 90, 1, open, open, -11.32642, -5.148895, 170.4586, 1.406311, 909.0649
42, MooreLot, 180, MooreLot, 90, 90, 2, closed, closed, -14.55124, -3.614288, 180.2183, 1.378479, 911.7936
43, AllenSt, 0, AllenSt, -90, -90, 1, open, open, 4.894402, -1.205933, -172.728, 1.211182, 915.2045
44, neutral, 0, 53Commons, -90, -90, 0, closed, open, 1.880371, -0.1666565, -178.561, 2.89624, 919.2841
45, MooreLot, 180, MooreLot, 90, -90, 1, closed, closed, 0.6976805, -2.890991, 9.078979, 1.364685, 922.8203
46, RollinsChapel3, 177, RollinsChapel3, 267, 90, 1, closed, open, -4.624115, 9.372038, 351.2194, 2.074463, 926.3146
47, neutral, 0, Maynard, -90, -90, 0, open, open, 2.628215, -1.067017, -173.5255, 1.281006, 929.5863
48, 53Commons, 0, 53Commons, 90, 90, 1, open, open, -8.738617, -2.882813, 178.4559, 1.239014, 932.8721
49, Fairbanks, 0, Fairbanks, -90, -90, 1, open, open, 5.771326, -3.215912, -173.0254, 0.7935181, 934.988
50, AllenSt, 0, AllenSt, 270, 90, 2, open, open, -8.255951, -2.922943, 344.3318, 1.475952, 938.0093
51, McLaughlinCluster, 172, McLaughlinCluster, 82, 90, 2, closed, closed, -9.680878, -11.79449, 164.7422, 2.075256, 942.1173
52, RaunerBackHall, 0, RaunerBackHall, 90, 90, 1, open, open, -12.68829, -4.893097, 177.6671, 1.475525, 945.6944
53, BakerBerry2nd, 94, BakerBerry2nd, 184, -90, 2, open, open, 5.122408, 1.353809, 94.37653, 1.224854, 948.3537
54, BakerBerryCharter, -90, BakerBerryCharter, 180, 90, 2, open, open, -11.46448, -2.021393, 258.2021, 1.462036, 951.2775
55, Umplebys, -50, Umplebys, 40, 90, 1, closed, closed, -12.79608, -2.610107, 120.8434, 1.169434, 953.8391
56, Maynard, 0, Maynard, 90, 90, 1, closed, closed, -12.31638, -0.5328369, 168.4685, 1.197327, 956.5679
57, RaunerBackHall, 0, RaunerBackHall, 90, -90, 2, open, open, 2.855058, -1.042847, 4.701477, 1.642944, 959.7142
58, PineBackHall, 180, PineBackHall, 90, -90, 1, open, open, 4.764092, 1.938443, -2.736511, 1.420288, 962.5127
59, McLaughlinCluster, 172, McLaughlinCluster, 82, -90, 1, closed, closed, 3.151445, -3.532654, -1.927673, 1.238953, 965.1995
60, RaunerFirst, 0, RaunerFirst, 90, 90, 1, open, open, -12.08676, -3.852081, 171.521, 1.127502, 967.9977
61, neutral, 0, BakerBerry2nd, 4, -90, 0, closed, closed, 3.152308, 1.128131, -92.61646, 1.364441, 970.8936
62, MooreLot, 180, MooreLot, 90, -90, 1, closed, closed, 0.8460553, -2.336975, 5.114349, 1.016357, 973.2328
63, Hop4, -3, Hop4, 87, 90, 1, closed, closed, -7.050598, -3.901062, 113.6127, 1.085876, 975.5577
64, McLaughlinCluster, 172, McLaughlinCluster, 82, -90, 1, closed, closed, 1.458485, -7.280823, 30.20865, 1.309082, 978.2866
65, Umplebys, -50, Umplebys, 40, -90, 2, closed, closed, -2.08313, -7.556061, 29.7316, 1.044373, 981.1127
66, RaunerFirst, 0, RaunerFirst, 90, 90, 1, open, open, -10.38919, -2.920013, 138.8629, 0.8633423, 983.6048
67, PineEntrance, 0, PineEntrance, -90, -90, 1, open, open, 5.186212, -3.187927, -149.8468, 1.169495, 986.3615
68, neutral, 0, RaunerBackHall, -90, -90, 0, closed, closed, 4.689673, -8.051483, -137.2388, 1.211304, 988.965
69, BakerBerry2nd, 94, BakerBerry2nd, 184, 90, 1, open, open, -3.289642, -3.924683, 184.1398, 0.8355103, 991.3318
70, BakerBerryCharter, -90, BakerBerryCharter, -180, -90, 1, open, open, 6.194856, -4.691772, -228.5505, 0.9604492, 993.9631
71, RollinsChapel3, 177, RollinsChapel3, 267, 90, 1, closed, closed, -5.601257, 1.350852, 325.4046, 1.308594, 1060.443
72, Hop2, -1, Hop2, -91, -90, 1, closed, closed, 4.710012, -0.7198792, -171.2111, 0.807373, 1066.387
73, neutral, 0, BakerBerryHistoric2, 270, 90, 0, open, open, -10.55051, -3.688568, 324.9789, 0.8770752, 1068.726
74, RaunerBackHall, 0, RaunerBackHall, 270, 90, 2, closed, open, -3.010315, -5.606689, 266.0774, 0.807373, 1070.842
75, BakerBerryHistoric2, 180, BakerBerryHistoric2, 90, 90, 2, closed, closed, -10.29916, -1.810181, 149.2836, 1.11377, 1076.049
76, neutral, 0, Zimmerman, -190, -90, 0, closed, closed, 4.734799, -5.14328, -270.2848, 1.253174, 1079.098
77, AllenSt, 0, AllenSt, 90, 90, 1, closed, closed, -7.466064, -2.653595, 157.1692, 0.9327393, 1081.368
78, PineEntrance, 0, PineEntrance, 90, -90, 2, closed, closed, 1.412546, -2.338104, 46.84088, 1.2948, 1085.043
79, Hop4, -3, Hop4, -93, -90, 1, open, open, -0.7503052, -0.9023438, -109.2801, 0.7099609, 1087.521
80, RollinsChapel3, 177, RollinsChapel3, 87, 90, 2, open, closed, -8.944031, -14.26581, 150.8057, 1.113525, 1090.306
81, Hop2, -1, Hop2, 89, 90, 1, open, open, -10.84976, -5.271851, 160.2384, 0.9470215, 1093.007
82, MooreLot, 180, MooreLot, 270, 90, 1, open, open, -10.30609, -4.127502, 342.8871, 1.03125, 1095.486
83, 53Commons, 0, 53Commons, -90, -90, 1, closed, closed, 3.731616, -5.188385, -160.3512, 1.22522, 1098.186
84, neutral, 0, MooreLot, 90, -90, 0, closed, closed, -1.38446, -6.056305, 9.788696, 1.433472, 1101.931
85, BakerBerry2nd, 94, BakerBerry2nd, 4, -90, 1, closed, closed, -1.76947, -5.586395, -20.08249, 2.575684, 1105.676
86, Hop2, -1, Hop2, 89, -90, 2, open, closed, 1.901255, -4.117401, 39.0152, 0.8076172, 1110.744
87, McLaughlinCluster, 172, McLaughlinCluster, 262, -90, 2, open, open, 5.369909, 0.641932, 176.6277, 1.837769, 1114.962
88, AllenSt, 0, AllenSt, 90, -90, 2, closed, closed, 3.17935, -1.771942, 8.58374, 1.086182, 1117.44
89, neutral, 0, Fairbanks, -90, -90, 0, open, open, 2.702283, -4.722198, -171.1199, 1.155762, 1119.946
90, neutral, 0, PineEntrance, -90, -90, 0, open, open, 4.157996, -1.658844, -178.8427, 1.099854, 1122.077
91, Umplebys, -50, Umplebys, -140, -90, 1, open, open, 1.014715, -0.9423828, -224.9122, 0.8771973, 1126.741
92, BakerBerry2nd, 94, BakerBerry2nd, 4, -90, 1, closed, closed, 7.210412, -0.3673401, -78.32983, 0.765625, 1130.04
93, neutral, 0, RaunerFirst, 90, 90, 0, open, open, -12.16577, -5.589172, 170.602, 1.378174, 1132.894
94, Maynard, 0, Maynard, -90, -90, 1, open, open, 5.050686, -3.175385, -163.0839, 0.6260986, 1134.857
95, Umplebys, -50, Umplebys, -140, -90, 1, open, open, 4.226121, -2.885651, -213.2087, 0.765625, 1136.917
96, RaunerBackHall, 0, RaunerBackHall, -90, -90, 1, closed, closed, 1.093571, -3.054199, -126.7679, 0.8773193, 1139.02
97, BakerBerryHistoric2, 180, BakerBerryHistoric2, 90, -90, 1, closed, closed, -6.318359, -6.424683, 93.08426, 0.9465332, 1142.779
98, McLaughlinCluster, 172, McLaughlinCluster, 262, 90, 1, open, open, -9.029724, -1.486145, 342.081, 1.796387, 1145.884
99, neutral, 0, PineBackHall, 90, -90, 0, open, open, 4.934732, 0.5519068, 8.648071, 1.099976, 1148.473
100, neutral, 0, RollinsChapel3, 267, 90, 0, closed, closed, -6.033386, -1.362122, 347.8578, 1.448486, 1151.3
101, Umplebys, -50, Umplebys, 220, 90, 2, open, closed, -7.268341, -6.650299, 242.6406, 1.044189, 1153.583
102, neutral, 0, 53Commons, 90, 90, 0, open, open, -10.70615, -5.357178, 175.3079, 1.23938, 1157.453
103, PineBackHall, 180, PineBackHall, 270, 90, 1, closed, closed, -10.16388, -8.893188, 316.3996, 1.601196, 1161.393
104, MooreLot, 180, MooreLot, 270, -90, 2, open, open, 7.1495, -2.703918, 187.9494, 1.336304, 1164.219
105, BakerBerryCharter, -90, BakerBerryCharter, 0, -90, 2, closed, closed, 5.116168, -3.095306, -76.34601, 1.40564, 1167.06
106, RaunerBackHall, 0, RaunerBackHall, -90, -90, 1, closed, closed, 5.438301, -3.744537, -153.0587, 1.002563, 1169.579
107, Zimmerman, -100, Zimmerman, 350, -90, 2, open, open, 3.818562, -1.054352, 254.0569, 0.9743652, 1200.807
108, MooreLot, 180, MooreLot, 270, 90, 1, open, open, -9.775024, -3.806427, 347.7527, 0.9190674, 1202.965
109, 53Commons, 0, 53Commons, -90, -90, 1, closed, closed, 4.966707, -1.523254, -177.1795, 0.9047852, 1205.011
110, RaunerFirst, 0, RaunerFirst, -90, -90, 1, closed, closed, 3.847191, -2.850159, -159.5016, 1.030273, 1207.016
111, Zimmerman, -100, Zimmerman, -10, 90, 1, open, open, -9.559692, -5.761871, 72.43137, 1.309082, 1209.648
112, AllenSt, 0, AllenSt, 90, 90, 1, closed, closed, -9.434143, -5.096954, 167.3698, 1.434082, 1212.418
113, PineBackHall, 180, PineBackHall, 270, -90, 2, closed, closed, 4.618138, -0.9778748, 185.5681, 0.9188232, 1214.827
114, Fairbanks, 0, Fairbanks, 90, -90, 2, closed, closed, 2.764831, -4.09552, 9.548126, 1.23938, 1217.444
115, RaunerFirst, 0, RaunerFirst, 270, 90, 2, closed, closed, -10.61432, -3.423004, 347.145, 1.420288, 1220.159
116, RollinsChapel3, 177, RollinsChapel3, 87, -90, 1, open, closed, 1.260836, -1.76178, 6.73761, 0.7937012, 1222.317
117, Hop2, -1, Hop2, 89, 90, 1, open, open, -9.57309, -5.167389, 163.5634, 1.211426, 1226.16
118, RaunerFirst, 0, RaunerFirst, -90, -90, 1, closed, closed, 3.537391, -0.1255188, -171.0567, 0.6821289, 1228.053
119, neutral, 0, Hop2, -91, -90, 0, closed, closed, 2.674937, -2.582428, -166.5146, 1.141846, 1230.406
120, PineEntrance, 0, PineEntrance, 90, 90, 1, closed, closed, -10.70987, -0.8944092, 165.9362, 0.8215332, 1232.397
121, BakerBerryCharter, -90, BakerBerryCharter, 0, 90, 1, closed, closed, -12.10236, -4.682373, 81.73836, 1.197388, 1234.805
122, McLaughlinCluster, 172, McLaughlinCluster, 262, 90, 1, open, open, -8.919128, -1.313934, 347.7064, 1.072266, 1237.144
123, neutral, 0, Umplebys, 40, 90, 0, closed, closed, -8.320068, -4.680542, 130.0834, 0.9885254, 1239.427
124, BakerBerryHistoric2, 180, BakerBerryHistoric2, 90, -90, 1, closed, closed, 1.534176, -2.576416, 8.486816, 1.43396, 1242.476
125, 53Commons, 0, 53Commons, 270, 90, 2, closed, closed, -8.938599, -4.271362, 351.6412, 1.266968, 1245.136
126, Hop4, -3, Hop4, 267, 90, 2, open, closed, -11.27664, -6.413239, 337.658, 1.127686, 1247.725
127, PineBackHall, 180, PineBackHall, 270, 90, 1, closed, closed, -11.40656, -3.67746, 353.4174, 0.8493652, 1250.9
128, neutral, 0, RaunerBackHall, 90, 90, 0, open, open, -8.512482, -2.520538, 165.6069, 1.002319, 1253.211
129, neutral, 0, BakerBerry2nd, 184, 90, 0, open, open, -8.690887, -3.24881, 252.7979, 0.7102051, 1255.188
130, Fairbanks, 0, Fairbanks, 90, 90, 1, closed, closed, -9.321991, -6.774841, 165.8401, 1.016479, 1257.694
131, Maynard, 0, Maynard, -90, -90, 1, open, open, 5.894572, -3.289886, -171.1713, 1.28125, 1260.172
132, RollinsChapel3, 177, RollinsChapel3, 87, -90, 1, open, open, -1.476501, -4.875031, 5.517944, 1.629028, 1262.998
133, Hop4, -3, Hop4, -93, -90, 1, open, open, 3.392962, -2.101379, -166.7059, 0.9466553, 1265.337
134, neutral, 0, AllenSt, -90, -90, 0, open, open, 1.947406, -4.299103, -171.3731, 0.9047852, 1267.676
135, Maynard, 0, Maynard, 270, 90, 2, open, open, -9.118103, -2.283661, 342.8076, 0.9887695, 1270.001
136, BakerBerry2nd, 94, BakerBerry2nd, 4, 90, 2, closed, closed, -11.14935, -4.973083, 83.14336, 1.462036, 1273.259
137, BakerBerryCharter, -90, BakerBerryCharter, 0, 90, 1, closed, closed, -11.97113, -3.140533, 74.88518, 0.9604492, 1275.514
138, Fairbanks, 0, Fairbanks, 90, 90, 1, closed, closed, -13.72562, -4.339539, 168.8229, 2.074951, 1278.926
139, Zimmerman, -100, Zimmerman, -10, 90, 1, open, open, -12.06348, -7.223785, 65.64005, 1.517578, 1282.378
140, neutral, 0, Maynard, 90, 90, 0, closed, closed, -10.07608, -5.062408, 163.4829, 1.113647, 1285.274
141, neutral, 0, BakerBerryCharter, -180, -90, 0, open, open, -0.6981201, 0.07235763, -271.2844, 1.726196, 1288.476
142, neutral, 0, McLaughlinCluster, 82, -90, 0, closed, closed, 1.131496, -6.329742, -0.5236816, 1.197388, 1290.996
143, neutral, 0, Hop4, 87, 90, 0, closed, closed, -9.26062, -6.023346, 159.8812, 1.141968, 1293.474
144, PineEntrance, 0, PineEntrance, 90, 90, 1, closed, closed, -9.514496, -3.774872, 162.406, 0.8493652, 1295.688
