trialIdx, primeName, primeAngleYaw, targetName, targetAngleYaw, targetSide, sameScenePrime, correctResponse, response, roll, pitch, yaw, rt, timestamp
1, PineBackHall, 180, MooreLot, 270, 90, 0, open, open, -4.211487, 6.448535, 342.3771, 1.90741, 765.3962
2, PineEntrance, 0, PineEntrance, 90, 90, 1, closed, closed, -6.429413, 9.660289, 168.5788, 1.40625, 777.7314
3, Umplebys, -50, Umplebys, -140, -90, 1, open, open, -0.4527893, 2.02295, -214.7356, 1.475891, 782.6599
4, Hop2, -1, Hop2, -91, -90, 1, closed, closed, 4.111689, 4.169509, -161.9534, 1.043945, 787.4211
5, neutral, 0, BakerBerryCharter, 0, 90, 0, closed, closed, -4.560059, 7.976525, 73.9786, 0.8631592, 791.4309
6, Hop2, -1, Hop2, -91, -90, 1, closed, closed, 3.157281, 4.641937, -164.3857, 0.9465942, 796.6795
7, Fairbanks, 0, BakerBerryCharter, 0, 90, 0, closed, closed, -4.774597, 7.150553, 77.23197, 0.9328613, 800.3829
8, RaunerFirst, 0, RaunerFirst, 90, 90, 1, open, open, -3.950256, 8.254014, 165.5415, 1.336487, 804.5038
9, 53Commons, 0, 53Commons, 90, 90, 1, open, open, -3.308136, 5.984712, 166.396, 0.9606323, 808.4857
10, RollinsChapel3, 177, RollinsChapel3, 267, 90, 1, closed, closed, -0.7019653, 10.59713, 348.7532, 1.461975, 812.1752
11, neutral, 0, Hop4, 87, 90, 0, closed, closed, -5.00354, 11.04417, 168.9538, 0.9470215, 816.0874
12, neutral, 0, RaunerFirst, -90, -90, 0, closed, closed, 4.417113, 7.559126, -169.3788, 1.113708, 819.8045
13, Umplebys, -50, Umplebys, -140, -90, 1, open, open, 4.452652, 5.13158, -210.7174, 1.030457, 823.0763
14, BakerBerry2nd, 94, BakerBerry2nd, 4, -90, 1, closed, closed, 5.444349, 5.158512, -67.51389, 1.016052, 826.1947
15, McLaughlinCluster, 172, Maynard, -90, -90, 0, open, open, 5.379288, 0.3889257, -160.8752, 1.058289, 828.9238
16, Hop2, -1, Hop4, 87, 90, 0, closed, closed, -5.109161, 5.948725, 153.6681, 0.751709, 831.5131
17, neutral, 0, RaunerBackHall, -90, -90, 0, closed, closed, 5.4387, 4.183707, -159.2239, 0.7938843, 834.2003
18, 53Commons, 0, Fairbanks, -90, -90, 0, open, open, 6.924115, 0.7472392, -159.3054, 0.8771973, 836.9291
19, Maynard, 0, Maynard, 90, 90, 1, closed, closed, -4.08429, 4.616956, 163.408, 1.183167, 839.9362
20, AllenSt, 0, AllenSt, -90, -90, 1, open, open, 5.310932, 2.961493, -161.3752, 1.183411, 843.0409
21, Hop4, -3, BakerBerry2nd, 184, 90, 0, open, open, -4.380798, 5.265116, 253.2694, 1.197571, 846.5634
22, BakerBerry2nd, 94, BakerBerryHistoric2, 270, 90, 0, open, open, -4.666718, 7.552811, 345.0083, 1.949219, 851.7562
23, Hop4, -3, Hop4, -93, -90, 1, open, open, 5.310517, 5.389992, -165.9256, 1.04425, 855.5989
24, MooreLot, 180, 53Commons, -90, -90, 0, closed, closed, 5.095622, 3.705294, -164.5641, 1.225159, 858.9541
25, neutral, 0, Zimmerman, -190, -90, 0, closed, closed, 7.106211, 2.22992, -263.1906, 1.142334, 861.6973
26, AllenSt, 0, RaunerFirst, -90, -90, 0, closed, closed, 7.538015, 5.04647, -164.0809, 1.058289, 864.3283
27, RollinsChapel3, 177, Zimmerman, -190, -90, 0, closed, closed, 6.605288, 3.096628, -264.2323, 1.044189, 866.9039
28, Maynard, 0, Maynard, 90, 90, 1, closed, closed, -3.736481, 5.519783, 166.646, 1.002563, 869.1731
29, neutral, 0, AllenSt, 90, 90, 0, closed, closed, -2.692078, 9.016432, 162.2408, 0.9884033, 871.512
30, BakerBerryHistoric2, 180, BakerBerryHistoric2, 90, -90, 1, closed, closed, 6.88173, 11.08235, 18.36102, 1.071655, 873.9202
31, PineBackHall, 180, PineBackHall, 90, -90, 1, open, closed, 7.461477, 11.74642, 13.04272, 1.350769, 876.6635
32, RaunerBackHall, 0, RaunerBackHall, 90, 90, 1, open, open, -4.128448, 6.972365, 165.6768, 1.141663, 879.1553
33, BakerBerryCharter, -90, PineBackHall, 270, 90, 0, closed, closed, -3.971222, 6.643074, 342.0757, 1.155701, 882.1765
34, neutral, 0, Fairbanks, -90, -90, 0, open, open, 6.636026, 1.984035, -162.7896, 0.9746094, 884.6406
35, neutral, 0, Hop2, 89, 90, 0, open, open, -2.548279, 3.232554, 167.6291, 1.280945, 930.0281
36, Zimmerman, -100, Umplebys, 40, 90, 0, closed, closed, -2.271271, 5.347992, 118.5877, 1.044189, 933.7313
37, AllenSt, 0, AllenSt, -90, -90, 1, open, open, 3.861963, 0.6858602, -160.5266, 1.127563, 936.7524
38, Umplebys, -50, RaunerBackHall, -90, -90, 0, closed, closed, 4.947899, 2.54648, -149.5858, 0.9188843, 939.3143
39, Hop4, -3, Hop4, -93, -90, 1, open, open, 4.31517, 2.963924, -161.6337, 0.9742432, 941.9036
40, McLaughlinCluster, 172, McLaughlinCluster, 262, 90, 1, open, closed, -3.888641, 6.791765, 334.7599, 1.364502, 944.8971
41, Zimmerman, -100, Zimmerman, -10, 90, 1, open, open, -3.58197, 0.7308576, 60.49838, 1.016663, 947.96
42, BakerBerryCharter, -90, BakerBerryCharter, -180, -90, 1, open, closed, 5.010643, -0.8215942, -236.4833, 0.668335, 950.2294
43, neutral, 0, RollinsChapel3, 87, -90, 0, open, open, 2.021602, 0.8564696, 20.16217, 1.072021, 953.5567
44, BakerBerryHistoric2, 180, BakerBerryHistoric2, 90, -90, 1, closed, closed, 5.332205, 4.153367, 21.9696, 0.9187012, 955.9373
45, Fairbanks, 0, Fairbanks, 90, 90, 1, closed, closed, -5.091553, 0.7702237, 163.8567, 1.002441, 958.4572
46, neutral, 0, McLaughlinCluster, 82, -90, 0, closed, closed, 3.300351, -4.81485, 18.09293, 1.058044, 961.005
47, RaunerFirst, 0, PineEntrance, -90, -90, 0, open, open, 5.299057, 0.3322139, -160.0475, 1.169312, 963.5248
48, Zimmerman, -100, Zimmerman, -10, 90, 1, open, open, -5.990143, 0.9081637, 62.68964, 1.141663, 966.7688
49, MooreLot, 180, MooreLot, 90, -90, 1, closed, closed, 2.069332, -0.01422119, 26.14337, 0.9885864, 969.4838
50, RaunerBackHall, 0, RaunerBackHall, 90, 90, 1, open, open, -4.686371, 0.3841084, 161.7399, 1.656616, 972.5883
51, McLaughlinCluster, 172, McLaughlinCluster, 262, 90, 1, open, closed, -3.65448, 1.380337, 335.1038, 1.155457, 975.3171
52, PineBackHall, 180, PineBackHall, 90, -90, 1, open, closed, 4.688359, 2.160139, 21.73395, 1.099976, 977.8372
53, RollinsChapel3, 177, RollinsChapel3, 267, 90, 1, closed, closed, -2.324768, 7.392141, 343.8217, 0.9746094, 980.1761
54, Maynard, 0, McLaughlinCluster, 82, -90, 0, closed, closed, 3.664625, -4.055725, 18.02722, 1.016235, 982.5428
55, RaunerFirst, 0, RaunerFirst, 90, 90, 1, open, open, -3.934143, 2.261876, 161.9055, 1.072449, 985.3557
56, 53Commons, 0, 53Commons, 90, 90, 1, open, open, -4.384216, 2.069354, 167.7439, 1.11377, 988.7523
57, neutral, 0, Umplebys, 40, 90, 0, closed, closed, -2.269073, 4.272516, 116.6015, 0.9466553, 991.1747
58, neutral, 0, PineEntrance, -90, -90, 0, open, open, 5.648067, 3.736562, -166.7838, 1.531372, 994.3768
59, RaunerBackHall, 0, Hop2, 89, 90, 0, open, open, -4.917786, 0.6174965, 160.517, 1.043945, 998.442
60, MooreLot, 180, MooreLot, 90, -90, 1, closed, closed, 5.084886, -2.006989, 28.68286, 0.9883423, 1000.948
61, BakerBerryCharter, -90, BakerBerryCharter, -180, -90, 1, open, closed, 3.174243, -2.634766, -231.1531, 0.9053955, 1003.399
62, neutral, 0, Maynard, -90, -90, 0, open, open, 6.005631, -2.491486, -157.9093, 1.322754, 1006.503
63, neutral, 0, PineBackHall, 270, 90, 0, closed, closed, -2.854492, 3.040387, 338.9216, 1.573303, 1009.566
64, neutral, 0, BakerBerryHistoric2, 270, 90, 0, open, open, -4.907135, 6.402966, 342.1897, 1.489624, 1014.202
65, BakerBerry2nd, 94, BakerBerry2nd, 4, -90, 1, closed, closed, 6.851132, -0.8093872, -49.91003, 1.350342, 1018.072
66, BakerBerryHistoric2, 180, RollinsChapel3, 87, -90, 0, open, open, 4.144457, -0.7124023, 20.53314, 1.044617, 1020.676
67, PineEntrance, 0, PineEntrance, 90, 90, 1, closed, closed, -4.445038, 3.796864, 156.1662, 0.9189453, 1023.085
68, neutral, 0, 53Commons, -90, -90, 0, closed, closed, 5.235026, -2.20163, -154.8007, 1.044067, 1025.591
69, neutral, 0, MooreLot, 270, 90, 0, open, open, -4.296631, 2.879223, 336.9171, 1.253174, 1029.28
70, Fairbanks, 0, Fairbanks, 90, 90, 1, closed, closed, -5.332214, 1.228524, 161.3411, 1.016602, 1032.106
71, neutral, 0, BakerBerry2nd, 184, 90, 0, open, open, -2.641663, 5.813773, 249.0973, 1.22522, 1064.782
72, PineEntrance, 0, AllenSt, 90, 90, 0, closed, closed, -4.352173, 3.389541, 149.7934, 1.2948, 1067.859
73, PineBackHall, 180, Fairbanks, 90, 90, 0, closed, closed, -4.91037, 2.348892, 152.5178, 1.016357, 1070.379
74, AllenSt, 0, Zimmerman, -10, 90, 0, open, open, -5.467346, 3.39559, 55.9832, 1.085693, 1072.954
75, Hop4, -3, RollinsChapel3, 267, 90, 0, closed, closed, -1.878204, 8.915498, 335.6554, 1.08606, 1075.948
76, BakerBerryHistoric2, 180, RaunerFirst, 90, 90, 0, open, open, -3.120392, 4.904078, 158.1678, 1.100098, 1078.398
77, neutral, 0, BakerBerryCharter, -180, -90, 0, open, closed, 3.993029, 5.686093, -254.7645, 1.977051, 1082.018
78, PineEntrance, 0, PineEntrance, -90, -90, 1, open, open, 4.335923, 3.012407, -168.8708, 1.684814, 1086.041
79, McLaughlinCluster, 172, McLaughlinCluster, 82, -90, 1, closed, closed, 3.979291, -3.682098, 18.76685, 0.9467773, 1089.438
80, Maynard, 0, Maynard, -90, -90, 1, open, open, 6.124959, -0.4761047, -162.5069, 1.21106, 1091.986
81, neutral, 0, RollinsChapel3, 267, 90, 0, closed, closed, -2.235687, 7.277317, 333.7228, 1.030273, 1094.367
82, PineEntrance, 0, BakerBerryCharter, -180, -90, 0, open, open, 4.196383, 1.487646, -251.4259, 1.684814, 1097.68
83, Umplebys, -50, AllenSt, -90, -90, 0, open, open, 4.698181, -1.272949, -160.7222, 1.210815, 1100.966
84, neutral, 0, BakerBerryHistoric2, 90, -90, 0, closed, closed, 4.413292, 1.40788, 25.26505, 0.9887695, 1103.723
85, 53Commons, 0, 53Commons, -90, -90, 1, closed, closed, 5.670214, -3.713623, -154.4373, 0.8352051, 1106.145
86, MooreLot, 180, Hop4, -93, -90, 0, open, open, 4.50721, 1.624079, -161.2401, 1.072144, 1108.762
87, Hop2, -1, Umplebys, -140, -90, 0, open, open, 4.017788, 1.791453, -209.3989, 1.489746, 1111.561
88, 53Commons, 0, McLaughlinCluster, 262, 90, 0, open, closed, -3.833282, 7.661578, 338.4992, 1.43396, 1114.345
89, RaunerBackHall, 0, RaunerBackHall, -90, -90, 1, closed, closed, 6.794374, -0.5568848, -148.923, 0.9604492, 1116.74
90, Fairbanks, 0, Fairbanks, -90, -90, 1, open, closed, 5.910748, -3.058624, -156.5889, 1.336426, 1119.566
91, Zimmerman, -100, Zimmerman, -190, -90, 1, closed, closed, 5.922691, -2.180695, -260.1544, 1.071899, 1123.645
92, Hop2, -1, Hop2, 89, 90, 1, open, closed, -4.101624, 4.149465, 157.5781, 1.22522, 1126.291
93, AllenSt, 0, AllenSt, 90, 90, 1, closed, closed, -5.774567, 3.190477, 154.5319, 1.183716, 1129.159
94, BakerBerry2nd, 94, BakerBerry2nd, 184, 90, 1, open, open, -5.666656, 3.381066, 251.1059, 0.9468994, 1131.79
95, neutral, 0, PineEntrance, 90, 90, 0, closed, closed, -6.631836, 3.686013, 156.9276, 0.8909912, 1134.212
96, PineBackHall, 180, PineBackHall, 270, 90, 1, closed, closed, -6.051544, 4.507663, 336.5625, 0.9190674, 1136.621
97, Zimmerman, -100, Zimmerman, -190, -90, 1, closed, closed, 8.805404, -2.590179, -260.9818, 1.002075, 1138.96
98, RollinsChapel3, 177, Maynard, 90, 90, 0, closed, closed, -4.274902, 1.163291, 153.0759, 1.072144, 1141.396
99, MooreLot, 180, MooreLot, 270, 90, 1, open, open, -2.829132, 3.910978, 335.0321, 1.21167, 1144.056
100, RollinsChapel3, 177, RollinsChapel3, 87, -90, 1, open, open, 3.663396, -0.4829712, 18.24774, 0.8771973, 1146.213
101, neutral, 0, RaunerFirst, 90, 90, 0, open, open, -4.976379, 0.6397465, 153.2397, 0.9886475, 1148.511
102, neutral, 0, Fairbanks, 90, 90, 0, closed, closed, -5.628998, 2.064201, 156.7717, 0.8771973, 1150.863
103, neutral, 0, 53Commons, 90, 90, 0, open, open, -4.982361, 2.902285, 158.607, 0.9467773, 1153.119
104, BakerBerryCharter, -90, BakerBerryCharter, 0, 90, 1, closed, closed, -4.807068, 2.450686, 68.30302, 1.224976, 1155.792
105, PineEntrance, 0, PineEntrance, -90, -90, 1, open, open, 4.201213, 2.514562, -166.6013, 1.378296, 1158.479
106, BakerBerryHistoric2, 180, BakerBerryHistoric2, 270, 90, 1, open, closed, -3.301636, 6.045465, 337.5147, 1.46167, 1161.597
107, neutral, 0, Zimmerman, -10, 90, 0, open, open, -4.385925, 0.6212541, 64.09041, 1.36438, 1191.543
108, neutral, 0, BakerBerry2nd, 4, -90, 0, closed, closed, 6.028049, -1.221985, -65.08429, 0.9328613, 1194.244
109, McLaughlinCluster, 172, McLaughlinCluster, 82, -90, 1, closed, closed, 3.63947, -5.116211, 26.37457, 1.39209, 1197.209
110, BakerBerry2nd, 94, PineBackHall, 90, -90, 0, open, closed, 5.935428, 0.8655013, 29.5939, 1.196899, 1199.98
111, neutral, 0, Hop4, -93, -90, 0, open, open, 5.961756, 0.2897677, -163.0126, 1.183472, 1202.639
112, MooreLot, 180, MooreLot, 270, 90, 1, open, open, -2.840973, 2.987955, 336.8226, 1.155396, 1205.243
113, neutral, 0, PineBackHall, 90, -90, 0, open, closed, 6.721931, 2.052798, 10.08002, 1.100098, 1207.721
114, neutral, 0, Maynard, 90, 90, 0, closed, closed, -4.949677, 2.37532, 156.1321, 0.9193115, 1209.893
115, BakerBerryCharter, -90, MooreLot, 90, -90, 0, closed, closed, 5.507979, 0.9387301, 13.31555, 1.030029, 1212.218
116, neutral, 0, RaunerBackHall, 90, 90, 0, open, open, -4.397888, 3.922102, 158.8262, 0.9327393, 1214.445
117, Fairbanks, 0, BakerBerry2nd, 4, -90, 0, closed, closed, 7.703353, 0.9633027, -73.27051, 0.9189453, 1216.965
118, Umplebys, -50, Umplebys, 40, 90, 1, closed, closed, -4.355499, 4.748539, 108.196, 0.9328613, 1219.263
119, neutral, 0, MooreLot, 90, -90, 0, closed, closed, 5.60874, 1.038173, 11.19101, 0.8493652, 1221.351
120, Maynard, 0, PineEntrance, 90, 90, 0, closed, closed, -6.320435, 0.6156943, 151.7578, 0.8354492, 1224.316
121, neutral, 0, McLaughlinCluster, 262, 90, 0, open, open, -3.967712, 5.810895, 331.1395, 1.25293, 1227.588
122, RaunerFirst, 0, RaunerFirst, -90, -90, 1, closed, closed, 5.425003, 1.780134, -166.783, 0.9328613, 1230.206
123, RaunerBackHall, 0, RaunerBackHall, -90, -90, 1, closed, closed, 6.389217, 1.509857, -162.8381, 0.7794189, 1232.377
124, Hop4, -3, Hop4, 87, 90, 1, closed, closed, -2.947906, 2.064984, 155.4479, 0.5426025, 1235.37
125, neutral, 0, Hop2, -91, -90, 0, closed, closed, 5.059062, -0.9694519, -162.5257, 0.6542969, 1238.879
126, RaunerFirst, 0, BakerBerryHistoric2, 90, -90, 0, closed, closed, 4.908374, 0.4574282, 20.86572, 0.8215332, 1241.608
127, AllenSt, 0, AllenSt, 90, 90, 1, closed, closed, -3.751221, 4.57521, 151.6681, 0.8074951, 1243.807
128, Hop4, -3, Hop4, 87, 90, 1, closed, closed, -4.633575, 3.286687, 152.093, 0.6265869, 1245.84
129, BakerBerryHistoric2, 180, BakerBerryHistoric2, 270, 90, 1, open, open, -5.461151, 9.007127, 338.5934, 0.9885254, 1249.112
130, neutral, 0, AllenSt, -90, -90, 0, open, open, 5.211213, -0.7507935, -163.065, 1.085693, 1251.451
131, BakerBerry2nd, 94, BakerBerry2nd, 184, 90, 1, open, open, -5.68457, 5.12728, 251.4787, 0.8913574, 1253.693
132, Maynard, 0, Maynard, -90, -90, 1, open, open, 6.126107, -1.072571, -164.7293, 0.9327393, 1256.045
133, McLaughlinCluster, 172, 53Commons, 90, 90, 0, open, open, -3.965118, 1.336304, 150.1714, 1.086182, 1258.454
134, BakerBerryCharter, -90, BakerBerryCharter, 0, 90, 1, closed, closed, -5.963287, 2.449844, 64.28766, 0.7376709, 1260.417
135, PineBackHall, 180, PineBackHall, 270, 90, 1, closed, closed, -6.843018, 1.803227, 332.8363, 0.7241211, 1262.477
136, neutral, 0, Umplebys, -140, -90, 0, open, open, 6.127635, -2.980621, -211.5487, 0.8492432, 1264.802
137, 53Commons, 0, 53Commons, -90, -90, 1, closed, closed, 5.453701, -1.838348, -150.3865, 1.085938, 1267.294
138, RaunerBackHall, 0, Hop2, -91, -90, 0, closed, closed, 6.143904, -0.3960571, -159.1943, 0.8770752, 1269.369
139, RollinsChapel3, 177, RollinsChapel3, 87, -90, 1, open, open, 5.037745, -1.782898, 18.21436, 0.8074951, 1271.443
140, Hop2, -1, Hop2, 89, 90, 1, open, open, -5.264709, 2.931284, 152.8571, 1.795898, 1274.478
141, Fairbanks, 0, Fairbanks, -90, -90, 1, open, open, 5.146088, -4.153839, -157.6013, 1.155518, 1277.875
142, RaunerFirst, 0, RaunerFirst, -90, -90, 1, closed, closed, 6.227033, -1.400513, -155.8285, 1.099854, 1280.326
143, Umplebys, -50, Umplebys, 40, 90, 1, closed, closed, -5.529053, 1.336945, 105.3619, 0.8209229, 1282.47
144, Zimmerman, -100, RaunerBackHall, 90, 90, 0, open, open, -5.29184, 1.863, 157.7904, 1.099976, 1284.85
