trialIdx, primeName, primeAngleYaw, targetName, targetAngleYaw, targetSide, sameScenePrime, correctResponse, response, roll, pitch, yaw, rt, timestamp
1, PineBackHall, 180, MooreLot, 270, 90, 0, open, open, -4.320404, 3.213332, 338.0912, 1.378357, 652.7203
2, PineEntrance, 0, PineEntrance, 90, 90, 1, closed, closed, -5.831024, 10.0155, 159.8456, 1.15564, 660.2385
3, Umplebys, -50, Umplebys, -140, -90, 1, open, open, 5.808103, 5.136328, -220.239, 1.0578, 666.9626
4, Hop2, -1, Hop2, -91, -90, 1, closed, closed, 6.390485, 6.679666, -174.3278, 0.9047852, 669.942
5, neutral, 0, BakerBerryCharter, 0, 90, 0, closed, closed, -3.689758, 7.427092, 69.10664, 0.8356323, 672.4344
6, Hop2, -1, Hop2, -91, -90, 1, closed, closed, 5.099733, 7.528832, -174.4704, 1.030212, 674.9959
7, Fairbanks, 0, BakerBerryCharter, 0, 90, 0, closed, closed, -3.450378, 8.026739, 65.64956, 1.614868, 678.2399
8, RaunerFirst, 0, RaunerFirst, 90, 90, 1, open, open, -3.930756, 7.005953, 157.3905, 1.545227, 681.3167
9, 53Commons, 0, 53Commons, 90, 90, 1, open, open, -3.670563, 6.791465, 160.6219, 1.099792, 684.6997
10, RollinsChapel3, 177, RollinsChapel3, 267, 90, 1, closed, closed, -2.859192, 7.406733, 336.7359, 1.225159, 687.4424
11, neutral, 0, Hop4, 87, 90, 0, closed, closed, -4.413574, 11.24897, 160.1147, 1.086243, 690.0321
12, neutral, 0, RaunerFirst, -90, -90, 0, closed, closed, 3.376986, 4.508636, -169.0964, 1.392395, 692.9557
13, Umplebys, -50, Umplebys, -140, -90, 1, open, open, 3.209122, 6.008755, -220.6065, 1.03064, 695.2253
14, BakerBerry2nd, 94, BakerBerry2nd, 4, -90, 1, closed, closed, 5.135415, 7.549732, -78.31247, 1.030457, 697.6197
15, McLaughlinCluster, 172, Maynard, -90, -90, 0, open, open, 5.470062, 5.66733, -172.8993, 1.058289, 699.9031
16, Hop2, -1, Hop4, 87, 90, 0, closed, closed, -3.243011, 9.11727, 154.5427, 1.211487, 702.2977
17, neutral, 0, RaunerBackHall, -90, -90, 0, closed, closed, 4.782274, 8.890454, -171.3639, 1.002502, 704.5392
18, 53Commons, 0, Fairbanks, -90, -90, 0, open, open, 7.699433, 4.792505, -169.0727, 1.545593, 709.0222
19, Maynard, 0, Maynard, 90, 90, 1, closed, closed, -4.444061, 7.053224, 157.3518, 1.600952, 712.5721
20, AllenSt, 0, AllenSt, -90, -90, 1, open, open, 5.114644, 6.864409, -171.395, 1.169678, 715.2733
21, Hop4, -3, BakerBerry2nd, 184, 90, 0, open, open, -2.690155, 8.895303, 254.4589, 1.238892, 717.9323
22, BakerBerry2nd, 94, BakerBerryHistoric2, 270, 90, 0, open, closed, -3.774078, 10.87401, 343.9954, 4.427368, 723.8773
23, Hop4, -3, Hop4, -93, -90, 1, open, open, 4.293182, 7.752585, -169.8071, 1.294861, 726.4667
24, MooreLot, 180, 53Commons, -90, -90, 0, closed, closed, 5.455847, 4.736425, -167.3546, 1.33667, 728.931
25, neutral, 0, Zimmerman, -190, -90, 0, closed, closed, 6.24539, 6.08914, -271.5069, 1.155518, 731.4507
26, AllenSt, 0, RaunerFirst, -90, -90, 0, closed, closed, 6.629749, 8.51041, -172.0207, 1.044434, 733.7064
27, RollinsChapel3, 177, Zimmerman, -190, -90, 0, closed, closed, 5.725364, 5.882457, -272.6736, 0.9466553, 735.7806
28, Maynard, 0, Maynard, 90, 90, 1, closed, closed, -2.029663, 4.619632, 162.5692, 1.573242, 738.593
29, neutral, 0, AllenSt, 90, 90, 0, closed, closed, -0.9368896, 7.059823, 157.9902, 1.322937, 741.0435
30, BakerBerryHistoric2, 180, BakerBerryHistoric2, 90, -90, 1, closed, closed, 3.927058, 10.17038, 13.22552, 1.072205, 743.2155
31, PineBackHall, 180, PineBackHall, 90, -90, 1, open, closed, 5.432663, 10.50141, 8.336975, 1.183289, 745.5123
32, RaunerBackHall, 0, RaunerBackHall, 90, 90, 1, open, open, -3.085052, 11.62755, 163.5235, 1.239319, 747.8793
33, BakerBerryCharter, -90, PineBackHall, 270, 90, 0, closed, closed, -2.570007, 12.8606, 341.2353, 1.099854, 750.1487
34, neutral, 0, Fairbanks, -90, -90, 0, open, open, 4.609615, 6.542077, -169.0918, 0.9051514, 752.1536
35, neutral, 0, Hop2, 89, 90, 0, open, open, -5.877625, 7.175097, 157.0273, 1.266724, 765.6161
36, Zimmerman, -100, Umplebys, 40, 90, 0, closed, closed, -3.362549, 8.333075, 111.7245, 1.072144, 767.8577
37, AllenSt, 0, AllenSt, -90, -90, 1, open, open, 5.942616, 6.092411, -170.9614, 1.113892, 770.1411
38, Umplebys, -50, RaunerBackHall, -90, -90, 0, closed, closed, 7.048941, 7.921997, -171.3176, 1.016174, 772.2291
39, Hop4, -3, Hop4, -93, -90, 1, open, open, 5.396072, 8.803796, -172.56, 1.155396, 774.4987
40, McLaughlinCluster, 172, McLaughlinCluster, 262, 90, 1, open, closed, -2.385193, 11.12514, 336.1211, 1.225098, 776.7678
41, Zimmerman, -100, Zimmerman, -10, 90, 1, open, open, -3.296295, 4.879606, 62.6067, 1.628906, 779.5664
42, BakerBerryCharter, -90, BakerBerryCharter, -180, -90, 1, open, open, 3.94968, 10.13104, -258.9184, 1.197754, 781.9055
43, neutral, 0, RollinsChapel3, 87, -90, 0, open, open, 3.085301, 4.755755, 10.20251, 1.434021, 784.4531
44, BakerBerryHistoric2, 180, BakerBerryHistoric2, 90, -90, 1, closed, closed, 4.780523, 9.35471, 10.11005, 1.030273, 786.5415
45, Fairbanks, 0, Fairbanks, 90, 90, 1, closed, closed, -4.358643, 4.968656, 160.5403, 1.573364, 789.1729
46, neutral, 0, McLaughlinCluster, 82, -90, 0, closed, closed, 4.467656, -3.020538, -2.900024, 2.659241, 792.8623
47, RaunerFirst, 0, PineEntrance, -90, -90, 0, open, open, 3.616107, 6.53557, -170.9134, 1.30896, 795.4101
48, Zimmerman, -100, Zimmerman, -10, 90, 1, open, open, -2.403717, 6.050659, 62.66447, 1.113831, 797.6791
49, MooreLot, 180, MooreLot, 90, -90, 1, closed, closed, 1.589879, 7.52137, 10.90326, 1.016418, 799.7675
50, RaunerBackHall, 0, RaunerBackHall, 90, 90, 1, open, open, -2.450958, 10.38432, 161.9126, 1.100037, 801.9536
51, McLaughlinCluster, 172, McLaughlinCluster, 262, 90, 1, open, closed, -1.984863, 8.757141, 331.6206, 2.06073, 805.1833
52, PineBackHall, 180, PineBackHall, 90, -90, 1, open, closed, 4.030696, 11.80184, 5.484161, 1.294922, 807.8843
53, RollinsChapel3, 177, RollinsChapel3, 267, 90, 1, closed, closed, 0.9977928, 11.88488, 337.5428, 1.475769, 810.5154
54, Maynard, 0, McLaughlinCluster, 82, -90, 0, closed, closed, 1.49688, 0.871426, 10.33594, 1.225464, 812.9104
55, RaunerFirst, 0, RaunerFirst, 90, 90, 1, open, open, -2.390717, 10.38622, 159.3448, 1.253052, 815.2771
56, 53Commons, 0, 53Commons, 90, 90, 1, open, open, -1.614319, 8.2022, 162.1491, 1.322937, 817.7414
57, neutral, 0, Umplebys, 40, 90, 0, closed, closed, -1.983551, 9.488751, 115.6636, 1.142029, 819.8438
58, neutral, 0, PineEntrance, -90, -90, 0, open, open, 3.786495, 8.423012, -169.8447, 1.100037, 822.0435
59, RaunerBackHall, 0, Hop2, 89, 90, 0, open, open, -3.437134, 10.14215, 162.1241, 1.280884, 824.4517
60, MooreLot, 180, MooreLot, 90, -90, 1, closed, closed, 3.225064, 8.597078, 12.59845, 1.183716, 826.7074
61, BakerBerryCharter, -90, BakerBerryCharter, -180, -90, 1, open, open, 5.525972, 10.38926, -256.943, 1.295166, 829.0185
62, neutral, 0, Maynard, -90, -90, 0, open, open, 5.897648, 5.578425, -169.7723, 1.225159, 831.3853
63, neutral, 0, PineBackHall, 270, 90, 0, closed, closed, -2.211609, 10.16903, 338.4227, 1.211121, 833.5847
64, neutral, 0, BakerBerryHistoric2, 270, 90, 0, open, open, -1.850555, 12.1351, 339.5013, 1.099854, 835.7983
65, BakerBerry2nd, 94, BakerBerry2nd, 4, -90, 1, closed, closed, 4.251209, 9.584058, -73.5524, 1.002563, 837.9287
66, BakerBerryHistoric2, 180, RollinsChapel3, 87, -90, 0, open, open, 3.396688, 7.361876, 13.68213, 1.043945, 840.0864
67, PineEntrance, 0, PineEntrance, 90, 90, 1, closed, closed, -2.11496, 14.35103, 156.6884, 0.9465942, 842.1609
68, neutral, 0, 53Commons, -90, -90, 0, closed, closed, 2.919812, 7.450128, -163.0102, 1.044312, 844.3467
69, neutral, 0, MooreLot, 270, 90, 0, open, open, -6.015961, 2.008883, 352.9223, 2.255432, 847.5627
70, Fairbanks, 0, Fairbanks, 90, 90, 1, closed, closed, -2.909454, 5.033249, 163.1972, 1.308899, 850.0134
71, neutral, 0, BakerBerry2nd, 184, 90, 0, open, open, -5.299438, 8.321989, 255.4721, 1.100037, 859.9818
72, PineEntrance, 0, AllenSt, 90, 90, 0, closed, closed, -4.492401, 11.037, 159.5055, 1.114075, 862.1814
73, PineBackHall, 180, Fairbanks, 90, 90, 0, closed, closed, -6.501801, 6.975253, 160.7914, 1.072144, 864.3393
74, AllenSt, 0, Zimmerman, -10, 90, 0, open, open, -7.755798, 5.76858, 60.69049, 1.072205, 866.5251
75, Hop4, -3, RollinsChapel3, 267, 90, 0, closed, closed, -3.52243, 8.98452, 337.4911, 1.211304, 868.864
76, BakerBerryHistoric2, 180, RaunerFirst, 90, 90, 0, open, open, -5.720642, 10.02652, 159.9473, 1.281189, 871.2726
77, neutral, 0, BakerBerryCharter, -180, -90, 0, open, open, 5.18643, 8.388068, -255.0282, 1.016418, 873.347
78, PineEntrance, 0, PineEntrance, -90, -90, 1, open, open, 7.36085, 6.79515, -168.1082, 1.099792, 875.6161
79, McLaughlinCluster, 172, McLaughlinCluster, 82, -90, 1, closed, closed, 5.776604, -0.9510498, 9.711548, 1.155457, 877.8716
80, Maynard, 0, Maynard, -90, -90, 1, open, open, 6.14372, 3.193701, -164.6738, 1.113586, 880.113
81, neutral, 0, RollinsChapel3, 267, 90, 0, closed, closed, -2.959839, 8.954053, 336.8915, 1.308594, 882.5912
82, PineEntrance, 0, BakerBerryCharter, -180, -90, 0, open, open, 5.477424, 5.176863, -256.7894, 1.11377, 884.819
83, Umplebys, -50, AllenSt, -90, -90, 0, open, open, 5.665383, 6.68463, -166.9601, 1.183167, 887.116
84, neutral, 0, BakerBerryHistoric2, 90, -90, 0, closed, closed, 6.913293, 8.852261, 13.93759, 0.9882202, 889.1903
85, 53Commons, 0, 53Commons, -90, -90, 1, closed, closed, 5.66679, 6.772394, -164.4567, 1.085876, 891.418
86, MooreLot, 180, Hop4, -93, -90, 0, open, open, 5.356777, 8.212048, -167.0365, 0.8632202, 893.3253
87, Hop2, -1, Umplebys, -140, -90, 0, open, open, 3.948941, 7.367869, -213.3832, 1.169434, 895.5809
88, 53Commons, 0, McLaughlinCluster, 262, 90, 0, open, open, -3.090851, 7.552008, 329.1921, 4.872925, 901.5397
89, RaunerBackHall, 0, RaunerBackHall, -90, -90, 1, closed, closed, 5.22359, 8.370768, -160.416, 0.9884644, 903.8785
90, Fairbanks, 0, Fairbanks, -90, -90, 1, open, open, 6.624692, 3.1364, -160.4893, 1.002502, 905.9949
91, Zimmerman, -100, Zimmerman, -190, -90, 1, closed, closed, 6.170915, 4.782195, -265.6382, 1.072327, 908.1944
92, Hop2, -1, Hop2, 89, 90, 1, open, open, -5.496124, 9.071378, 159.8574, 1.169556, 910.45
93, AllenSt, 0, AllenSt, 90, 90, 1, closed, closed, -4.884857, 8.493122, 159.601, 1.169067, 912.7469
94, BakerBerry2nd, 94, BakerBerry2nd, 184, 90, 1, open, open, -4.066742, 8.744524, 254.4982, 1.058044, 914.9327
95, neutral, 0, PineEntrance, 90, 90, 0, closed, closed, -4.666412, 10.54438, 159.9623, 0.9465942, 916.9933
96, PineBackHall, 180, PineBackHall, 270, 90, 1, closed, closed, -5.29837, 11.44419, 337.0599, 1.057922, 919.179
97, Zimmerman, -100, Zimmerman, -190, -90, 1, closed, closed, 4.875854, 5.491027, -262.5654, 1.308655, 921.5598
98, RollinsChapel3, 177, Maynard, 90, 90, 0, closed, closed, -3.395996, 6.631912, 157.1776, 1.406006, 924.0796
99, MooreLot, 180, MooreLot, 270, 90, 1, open, open, -4.587402, 4.990306, 340.087, 1.419922, 926.5997
100, RollinsChapel3, 177, RollinsChapel3, 87, -90, 1, open, open, 4.061293, 5.300861, 19.70117, 1.030273, 928.7438
101, neutral, 0, RaunerFirst, 90, 90, 0, open, open, -3.529846, 9.115479, 159.6957, 1.002502, 930.8322
102, neutral, 0, Fairbanks, 90, 90, 0, closed, closed, -4.798248, 6.051455, 157.8808, 1.364624, 933.3105
103, neutral, 0, 53Commons, 90, 90, 0, open, open, -3.803162, 5.201609, 159.7682, 1.308716, 935.7189
104, BakerBerryCharter, -90, BakerBerryCharter, 0, 90, 1, closed, closed, -4.643188, 10.83655, 66.36682, 1.099854, 937.9184
105, PineEntrance, 0, PineEntrance, -90, -90, 1, open, open, 5.777797, 7.496804, -170.5018, 1.169556, 940.188
106, BakerBerryHistoric2, 180, BakerBerryHistoric2, 270, 90, 1, open, open, -4.315063, 16.79174, 349.8167, 2.200012, 943.5573
107, neutral, 0, Zimmerman, -10, 90, 0, open, open, -8.59906, 1.797037, 56.5365, 1.253296, 957.8137
108, neutral, 0, BakerBerry2nd, 4, -90, 0, closed, closed, 6.945571, 3.905765, -65.68402, 1.072144, 959.9714
109, McLaughlinCluster, 172, McLaughlinCluster, 82, -90, 1, closed, closed, 6.573959, 1.482185, 16.4512, 1.308777, 962.3801
110, BakerBerry2nd, 94, PineBackHall, 90, -90, 0, open, open, 6.85409, 7.960045, 20.37729, 1.169739, 964.6772
111, neutral, 0, Hop4, -93, -90, 0, open, open, 5.730735, 5.564142, -162.6063, 0.9749146, 966.7657
112, MooreLot, 180, MooreLot, 270, 90, 1, open, open, -2.712433, 7.561574, 336.7751, 1.030396, 968.9097
113, neutral, 0, PineBackHall, 90, -90, 0, open, open, 5.264015, 10.65159, 10.78598, 1.002197, 970.9561
114, neutral, 0, Maynard, 90, 90, 0, closed, closed, -5.51651, 6.888311, 157.7945, 1.113647, 973.1417
115, BakerBerryCharter, -90, MooreLot, 90, -90, 0, closed, closed, 4.773513, 9.863218, 33.289, 1.127869, 975.3836
116, neutral, 0, RaunerBackHall, 90, 90, 0, open, open, -4.150848, 7.314014, 160.1073, 1.141296, 977.7221
117, Fairbanks, 0, BakerBerry2nd, 4, -90, 0, closed, closed, 4.924881, 7.113508, -60.97552, 1.071899, 979.8664
118, Umplebys, -50, Umplebys, 40, 90, 1, closed, closed, -4.726654, 9.596853, 106.9671, 1.127808, 984.2799
119, neutral, 0, MooreLot, 90, -90, 0, closed, closed, 3.736073, 8.597861, 27.88809, 0.9329834, 986.2987
120, Maynard, 0, PineEntrance, 90, 90, 0, closed, closed, -6.328247, 12.00994, 157.5557, 0.9606934, 988.387
121, neutral, 0, McLaughlinCluster, 262, 90, 0, open, open, -5.03186, 11.28583, 331.519, 1.07196, 990.5588
122, RaunerFirst, 0, RaunerFirst, -90, -90, 1, closed, closed, 5.366773, 11.37627, -164.4678, 1.030579, 992.6889
123, RaunerBackHall, 0, RaunerBackHall, -90, -90, 1, closed, closed, 7.573721, 8.546855, -167.7021, 1.086487, 994.8749
124, Hop4, -3, Hop4, 87, 90, 1, closed, closed, -5.499786, 9.872482, 151.9131, 1.211182, 997.1719
125, neutral, 0, Hop2, -91, -90, 0, closed, closed, 6.775411, 8.453738, -169.2495, 0.9606323, 999.1907
126, RaunerFirst, 0, BakerBerryHistoric2, 90, -90, 0, closed, closed, 4.690733, 9.899123, 14.02347, 1.141785, 1001.418
127, AllenSt, 0, AllenSt, 90, 90, 1, closed, closed, -4.707092, 10.12307, 154.3849, 0.890686, 1003.409
128, Hop4, -3, Hop4, 87, 90, 1, closed, closed, -5.224274, 12.3104, 148.5961, 1.099365, 1005.623
129, BakerBerryHistoric2, 180, BakerBerryHistoric2, 270, 90, 1, open, open, -3.337219, 18.28905, 339.231, 0.9884644, 1007.697
130, neutral, 0, AllenSt, -90, -90, 0, open, open, 3.975392, 6.724747, -165.0257, 1.141602, 1009.953
131, BakerBerry2nd, 94, BakerBerry2nd, 184, 90, 1, open, open, -4.260864, 12.65733, 252.21, 1.043884, 1012.11
132, Maynard, 0, Maynard, -90, -90, 1, open, open, 5.065501, 6.467614, -163.7285, 0.9331055, 1014.157
133, McLaughlinCluster, 172, 53Commons, 90, 90, 0, open, open, -4.244659, 6.98263, 162.4591, 1.002563, 1016.273
134, BakerBerryCharter, -90, BakerBerryCharter, 0, 90, 1, closed, closed, -3.624817, 10.67301, 68.50475, 1.044189, 1018.403
135, PineBackHall, 180, PineBackHall, 270, 90, 1, closed, closed, -4.286377, 11.12624, 334.0841, 0.9605713, 1020.45
136, neutral, 0, Umplebys, -140, -90, 0, open, open, 3.07483, 6.510506, -211.9964, 1.308777, 1022.817
137, 53Commons, 0, 53Commons, -90, -90, 1, closed, closed, 6.709457, 5.938058, -165.3484, 1.08606, 1024.919
138, RaunerBackHall, 0, Hop2, -91, -90, 0, closed, closed, 6.908347, 7.28841, -167.0009, 1.072144, 1027.049
139, RollinsChapel3, 177, RollinsChapel3, 87, -90, 1, open, open, 4.86533, 6.341405, 14.48816, 0.9604492, 1029.012
140, Hop2, -1, Hop2, 89, 90, 1, open, open, -4.426086, 8.802505, 154.4511, 0.9052734, 1030.961
141, Fairbanks, 0, Fairbanks, -90, -90, 1, open, open, 6.123968, 3.961242, -164.0294, 0.7381592, 1032.813
142, RaunerFirst, 0, RaunerFirst, -90, -90, 1, closed, closed, 6.167126, 6.414949, -164.4604, 0.9882813, 1034.943
143, Umplebys, -50, Umplebys, 40, 90, 1, closed, closed, -4.893768, 9.001766, 108.3341, 0.8912354, 1036.892
144, Zimmerman, -100, RaunerBackHall, 90, 90, 0, open, open, -4.814423, 8.209205, 159.3668, 1.07251, 1038.925
