trialIdx, primeName, primeAngleYaw, targetName, targetAngleYaw, targetSide, sameScenePrime, correctResponse, response, roll, pitch, yaw, rt, timestamp
1, PineBackHall, 180, MooreLot, 270, 90, 0, open, open, -16.23721, -1.34726, 349.5095, 2.444763, 579.4094
2, PineEntrance, 0, PineEntrance, 90, 90, 1, closed, open, -15.07458, 2.200319, 169.0454, 1.5, 585.1454
3, Umplebys, -50, Umplebys, -140, -90, 1, open, open, 8.536838, 4.703909, -202.9158, 1.083435, 588.7012
4, Hop2, -1, Hop2, -91, -90, 1, closed, closed, 9.823709, 4.978687, -152.1587, 1.277649, 592.7847
5, neutral, 0, BakerBerryCharter, 0, 90, 0, closed, closed, -11.27435, -0.7855225, 71.55239, 1.388916, 596.5623
6, Hop2, -1, Hop2, -91, -90, 1, closed, closed, 10.08957, 4.018697, -155.2845, 1.611084, 599.4789
7, Fairbanks, 0, BakerBerryCharter, 0, 90, 0, closed, closed, -16.09006, 0.346729, 76.77515, 1.430847, 602.7154
8, RaunerFirst, 0, RaunerFirst, 90, 90, 1, open, closed, -10.5448, -0.4460754, 160.2321, 1.764099, 605.9236
9, 53Commons, 0, 53Commons, 90, 90, 1, open, open, -13.69418, -1.125336, 167.7742, 1.430298, 609.854
10, RollinsChapel3, 177, RollinsChapel3, 267, 90, 1, closed, closed, -11.89362, 2.991213, 342.8227, 1.347168, 612.5348
11, neutral, 0, Hop4, 87, 90, 0, closed, closed, -14.85562, -3.035126, 162.2688, 1.097473, 615.2571
12, neutral, 0, RaunerFirst, -90, -90, 0, closed, open, 10.4608, 2.853161, -153.1372, 1.624878, 618.1042
13, Umplebys, -50, Umplebys, -140, -90, 1, open, open, 10.55489, 4.816293, -204.2161, 1.361206, 620.6739
14, BakerBerry2nd, 94, BakerBerry2nd, 4, -90, 1, closed, closed, 9.908665, 6.851544, -57.34717, 2.416626, 624.2571
15, McLaughlinCluster, 172, Maynard, -90, -90, 0, open, open, 7.611506, 4.097002, -150.1684, 1.666748, 627.6043
16, Hop2, -1, Hop4, 87, 90, 0, closed, closed, -3.765503, -1.715729, 145.7004, 1.375366, 630.6185
17, neutral, 0, RaunerBackHall, -90, -90, 0, closed, closed, 6.991867, 4.759363, -150.3034, 1.402466, 633.5072
18, 53Commons, 0, Fairbanks, -90, -90, 0, open, open, 8.01919, 0.7257725, -145.7337, 1.41687, 636.4518
19, Maynard, 0, Maynard, 90, 90, 1, closed, closed, -13.55157, 0.7710513, 157.3209, 1.70813, 639.5352
20, AllenSt, 0, AllenSt, -90, -90, 1, open, open, 8.197292, 5.758943, -154.9463, 1.65271, 642.7712
21, Hop4, -3, BakerBerry2nd, 184, 90, 0, open, open, -13.31396, 7.943688, 258.4017, 1.291443, 645.535
22, BakerBerry2nd, 94, BakerBerryHistoric2, 270, 90, 0, open, open, -20.00806, 11.39996, 350.0706, 2.305542, 649.6603
23, Hop4, -3, Hop4, -93, -90, 1, open, open, 7.662875, 7.113953, -156.6844, 1.305725, 652.6744
24, MooreLot, 180, 53Commons, -90, -90, 0, closed, open, 11.36209, 5.034039, -151.3148, 1.208313, 655.2159
25, neutral, 0, Zimmerman, -190, -90, 0, closed, open, 9.071678, 2.824626, -249.4109, 1.264038, 657.9108
26, AllenSt, 0, RaunerFirst, -90, -90, 0, closed, closed, 9.795165, 3.421472, -149.2935, 1.263733, 660.6882
27, RollinsChapel3, 177, Zimmerman, -190, -90, 0, closed, open, 10.36944, 1.841839, -250.4122, 1.319458, 663.6744
28, Maynard, 0, Maynard, 90, 90, 1, closed, closed, -14.21069, 1.865032, 157.6016, 1.125061, 665.8829
29, neutral, 0, AllenSt, 90, 90, 0, closed, closed, -10.81238, 4.00453, 163.6571, 2.639282, 670.4252
30, BakerBerryHistoric2, 180, BakerBerryHistoric2, 90, -90, 1, closed, closed, 7.449973, 4.449658, 28.4201, 0.944458, 672.5914
31, PineBackHall, 180, PineBackHall, 90, -90, 1, open, open, 8.59743, 5.277837, 28.03217, 1.555359, 675.0635
32, RaunerBackHall, 0, RaunerBackHall, 90, 90, 1, open, open, -21.28363, 1.702296, 167.6582, 1.374878, 677.7995
33, BakerBerryCharter, -90, PineBackHall, 270, 90, 0, closed, closed, -15.09915, 7.248466, 344.2779, 1.360962, 680.0494
34, neutral, 0, Fairbanks, -90, -90, 0, open, open, 10.88127, 3.961141, -154.1243, 1.153015, 682.3971
35, neutral, 0, Hop2, 89, 90, 0, open, open, -5.374023, -3.95993, 179.37, 3.675781, 713.6682
36, Zimmerman, -100, Umplebys, 40, 90, 0, closed, open, -1.97876, 11.8861, 132.1505, 2.11615, 717.3577
37, AllenSt, 0, AllenSt, -90, -90, 1, open, open, 14.07994, 7.600529, -144.736, 1.434326, 719.9752
38, Umplebys, -50, RaunerBackHall, -90, -90, 0, closed, closed, 11.25229, 5.572412, -133.449, 1.183472, 722.356
39, Hop4, -3, Hop4, -93, -90, 1, open, open, 11.32531, 6.971937, -139.1099, 1.18335, 724.8895
40, McLaughlinCluster, 172, McLaughlinCluster, 262, 90, 1, open, open, -11.41888, 4.73649, 353.9478, 1.754272, 728.3005
41, Zimmerman, -100, Zimmerman, -10, 90, 1, open, open, -11.44693, -1.770813, 74.28043, 1.573242, 731.1127
42, BakerBerryCharter, -90, BakerBerryCharter, -180, -90, 1, open, open, 12.76409, 11.11756, -242.014, 1.531372, 733.8277
43, neutral, 0, RollinsChapel3, 87, -90, 0, open, open, 10.75087, 7.880515, 36.495, 1.40625, 736.7653
44, BakerBerryHistoric2, 180, BakerBerryHistoric2, 90, -90, 1, closed, closed, 11.37188, 6.666321, 42, 1.336914, 739.5778
45, Fairbanks, 0, Fairbanks, 90, 90, 1, closed, open, -4.663788, 0.5789051, 179.5215, 1.211487, 741.9583
46, neutral, 0, McLaughlinCluster, 82, -90, 0, closed, open, 10.37186, 6.344976, 33.41956, 1.183105, 744.687
47, RaunerFirst, 0, PineEntrance, -90, -90, 0, open, open, 16.09825, 9.75174, -143.4968, 1.698547, 747.6666
48, Zimmerman, -100, Zimmerman, -10, 90, 1, open, open, -9.354156, 0.5261331, 77.75065, 0.9468994, 750.2142
49, MooreLot, 180, MooreLot, 90, -90, 1, closed, closed, 17.73262, 10.66605, 37.94464, 1.364441, 752.9847
50, RaunerBackHall, 0, RaunerBackHall, 90, 90, 1, open, open, -11.58304, -1.987762, 177.8499, 1.086304, 754.9899
51, McLaughlinCluster, 172, McLaughlinCluster, 262, 90, 1, open, closed, -8.818726, 4.896193, 355.3214, 1.280701, 757.7321
52, PineBackHall, 180, PineBackHall, 90, -90, 1, open, open, 13.0953, 5.997073, 18.94293, 1.823547, 761.0178
53, RollinsChapel3, 177, RollinsChapel3, 267, 90, 1, closed, open, -10.44769, -2.151459, 352.326, 1.239014, 763.3987
54, Maynard, 0, McLaughlinCluster, 82, -90, 0, closed, open, 13.99384, 8.524661, 31.63449, 1.948853, 766.5728
55, RaunerFirst, 0, RaunerFirst, 90, 90, 1, open, open, -8.515656, 0.4978041, 173.6851, 1.378296, 769.4269
56, 53Commons, 0, 53Commons, 90, 90, 1, open, open, -4.857117, 2.013434, 170.1492, 1.002563, 771.9328
57, neutral, 0, Umplebys, 40, 90, 0, closed, closed, -4.144531, 3.120143, 123.3368, 1.796082, 775.0376
58, neutral, 0, PineEntrance, -90, -90, 0, open, open, 13.76418, 8.226065, -142.7078, 1.517517, 777.9336
59, RaunerBackHall, 0, Hop2, 89, 90, 0, open, closed, -6.209198, -4.226959, 166.572, 2.004761, 781.1356
60, MooreLot, 180, MooreLot, 90, -90, 1, closed, closed, 19.48122, 6.920572, 40.35782, 1.489502, 784.1426
61, BakerBerryCharter, -90, BakerBerryCharter, -180, -90, 1, open, closed, 7.652155, 10.98236, -229.0401, 1.921265, 786.9551
62, neutral, 0, Maynard, -90, -90, 0, open, open, 11.50396, 7.127141, -136.325, 1.086182, 789.4335
63, neutral, 0, PineBackHall, 270, 90, 0, closed, closed, -3.864563, -4.951294, 351.7772, 1.476135, 792.2458
64, neutral, 0, BakerBerryHistoric2, 270, 90, 0, open, open, -11.25458, -0.1548767, 358.9183, 1.531311, 795.7957
65, BakerBerry2nd, 94, BakerBerry2nd, 4, -90, 1, closed, closed, 20.61164, -0.6314392, -60.86536, 2.074524, 799.0398
66, BakerBerryHistoric2, 180, RollinsChapel3, 87, -90, 0, open, open, 19.20043, 7.982475, 43.50812, 1.879211, 801.8938
67, PineEntrance, 0, PineEntrance, 90, 90, 1, closed, closed, -11.1355, 3.678082, 177.0518, 1.476074, 805.2492
68, neutral, 0, 53Commons, -90, -90, 0, closed, open, 24.85554, -3.747223, -147.0032, 1.155273, 807.6573
69, neutral, 0, MooreLot, 270, 90, 0, open, open, -5.487091, 1.835196, 352.6372, 1.253174, 810.2194
70, Fairbanks, 0, Fairbanks, 90, 90, 1, closed, open, -7.881561, 0.1556615, 170.4941, 1.253174, 812.5861
71, neutral, 0, BakerBerry2nd, 184, 90, 0, open, open, -15.74738, 1.016121, 267.5144, 1.127991, 839.9016
72, PineEntrance, 0, AllenSt, 90, 90, 0, closed, closed, -11.10193, 20.84161, 168.9477, 1.990967, 843.6463
73, PineBackHall, 180, Fairbanks, 90, 90, 0, closed, open, -8.160278, 1.75524, 158.6674, 1.294861, 846.1384
74, AllenSt, 0, Zimmerman, -10, 90, 0, open, open, -10.24689, 2.336338, 62.03069, 1.100037, 848.9786
75, Hop4, -3, RollinsChapel3, 267, 90, 0, closed, open, -18.005, -0.4145813, 344.0565, 1.07196, 851.4567
76, BakerBerryHistoric2, 180, RaunerFirst, 90, 90, 0, open, open, -15.63251, 1.303411, 168.3545, 1.183411, 853.5173
77, neutral, 0, BakerBerryCharter, -180, -90, 0, open, open, 10.70208, 4.131706, -239.6534, 1.2948, 856.1066
78, PineEntrance, 0, PineEntrance, -90, -90, 1, open, open, 13.29645, 11.09691, -156.7957, 1.100037, 858.4736
79, McLaughlinCluster, 172, McLaughlinCluster, 82, -90, 1, closed, open, 9.560829, 5.183677, 21.9985, 1.22522, 861.1187
80, Maynard, 0, Maynard, -90, -90, 1, open, open, 10.51903, 9.496932, -149.97, 1.294739, 863.764
81, neutral, 0, RollinsChapel3, 267, 90, 0, closed, open, -19.37253, 1.160329, 348.5684, 1.252991, 866.3536
82, PineEntrance, 0, BakerBerryCharter, -180, -90, 0, open, open, 12.72359, 8.010604, -241.4549, 1.238953, 868.804
83, Umplebys, -50, AllenSt, -90, -90, 0, open, open, 12.06168, 9.12255, -151.4766, 1.072327, 871.0735
84, neutral, 0, BakerBerryHistoric2, 90, -90, 0, closed, closed, 12.6934, 5.284321, 32.31647, 1.266968, 873.6211
85, 53Commons, 0, 53Commons, -90, -90, 1, closed, open, 11.63756, 5.844613, -147.5571, 0.9186401, 875.6674
86, MooreLot, 180, Hop4, -93, -90, 0, open, open, 12.07363, 12.66616, -155.3831, 0.9606323, 878.3127
87, Hop2, -1, Umplebys, -140, -90, 0, open, open, 8.863948, 4.281207, -200.1349, 1.308533, 880.777
88, 53Commons, 0, McLaughlinCluster, 262, 90, 0, open, open, -16.21884, 3.141062, 346.7768, 1.030212, 883.0464
89, RaunerBackHall, 0, RaunerBackHall, -90, -90, 1, closed, closed, 8.902146, 4.031057, -149.681, 1.072205, 885.3436
90, Fairbanks, 0, Fairbanks, -90, -90, 1, open, open, 6.578993, 2.362992, -141.4265, 0.9325562, 887.2509
91, Zimmerman, -100, Zimmerman, -190, -90, 1, closed, open, 8.806767, 1.914862, -246.3682, 0.8494263, 889.2281
92, Hop2, -1, Hop2, 89, 90, 1, open, open, -14.20026, 1.335502, 162.7701, 0.9605103, 891.3441
93, AllenSt, 0, AllenSt, 90, 90, 1, closed, closed, -14.69434, 2.69995, 157.9512, 1.795898, 894.3098
94, BakerBerry2nd, 94, BakerBerry2nd, 184, 90, 1, open, open, -10.38739, 0.3512093, 250.121, 1.670227, 896.8154
95, neutral, 0, PineEntrance, 90, 90, 0, closed, closed, -15.48138, 7.768179, 168.3991, 1.281189, 899.6697
96, PineBackHall, 180, PineBackHall, 270, 90, 1, closed, closed, -13.78122, 5.305304, 344.0066, 1.252686, 902.1615
97, Zimmerman, -100, Zimmerman, -190, -90, 1, closed, open, 6.329487, 2.602445, -246.9049, 1.058044, 904.9183
98, RollinsChapel3, 177, Maynard, 90, 90, 0, closed, closed, -13.16235, 2.578121, 166.4608, 1.169434, 907.2573
99, MooreLot, 180, MooreLot, 270, 90, 1, open, open, -9.438446, 2.626934, 338.7907, 1.531494, 909.9582
100, RollinsChapel3, 177, RollinsChapel3, 87, -90, 1, open, open, 4.746077, 2.201965, 36.32642, 1.030273, 912.1859
101, neutral, 0, RaunerFirst, 90, 90, 0, open, closed, -14.12491, 1.268166, 163.6269, 0.9049683, 914.3021
102, neutral, 0, Fairbanks, 90, 90, 0, closed, open, -12.14505, 1.975109, 161.2541, 0.9188232, 916.3625
103, neutral, 0, 53Commons, 90, 90, 0, open, open, -14.27603, 0.8275737, 165.4025, 0.8910522, 918.423
104, BakerBerryCharter, -90, BakerBerryCharter, 0, 90, 1, closed, closed, -13.40903, 4.739105, 76.66074, 1.00238, 920.5948
105, PineEntrance, 0, PineEntrance, -90, -90, 1, open, open, 9.121505, 2.674166, -149.872, 0.8497314, 922.5721
106, BakerBerryHistoric2, 180, BakerBerryHistoric2, 270, 90, 1, open, closed, -13.36975, 2.469698, 345.6903, 1.086121, 924.7995
107, neutral, 0, Zimmerman, -10, 90, 0, open, open, -23.31201, 6.157735, 53.47491, 0.9329224, 949.8034
108, neutral, 0, BakerBerry2nd, 4, -90, 0, closed, closed, 3.999689, 2.559484, -68.01111, 0.8771973, 951.8499
109, McLaughlinCluster, 172, McLaughlinCluster, 82, -90, 1, closed, open, -3.028046, 1.314339, 24.16684, 1.392517, 954.3976
110, BakerBerry2nd, 94, PineBackHall, 90, -90, 0, open, open, -0.4109802, 5.838263, 20.08075, 1.085754, 956.8202
111, neutral, 0, Hop4, -93, -90, 0, open, open, -0.04760742, 8.482942, -165.6318, 0.9324951, 959.0056
112, MooreLot, 180, MooreLot, 270, 90, 1, open, open, -18.43887, 6.75028, 330.4512, 0.8908081, 961.275
113, neutral, 0, PineBackHall, 90, -90, 0, open, open, 0.252815, 4.050207, 13.54175, 1.099854, 965.8278
114, neutral, 0, Maynard, 90, 90, 0, closed, closed, -19.46042, 5.401913, 150.1831, 1.113647, 968.097
115, BakerBerryCharter, -90, MooreLot, 90, -90, 0, closed, closed, -0.4052734, 2.777189, 53.00735, 2.297302, 971.5637
116, neutral, 0, RaunerBackHall, 90, 90, 0, open, open, -21.92044, 7.804115, 148.5895, 1.099609, 974.5154
117, Fairbanks, 0, BakerBerry2nd, 4, -90, 0, closed, open, 4.519281, 1.373395, -71.21198, 1.225098, 977.0908
118, Umplebys, -50, Umplebys, 40, 90, 1, closed, open, -22.75348, 8.521511, 104.0005, 1.350464, 979.7919
119, neutral, 0, MooreLot, 90, -90, 0, closed, closed, 1.831815, 0.9360625, 23.01147, 1.586792, 982.5903
120, Maynard, 0, PineEntrance, 90, 90, 0, closed, closed, -20.17191, 4.49805, 147.7504, 1.071594, 984.8315
121, neutral, 0, McLaughlinCluster, 262, 90, 0, open, open, -30.17419, 10.00188, 327.9715, 1.37854, 987.1011
122, RaunerFirst, 0, RaunerFirst, -90, -90, 1, closed, closed, 7.965662, 3.496967, -164.2527, 0.9746094, 989.0502
123, RaunerBackHall, 0, RaunerBackHall, -90, -90, 1, closed, closed, 7.543276, 10.26641, -167.0635, 1.39209, 991.7651
124, Hop4, -3, Hop4, 87, 90, 1, closed, closed, -25.91681, 11.88929, 147.2845, 1.141724, 994.0623
125, neutral, 0, Hop2, -91, -90, 0, closed, closed, 8.892935, 7.402371, -167.9711, 1.113647, 996.4706
126, RaunerFirst, 0, BakerBerryHistoric2, 90, -90, 0, closed, closed, 8.966027, 13.8299, 10.88364, 1.002441, 998.6705
127, AllenSt, 0, AllenSt, 90, 90, 1, closed, closed, -25.49719, 8.414433, 144.9707, 2.04657, 1001.845
128, Hop4, -3, Hop4, 87, 90, 1, closed, closed, -22.2731, 9.267141, 148.7957, 1.294861, 1004.003
129, BakerBerryHistoric2, 180, BakerBerryHistoric2, 270, 90, 1, open, open, -28.86847, 10.37733, 332.7434, 1.476013, 1006.634
130, neutral, 0, AllenSt, -90, -90, 0, open, open, 4.081103, 8.324142, -170.1932, 1.071777, 1008.889
131, BakerBerry2nd, 94, BakerBerry2nd, 184, 90, 1, open, open, -28.88611, 7.143363, 248.0542, 1.155518, 1011.047
132, Maynard, 0, Maynard, -90, -90, 1, open, open, 7.109129, 6.887092, -168.2381, 1.002136, 1013.191
133, McLaughlinCluster, 172, 53Commons, 90, 90, 0, open, open, -20.73181, 6.266053, 159.399, 1.044373, 1015.238
134, BakerBerryCharter, -90, BakerBerryCharter, 0, 90, 1, closed, closed, -22.99396, 12.57766, 64.75573, 1.155518, 1017.507
135, PineBackHall, 180, PineBackHall, 270, 90, 1, closed, closed, -21.53531, 8.1963, 328.9148, 1.629211, 1020.097
136, neutral, 0, Umplebys, -140, -90, 0, open, open, 2.926404, 7.104196, -215.5769, 0.9470825, 1022.213
137, 53Commons, 0, 53Commons, -90, -90, 1, closed, open, 4.302668, 4.982163, -138.5045, 1.378235, 1024.844
138, RaunerBackHall, 0, Hop2, -91, -90, 0, closed, closed, 10.35305, 6.645542, -168.3586, 1.044067, 1027.434
139, RollinsChapel3, 177, RollinsChapel3, 87, -90, 1, open, open, 10.18573, 5.696464, 10.55548, 1.044434, 1030.037
140, Hop2, -1, Hop2, 89, 90, 1, open, open, -20.96472, 3.587964, 145.3976, 1.573364, 1032.975
141, Fairbanks, 0, Fairbanks, -90, -90, 1, open, open, 6.258833, -2.363556, -157.2085, 0.8216553, 1035.286
142, RaunerFirst, 0, RaunerFirst, -90, -90, 1, closed, closed, 6.585303, 5.080717, -162.7318, 0.9746094, 1037.639
143, Umplebys, -50, Umplebys, 40, 90, 1, closed, closed, -32.42331, 0.09194805, 101.5626, 1.322754, 1040.145
144, Zimmerman, -100, RaunerBackHall, 90, 90, 0, open, open, -22.67441, 10.64466, 150.2021, 1.253418, 1042.554
