trialIdx, primeName, primeAngleYaw, targetName, targetAngleYaw, targetSide, sameScenePrime, correctResponse, response, roll, pitch, yaw, rt, timestamp
1, PineBackHall, 180, MooreLot, 270, 90, 0, open, open, -4.945221, 0.6735403, 342.2358, 2.130066, 686.3713
2, PineEntrance, 0, PineEntrance, 90, 90, 1, closed, closed, -7.116791, 8.360669, 165.9457, 1.43457, 695.3655
3, Umplebys, -50, Umplebys, -140, -90, 1, open, open, 0.2613983, -5.68457, -213.3231, 1.05835, 698.8598
4, Hop2, -1, Hop2, -91, -90, 1, closed, closed, 1.847317, -3.263794, -168.5488, 1.308777, 701.7835
5, neutral, 0, BakerBerryCharter, 0, 90, 0, closed, closed, -6.170715, 6.866174, 59.53571, 2.08844, 705.5007
6, Hop2, -1, Hop2, -91, -90, 1, closed, closed, -0.4673462, -2.687836, -157.7117, 1.378357, 709.4127
7, Fairbanks, 0, BakerBerryCharter, 0, 90, 0, closed, closed, -8.743988, 5.997968, 67.08073, 1.141602, 712.1276
8, RaunerFirst, 0, RaunerFirst, 90, 90, 1, open, closed, -10.27133, 5.922309, 160.6247, 1.503906, 715.9843
9, 53Commons, 0, 53Commons, 90, 90, 1, open, open, -5.523834, 4.490436, 163.2597, 1.12793, 719.6042
10, RollinsChapel3, 177, RollinsChapel3, 267, 90, 1, closed, open, -6.169922, -3.468445, 289.854, 2.422485, 723.8085
11, neutral, 0, Hop4, 87, 90, 0, closed, closed, -6.538452, 11.54666, 155.9042, 1.461975, 729.1407
12, neutral, 0, RaunerFirst, -90, -90, 0, closed, closed, -0.7550354, 5.434444, -171.3977, 1.280701, 732.301
13, Umplebys, -50, Umplebys, -140, -90, 1, open, open, -0.6759949, -0.3631592, -221.1437, 1.44812, 735.1135
14, BakerBerry2nd, 94, BakerBerry2nd, 4, -90, 1, closed, closed, -0.9945679, 6.586259, -79.29529, 1.573486, 738.0372
15, McLaughlinCluster, 172, Maynard, -90, -90, 0, open, open, -0.0826416, 0.2029962, -166.8014, 1.267212, 741.1836
16, Hop2, -1, Hop4, 87, 90, 0, closed, closed, -10.51236, 0.6445013, 155.6086, 1.11438, 743.8431
17, neutral, 0, RaunerBackHall, -90, -90, 0, closed, closed, 2.263717, 0.9558529, -160.0322, 1.030273, 746.293
18, 53Commons, 0, Fairbanks, -90, -90, 0, open, open, 2.607936, -6.826202, -162.5961, 0.9893799, 748.8416
19, Maynard, 0, Maynard, 90, 90, 1, closed, closed, -10.61942, 5.568479, 162.0773, 1.545532, 751.8064
20, AllenSt, 0, AllenSt, -90, -90, 1, open, open, 1.324, -4.679657, -168.8849, 0.9886475, 754.6602
21, Hop4, -3, BakerBerry2nd, 184, 90, 0, open, open, -7.979828, 4.601819, 260.4327, 1.239136, 757.2778
22, BakerBerry2nd, 94, BakerBerryHistoric2, 270, 90, 0, open, open, -8.160126, 16.30607, 349.6585, 1.573181, 760.2151
23, Hop4, -3, Hop4, -93, -90, 1, open, open, 2.515811, 1.140651, -171.0939, 1.072144, 762.6238
24, MooreLot, 180, 53Commons, -90, -90, 0, closed, open, 1.268617, 14.13584, -177.0695, 1.16925, 765.464
25, neutral, 0, Zimmerman, -190, -90, 0, closed, open, 4.674551, 1.705527, -269.9594, 1.057983, 768.68
26, AllenSt, 0, RaunerFirst, -90, -90, 0, closed, closed, 2.292618, 2.141212, -167.0923, 0.876709, 772.7735
27, RollinsChapel3, 177, Zimmerman, -190, -90, 0, closed, open, 2.326411, 0.3853495, -264.6323, 1.225159, 775.6688
28, Maynard, 0, Maynard, 90, 90, 1, closed, closed, -8.285553, 7.007313, 166.6059, 1.656799, 778.8016
29, neutral, 0, AllenSt, 90, 90, 0, closed, closed, -7.090759, 3.157239, 166.9069, 1.183655, 781.3913
30, BakerBerryHistoric2, 180, BakerBerryHistoric2, 90, -90, 1, closed, closed, 5.675887, -1.824799, 23.73831, 1.155396, 785.15
31, PineBackHall, 180, PineBackHall, 90, -90, 1, open, open, 4.171198, 6.471905, 12.85181, 1.197388, 788.0461
32, RaunerBackHall, 0, RaunerBackHall, 90, 90, 1, open, open, -7.550323, 3.222467, 162.4772, 1.475525, 791.0947
33, BakerBerryCharter, -90, PineBackHall, 270, 90, 0, closed, closed, -6.409729, 9.481371, 340.2169, 1.392029, 801.0771
34, neutral, 0, Fairbanks, -90, -90, 0, open, open, 2.442887, -5.184326, -167.3152, 0.8768921, 803.4021
35, neutral, 0, Hop2, 89, 90, 0, open, open, -10.74805, -4.70874, 162.9426, 1.267151, 848.4395
36, Zimmerman, -100, Umplebys, 40, 90, 0, closed, closed, -6.500427, 1.334175, 112.7133, 1.420349, 851.2519
37, AllenSt, 0, AllenSt, -90, -90, 1, open, open, 3.441475, -1.935089, -162.0977, 0.8911133, 853.6184
38, Umplebys, -50, RaunerBackHall, -90, -90, 0, closed, closed, 5.261486, -3.694366, -159.4925, 1.113708, 856.2913
39, Hop4, -3, Hop4, -93, -90, 1, open, open, 4.358907, -2.895111, -161.6486, 0.9047852, 858.7695
40, McLaughlinCluster, 172, McLaughlinCluster, 262, 90, 1, open, open, -9.877686, 5.845446, 339.3893, 1.155762, 861.9858
41, Zimmerman, -100, Zimmerman, -10, 90, 1, open, open, -9.502747, 4.219515, 67.9225, 1.029968, 864.3245
42, BakerBerryCharter, -90, BakerBerryCharter, -180, -90, 1, open, open, 3.940284, 0.4747175, -253.7694, 1.058228, 866.942
43, neutral, 0, RollinsChapel3, 87, -90, 0, open, open, 1.22756, -3.481323, 20.79013, 0.9188843, 869.1138
44, BakerBerryHistoric2, 180, BakerBerryHistoric2, 90, -90, 1, closed, closed, 0.9429955, 1.914173, 36.00955, 1.002441, 871.4117
45, Fairbanks, 0, Fairbanks, 90, 90, 1, closed, open, -10.19263, -1.512848, 156.922, 1.002258, 873.9726
46, neutral, 0, McLaughlinCluster, 82, -90, 0, closed, open, 0.6899159, -5.228119, 30.65372, 1.016785, 876.2563
47, RaunerFirst, 0, PineEntrance, -90, -90, 0, open, open, 2.986932, 7.073769, -170.6796, 1.350708, 879.5557
48, Zimmerman, -100, Zimmerman, -10, 90, 1, open, open, -10.49655, -2.800537, 60.29778, 1.141907, 882.187
49, MooreLot, 180, MooreLot, 90, -90, 1, closed, open, 0.1469418, 9.240436, 18.48468, 1.141724, 884.6373
50, RaunerBackHall, 0, RaunerBackHall, 90, 90, 1, open, open, -13.36288, -1.429352, 163.1644, 1.489929, 887.9926
51, McLaughlinCluster, 172, McLaughlinCluster, 262, 90, 1, open, open, -10.54959, 6.016172, 340.5745, 1.447876, 890.763
52, PineBackHall, 180, PineBackHall, 90, -90, 1, open, open, 2.425254, 7.703872, 9.715759, 1.099915, 893.2552
53, RollinsChapel3, 177, RollinsChapel3, 267, 90, 1, closed, open, -12.55643, 7.69492, 349.1072, 1.19751, 895.9007
54, Maynard, 0, McLaughlinCluster, 82, -90, 0, closed, closed, 0.4637225, 6.333319, 9.636047, 1.378479, 898.8382
55, RaunerFirst, 0, RaunerFirst, 90, 90, 1, open, open, -12.54938, 2.580024, 165.2692, 1.447571, 901.7476
56, 53Commons, 0, 53Commons, 90, 90, 1, open, open, -10.68158, -4.772858, 158.0678, 1.225525, 905.5628
57, neutral, 0, Umplebys, 40, 90, 0, closed, closed, -13.28738, 3.836365, 124.7606, 1.072388, 908.375
58, neutral, 0, PineEntrance, -90, -90, 0, open, open, 3.703708, 4.559011, -168.4648, 1.002441, 910.9922
59, RaunerBackHall, 0, Hop2, 89, 90, 0, open, open, -14.56921, -0.3505859, 164.3825, 1.086121, 913.9161
60, MooreLot, 180, MooreLot, 90, -90, 1, closed, closed, 4.402568, 1.265955, 18.79541, 0.8772583, 916.3244
61, BakerBerryCharter, -90, BakerBerryCharter, -180, -90, 1, open, open, 6.200802, 1.480591, -254.3459, 0.9458008, 919.4708
62, neutral, 0, Maynard, -90, -90, 0, open, open, -0.1253052, -12.96484, -114.8295, 1.51709, 922.4222
63, neutral, 0, PineBackHall, 270, 90, 0, closed, closed, -10.05362, 6.453387, 340.3278, 1.253235, 925.2069
64, neutral, 0, BakerBerryHistoric2, 270, 90, 0, open, open, -10.02896, 10.62498, 341.744, 1.016724, 927.6575
65, BakerBerry2nd, 94, BakerBerry2nd, 4, -90, 1, closed, closed, 2.688508, -6.980408, -36.3436, 1.280823, 930.2329
66, BakerBerryHistoric2, 180, RollinsChapel3, 87, -90, 0, open, open, 5.087934, -4.267822, 19.12457, 0.9189453, 932.5021
67, PineEntrance, 0, PineEntrance, 90, 90, 1, closed, closed, -11.58301, 5.977346, 158.4943, 1.058472, 935.8159
68, neutral, 0, 53Commons, -90, -90, 0, closed, closed, 4.579745, -1.758331, -152.6046, 1.447693, 939.2264
69, neutral, 0, MooreLot, 270, 90, 0, open, open, -12.29572, 2.913878, 337.3939, 1.058289, 942.1086
70, Fairbanks, 0, Fairbanks, 90, 90, 1, closed, open, -9.493011, -1.234833, 150.3118, 1.476013, 945.1716
71, neutral, 0, BakerBerry2nd, 184, 90, 0, open, open, -6.062256, -12.78046, 198.0051, 1.267151, 965.5678
72, PineEntrance, 0, AllenSt, 90, 90, 0, closed, closed, -8.329407, -5.377441, 139.7137, 1.392456, 968.2548
73, PineBackHall, 180, Fairbanks, 90, 90, 0, closed, open, -11.1041, -4.889954, 154.4196, 1.113708, 970.8163
74, AllenSt, 0, Zimmerman, -10, 90, 0, open, open, -10.19016, -7.762421, 53.56781, 1.225098, 973.5032
75, Hop4, -3, RollinsChapel3, 267, 90, 0, closed, open, -10.39822, 6.018088, 338.8619, 1.61499, 976.5103
76, BakerBerryHistoric2, 180, RaunerFirst, 90, 90, 0, open, open, -11.04364, -0.1072083, 158.202, 1.016357, 978.8357
77, neutral, 0, BakerBerryCharter, -180, -90, 0, open, open, 5.014948, -1.191833, -260.9743, 1.267029, 981.4113
78, PineEntrance, 0, PineEntrance, -90, -90, 1, open, open, 5.727209, -2.009552, -167.6338, 1.141418, 983.8199
79, McLaughlinCluster, 172, McLaughlinCluster, 82, -90, 1, closed, closed, 0.5896143, -6.014465, 42.14954, 1.503662, 986.9523
80, Maynard, 0, Maynard, -90, -90, 1, open, open, 8.972113, -8.057983, -160.1049, 0.8908691, 989.5696
81, neutral, 0, RollinsChapel3, 267, 90, 0, closed, open, -13.53873, -3.300385, 303.9401, 1.489624, 992.5071
82, PineEntrance, 0, BakerBerryCharter, -180, -90, 0, open, open, 10.13491, -2.644226, -260.1688, 0.8493042, 995.0273
83, Umplebys, -50, AllenSt, -90, -90, 0, open, open, 2.329829, -6.239349, -156.0069, 0.9471436, 997.4221
84, neutral, 0, BakerBerryHistoric2, 90, -90, 0, closed, closed, 3.870708, -3.308258, 37.33975, 0.9882202, 1000.164
85, 53Commons, 0, 53Commons, -90, -90, 1, closed, open, 6.510088, -0.6924744, -161.6268, 1.086182, 1003.088
86, MooreLot, 180, Hop4, -93, -90, 0, open, open, 5.529066, -4.900879, -154.3858, 0.8770752, 1005.469
87, Hop2, -1, Umplebys, -140, -90, 0, open, open, 2.605674, -4.026306, -194.3837, 0.737915, 1008.058
88, 53Commons, 0, McLaughlinCluster, 262, 90, 0, open, open, -11.47739, -1.238556, 318.8297, 1.113586, 1010.606
89, RaunerBackHall, 0, RaunerBackHall, -90, -90, 1, closed, closed, 6.223578, -1.854614, -157.2244, 0.9048462, 1012.987
90, Fairbanks, 0, Fairbanks, -90, -90, 1, open, open, 4.743426, -7.228394, -149.4362, 0.890686, 1015.214
91, Zimmerman, -100, Zimmerman, -190, -90, 1, closed, open, 4.665761, -4.824493, -251.5472, 0.9330444, 1017.401
92, Hop2, -1, Hop2, 89, 90, 1, open, open, -10.7916, -8.753387, 126.078, 1.740723, 1020.77
93, AllenSt, 0, AllenSt, 90, 90, 1, closed, closed, -8.484436, -9.221771, 136.7964, 1.586975, 1023.721
94, BakerBerry2nd, 94, BakerBerry2nd, 184, 90, 1, open, open, -11.22189, -7.805298, 238.0432, 1.628906, 1026.617
95, neutral, 0, PineEntrance, 90, 90, 0, closed, closed, -13.09149, -5.371307, 157.4857, 1.057983, 1029.026
96, PineBackHall, 180, PineBackHall, 270, 90, 1, closed, closed, -11.46191, -6.81665, 329.9756, 1.2948, 1031.824
97, Zimmerman, -100, Zimmerman, -190, -90, 1, closed, open, 6.717238, -4.053864, -254.3404, 1.044434, 1034.358
98, RollinsChapel3, 177, Maynard, 90, 90, 0, closed, closed, -9.931488, 20.14466, 157.7418, 1.962891, 1038.506
99, MooreLot, 180, MooreLot, 270, 90, 1, open, open, -11.82495, -0.2008972, 338.7744, 1.113525, 1041.541
100, RollinsChapel3, 177, RollinsChapel3, 87, -90, 1, open, open, 1.986758, -4.02655, 16.41479, 1.68457, 1044.465
101, neutral, 0, RaunerFirst, 90, 90, 0, open, open, -10.30963, 1.524641, 160.4473, 1.364258, 1047.208
102, neutral, 0, Fairbanks, 90, 90, 0, closed, open, -11.82147, -0.8321838, 160.325, 0.7519531, 1049.505
103, neutral, 0, 53Commons, 90, 90, 0, open, open, -10.88406, -1.589355, 159.8886, 0.6960449, 1051.427
104, BakerBerryCharter, -90, BakerBerryCharter, 0, 90, 1, closed, closed, -14.29544, -3.254791, 64.65742, 1.016479, 1053.779
105, PineEntrance, 0, PineEntrance, -90, -90, 1, open, open, 2.556269, -1.000488, -157.6734, 1.949219, 1056.94
106, BakerBerryHistoric2, 180, BakerBerryHistoric2, 270, 90, 1, open, open, -11.75027, 1.368359, 337.9932, 0.9886475, 1059.432
107, neutral, 0, Zimmerman, -10, 90, 0, open, open, -9.203827, -9.599396, 57.73633, 0.7518311, 1083.518
108, neutral, 0, BakerBerry2nd, 4, -90, 0, closed, open, 0.5670457, -2.372406, -40.28839, 1.586426, 1086.664
109, McLaughlinCluster, 172, McLaughlinCluster, 82, -90, 1, closed, closed, 1.527473, -8.84491, 43.26208, 1.461792, 1089.505
110, BakerBerry2nd, 94, PineBackHall, 90, -90, 0, open, open, 4.812114, -0.4441223, 14.20264, 1.22522, 1091.997
111, neutral, 0, Hop4, -93, -90, 0, open, open, 2.961538, -3.258148, -149.4915, 0.8912354, 1094.183
112, MooreLot, 180, MooreLot, 270, 90, 1, open, open, -6.887054, -5.622192, 315.3759, 1.016357, 1096.883
113, neutral, 0, PineBackHall, 90, -90, 0, open, open, 4.20913, 2.76471, 21.94574, 0.9606934, 1099.334
114, neutral, 0, Maynard, 90, 90, 0, closed, closed, -9.590546, 12.10242, 156.2818, 1.308472, 1101.951
115, BakerBerryCharter, -90, MooreLot, 90, -90, 0, closed, open, 1.15376, -0.9088135, 49.76312, 1.671143, 1104.945
116, neutral, 0, RaunerBackHall, 90, 90, 0, open, open, -8.859467, 3.155011, 157.1267, 0.9188232, 1107.172
117, Fairbanks, 0, BakerBerry2nd, 4, -90, 0, closed, closed, 4.171151, -4.279602, -47.15952, 1.05835, 1109.526
118, Umplebys, -50, Umplebys, 40, 90, 1, closed, closed, -9.739319, 6.358064, 108.9016, 1.447998, 1112.212
119, neutral, 0, MooreLot, 90, -90, 0, closed, closed, 2.643511, 1.368407, 31.30536, 1.058472, 1114.788
120, Maynard, 0, PineEntrance, 90, 90, 0, closed, closed, -11.13702, 1.622831, 149.4181, 1.030396, 1117.029
121, neutral, 0, McLaughlinCluster, 262, 90, 0, open, open, -11.13229, 2.794086, 324.2629, 1.140991, 1119.674
122, RaunerFirst, 0, RaunerFirst, -90, -90, 1, closed, closed, 2.622689, -1.018341, -149.305, 0.8912354, 1121.749
123, RaunerBackHall, 0, RaunerBackHall, -90, -90, 1, closed, closed, 2.557775, -2.476135, -145.5483, 1.294922, 1124.31
124, Hop4, -3, Hop4, 87, 90, 1, closed, closed, -8.652985, -3.415619, 138.6672, 1.53186, 1127.053
125, neutral, 0, Hop2, -91, -90, 0, closed, closed, 1.632574, 0.4707747, -158.7383, 0.8771973, 1129.531
126, RaunerFirst, 0, BakerBerryHistoric2, 90, -90, 0, closed, closed, 2.773598, 1.522261, 26.43384, 1.030151, 1131.759
127, AllenSt, 0, AllenSt, 90, 90, 1, closed, closed, -13.83835, -9.455597, 142.7738, 1.169434, 1134.14
128, Hop4, -3, Hop4, 87, 90, 1, closed, closed, -9.927032, -2.141418, 130.2402, 1.057861, 1136.464
129, BakerBerryHistoric2, 180, BakerBerryHistoric2, 270, 90, 1, open, open, -13.15927, 5.808538, 330.1605, 1.043945, 1138.72
130, neutral, 0, AllenSt, -90, -90, 0, open, open, 2.211603, -2.887451, -152.2501, 0.9884033, 1140.92
131, BakerBerry2nd, 94, BakerBerry2nd, 184, 90, 1, open, open, -11.24429, 0.0938541, 242.6438, 0.9189453, 1142.98
132, Maynard, 0, Maynard, -90, -90, 1, open, open, 4.170971, -5.787109, -156.7101, 0.7799072, 1144.971
133, McLaughlinCluster, 172, 53Commons, 90, 90, 0, open, open, -6.473206, 3.551949, 145.9121, 0.8354492, 1146.976
134, BakerBerryCharter, -90, BakerBerryCharter, 0, 90, 1, closed, closed, -8.972046, -5.021973, 37.70377, 1.016235, 1149.398
135, PineBackHall, 180, PineBackHall, 270, 90, 1, closed, closed, -7.356506, -5.825134, 307.1113, 0.9888916, 1151.835
136, neutral, 0, Umplebys, -140, -90, 0, open, open, 5.200287, -9.828491, -194.7397, 0.9881592, 1154.257
137, 53Commons, 0, 53Commons, -90, -90, 1, closed, closed, 7.338988, -19.95969, -123.0684, 1.838135, 1157.279
138, RaunerBackHall, 0, Hop2, -91, -90, 0, closed, closed, 3.063242, -7.441956, -147.7734, 0.9191895, 1159.464
139, RollinsChapel3, 177, RollinsChapel3, 87, -90, 1, open, open, 2.729408, -8.260529, 21.44528, 0.7935791, 1161.302
140, Hop2, -1, Hop2, 89, 90, 1, open, closed, -6.42334, -6.107452, 131.3661, 0.8770752, 1163.46
141, Fairbanks, 0, Fairbanks, -90, -90, 1, open, open, -2.344147, -14.49744, -101.6371, 2.060547, 1167.358
142, RaunerFirst, 0, RaunerFirst, -90, -90, 1, closed, closed, 4.811924, -8.446106, -152.5215, 0.9884033, 1169.544
143, Umplebys, -50, Umplebys, 40, 90, 1, closed, closed, -5.352966, -11.43854, 47.15598, 1.531616, 1172.328
144, Zimmerman, -100, RaunerBackHall, 90, 90, 0, open, open, -12.94412, -7.094391, 145.7415, 1.099854, 1174.737
