trialIdx, primeName, primeAngleYaw, targetName, targetAngleYaw, targetSide, sameScenePrime, correctResponse, response, roll, pitch, yaw, rt, timestamp
1, PineBackHall, 180, MooreLot, 270, 90, 0, open, open, -2.745453, 4.959982, 343.2704, 1.071716, 517.1097
2, PineEntrance, 0, PineEntrance, 90, 90, 1, closed, closed, -2.379028, 4.274437, 168.0817, 0.9047852, 519.226
3, Umplebys, -50, Umplebys, -140, -90, 1, open, open, 1.939797, 7.204281, -207.9649, 0.7932739, 521.1613
4, Hop2, -1, Hop2, -91, -90, 1, closed, closed, 1.581985, 6.707019, -163.2263, 1.044067, 523.3332
5, neutral, 0, BakerBerryCharter, 0, 90, 0, closed, open, -3.757629, 5.112634, 82.24545, 1.044373, 525.4913
6, Hop2, -1, Hop2, -91, -90, 1, closed, closed, 2.712748, 4.708023, -161.4043, 0.8353271, 527.663
7, Fairbanks, 0, BakerBerryCharter, 0, 90, 0, closed, closed, -2.679718, 4.764084, 79.24289, 0.918457, 529.7095
8, RaunerFirst, 0, RaunerFirst, 90, 90, 1, open, open, -2.461517, 5.619539, 163.8978, 0.8769531, 531.7281
9, 53Commons, 0, 53Commons, 90, 90, 1, open, open, -1.491516, 4.038082, 163.5156, 0.9186401, 533.7192
10, RollinsChapel3, 177, RollinsChapel3, 267, 90, 1, closed, closed, -1.589447, 5.90303, 341.8731, 0.7515869, 535.5846
11, neutral, 0, Hop4, 87, 90, 0, closed, closed, -3.30011, 3.942533, 156.4573, 0.835144, 537.5755
12, neutral, 0, RaunerFirst, -90, -90, 0, closed, closed, 2.697912, 4.214205, -159.3476, 1.391968, 540.0536
13, Umplebys, -50, Umplebys, -140, -90, 1, open, open, 2.137225, 5.908374, -208.7915, 0.8074951, 541.975
14, BakerBerry2nd, 94, BakerBerry2nd, 4, -90, 1, closed, closed, 1.778109, 5.442591, -64.4444, 1.225281, 544.3141
15, McLaughlinCluster, 172, Maynard, -90, -90, 0, open, open, 0.8478834, 5.997273, -160.9828, 1.016357, 546.4301
16, Hop2, -1, Hop4, 87, 90, 0, closed, closed, -3.82132, 5.924619, 164.8172, 0.8773193, 548.449
17, neutral, 0, RaunerBackHall, -90, -90, 0, closed, closed, 1.219213, 7.462207, -162.9293, 0.737854, 550.3564
18, 53Commons, 0, Fairbanks, -90, -90, 0, open, open, -0.4653931, 5.101207, -160.8801, 0.8770752, 552.3194
19, Maynard, 0, Maynard, 90, 90, 1, closed, closed, -3.990936, 3.996161, 162.8571, 0.8355103, 554.213
20, AllenSt, 0, AllenSt, -90, -90, 1, open, open, 0.5728074, 5.728306, -157.8266, 0.8495483, 556.1899
21, Hop4, -3, BakerBerry2nd, 184, 90, 0, open, open, -2.539124, 4.206515, 254.6707, 1.281067, 558.529
22, BakerBerry2nd, 94, BakerBerryHistoric2, 270, 90, 0, open, closed, -2.469788, 4.975162, 345.723, 1.002441, 560.6866
23, Hop4, -3, Hop4, -93, -90, 1, open, open, 1.758611, 4.861348, -161.8779, 1.434265, 563.2764
24, MooreLot, 180, 53Commons, -90, -90, 0, closed, closed, 0.1176651, 5.994694, -160.1541, 1.169556, 565.6149
25, neutral, 0, Zimmerman, -190, -90, 0, closed, closed, -0.26297, 5.184831, -254.8683, 1.043396, 567.8289
26, AllenSt, 0, RaunerFirst, -90, -90, 0, closed, closed, 1.099498, 5.211721, -151.4401, 0.8633423, 569.8475
27, RollinsChapel3, 177, Zimmerman, -190, -90, 0, closed, open, 2.775451, 3.241207, -260.8667, 1.197876, 572.2703
28, Maynard, 0, Maynard, 90, 90, 1, closed, closed, -2.955109, 4.377326, 157.0908, 1.058105, 574.4559
29, neutral, 0, AllenSt, 90, 90, 0, closed, closed, -4.606598, 4.490106, 160.2419, 1.044128, 576.6138
30, BakerBerryHistoric2, 180, BakerBerryHistoric2, 90, -90, 1, closed, closed, -0.4326782, 7.246045, 20.55121, 1.211487, 578.9806
31, PineBackHall, 180, PineBackHall, 90, -90, 1, open, open, 2.044656, 6.00687, 21.28101, 1.267151, 581.3473
32, RaunerBackHall, 0, RaunerBackHall, 90, 90, 1, open, open, -4.097565, 4.113749, 165.5782, 1.169739, 583.6446
33, BakerBerryCharter, -90, PineBackHall, 270, 90, 0, closed, closed, -3.817322, 0.3310044, 337.6177, 0.9887085, 585.7607
34, neutral, 0, Fairbanks, -90, -90, 0, open, open, -1.489563, 4.750869, -161.5022, 0.8911133, 587.7377
35, neutral, 0, Hop2, 89, 90, 0, open, open, -4.140198, 2.88711, 160.3085, 1.072266, 595.9659
36, Zimmerman, -100, Umplebys, 40, 90, 0, closed, closed, -3.273773, 2.721265, 117.7949, 0.9465942, 597.9288
37, AllenSt, 0, AllenSt, -90, -90, 1, open, open, 1.44639, 5.889967, -158.1942, 0.9330444, 599.9476
38, Umplebys, -50, RaunerBackHall, -90, -90, 0, closed, closed, 0.5316665, 4.901377, -154.3206, 0.8082886, 601.8696
39, Hop4, -3, Hop4, -93, -90, 1, open, open, 1.822621, 5.481682, -158.587, 0.9608765, 603.8878
40, McLaughlinCluster, 172, McLaughlinCluster, 262, 90, 1, open, closed, -1.58371, 4.627892, 336.7245, 1.086182, 606.0316
41, Zimmerman, -100, Zimmerman, -10, 90, 1, open, open, -4.421509, 2.63654, 62.69228, 1.072021, 608.1896
42, BakerBerryCharter, -90, BakerBerryCharter, -180, -90, 1, open, open, 0.7675018, 6.671386, -246.8716, 0.9884033, 610.2639
43, neutral, 0, RollinsChapel3, 87, -90, 0, open, open, 0.5035327, 5.410349, 23.27789, 0.9885864, 612.2827
44, BakerBerryHistoric2, 180, BakerBerryHistoric2, 90, -90, 1, closed, closed, 3.581764, 3.096264, 31.71008, 0.7240601, 614.037
45, Fairbanks, 0, Fairbanks, 90, 90, 1, closed, closed, -5.121552, 3.205224, 160.4726, 1.002502, 616.0697
46, neutral, 0, McLaughlinCluster, 82, -90, 0, closed, closed, 0.4520768, -0.3667908, 25.08298, 1.37854, 618.5339
47, RaunerFirst, 0, PineEntrance, -90, -90, 0, open, open, 0.03612288, 5.263609, -157.5255, 1.07196, 620.7056
48, Zimmerman, -100, Zimmerman, -10, 90, 1, open, open, -3.599548, 4.705254, 65.04526, 1.058289, 622.8358
49, MooreLot, 180, MooreLot, 90, -90, 1, closed, closed, -1.561035, 3.59734, 28.67035, 0.7799683, 624.7432
50, RaunerBackHall, 0, RaunerBackHall, 90, 90, 1, open, open, -3.848389, 3.571684, 154.6992, 1.628723, 627.4717
51, McLaughlinCluster, 172, McLaughlinCluster, 262, 90, 1, open, open, -2.701263, 5.902749, 337.7743, 1.141968, 629.6859
52, PineBackHall, 180, PineBackHall, 90, -90, 1, open, open, -0.09503174, 5.427995, 24.02084, 0.8910522, 631.6625
53, RollinsChapel3, 177, RollinsChapel3, 267, 90, 1, closed, closed, -0.0307312, 6.649014, 348.2503, 0.9606323, 633.7927
54, Maynard, 0, McLaughlinCluster, 82, -90, 0, closed, closed, -1.33786, 3.467385, 21.65976, 1.016113, 635.8808
55, RaunerFirst, 0, RaunerFirst, 90, 90, 1, open, open, -4.082886, 5.101672, 165.0717, 0.8773193, 637.8441
56, 53Commons, 0, 53Commons, 90, 90, 1, open, open, -4.147308, 2.622276, 162.7805, 1.378296, 640.35
57, neutral, 0, Umplebys, 40, 90, 0, closed, closed, -2.345642, 1.34744, 118.6553, 4.107544, 645.5713
58, neutral, 0, PineEntrance, -90, -90, 0, open, open, 1.106952, 2.226978, -161.3917, 0.9329224, 652.4485
59, RaunerBackHall, 0, Hop2, 89, 90, 0, open, open, -3.008148, 2.349113, 165.1689, 1.253113, 654.8293
60, MooreLot, 180, MooreLot, 90, -90, 1, closed, closed, -0.1054077, 3.961863, 25.55688, 0.7938232, 656.7227
61, BakerBerryCharter, -90, BakerBerryCharter, -180, -90, 1, open, open, 1.595291, 4.02473, -245.9728, 0.8911133, 658.7277
62, neutral, 0, Maynard, -90, -90, 0, open, open, 1.926837, 4.476897, -156.138, 1.044189, 660.8575
63, neutral, 0, PineBackHall, 270, 90, 0, closed, closed, -3.098328, 4.369285, 337.6102, 1.100281, 663.0435
64, neutral, 0, BakerBerryHistoric2, 270, 90, 0, open, open, -5.377686, 5.098688, 344.2528, 0.9465942, 665.0482
65, BakerBerry2nd, 94, BakerBerry2nd, 4, -90, 1, closed, closed, 4.243872, 4.363551, -64.40967, 1.211426, 667.3871
66, BakerBerryHistoric2, 180, RollinsChapel3, 87, -90, 0, open, open, -1.414063, 3.000299, 22.75616, 0.8213501, 669.2249
67, PineEntrance, 0, PineEntrance, 90, 90, 1, closed, closed, -4.432465, 4.597071, 165.8927, 0.9747314, 671.2994
68, neutral, 0, 53Commons, -90, -90, 0, closed, closed, 2.849097, 2.758612, -155.7976, 1.099976, 673.5131
69, neutral, 0, MooreLot, 270, 90, 0, open, open, -3.701385, 2.997428, 338.2457, 1.07196, 675.7404
70, Fairbanks, 0, Fairbanks, 90, 90, 1, closed, closed, -4.116364, 1.563166, 163.3413, 0.9186401, 677.7871
71, neutral, 0, BakerBerry2nd, 184, 90, 0, open, open, -4.246185, 2.626528, 254.771, 0.9046021, 685.6391
72, PineEntrance, 0, AllenSt, 90, 90, 0, closed, closed, -3.389282, 3.80533, 158.771, 0.8354492, 687.6163
73, PineBackHall, 180, Fairbanks, 90, 90, 0, closed, closed, -3.164795, 3.529113, 159.1098, 1.016541, 689.7464
74, AllenSt, 0, Zimmerman, -10, 90, 0, open, closed, -3.124512, 3.089196, 61.6872, 0.9472046, 691.7932
75, Hop4, -3, RollinsChapel3, 267, 90, 0, closed, closed, -2.445801, 6.515616, 335.2396, 0.9746704, 693.8536
76, BakerBerryHistoric2, 180, RaunerFirst, 90, 90, 0, open, open, -4.213074, 4.980744, 159.0983, 0.9887085, 695.9003
77, neutral, 0, BakerBerryCharter, -180, -90, 0, open, open, 0.7320952, 5.848907, -249.3461, 1.211487, 698.2391
78, PineEntrance, 0, PineEntrance, -90, -90, 1, open, closed, 1.006903, 3.694841, -157.3278, 0.9328613, 700.2857
79, McLaughlinCluster, 172, McLaughlinCluster, 82, -90, 1, closed, closed, 0.2469907, 1.549474, 52.40753, 1.54541, 703.0699
80, Maynard, 0, Maynard, -90, -90, 1, open, open, -0.2590942, 4.65378, -157.3414, 0.9467773, 705.3949
81, neutral, 0, RollinsChapel3, 267, 90, 0, closed, closed, -0.7962952, 9.163733, 329.7204, 0.8076172, 707.3304
82, PineEntrance, 0, BakerBerryCharter, -180, -90, 0, open, open, 1.033937, 6.497218, -248.7139, 0.9747314, 709.4186
83, Umplebys, -50, AllenSt, -90, -90, 0, open, open, 1.694022, 5.088162, -159.7355, 1.071899, 711.6043
84, neutral, 0, BakerBerryHistoric2, 90, -90, 0, closed, closed, 0.988244, 6.700609, 22.38062, 0.8214111, 713.5395
85, 53Commons, 0, 53Commons, -90, -90, 1, closed, closed, 1.051441, 5.173042, -160.2629, 0.8907471, 715.6279
86, MooreLot, 180, Hop4, -93, -90, 0, open, open, 0.8008931, 5.940951, -161.528, 0.9744263, 717.7719
87, Hop2, -1, Umplebys, -140, -90, 0, open, open, -0.09063721, 7.211322, -209.0074, 0.9744263, 719.8741
88, 53Commons, 0, McLaughlinCluster, 262, 90, 0, open, closed, -2.391937, 5.448851, 337.8275, 1.336426, 722.3522
89, RaunerBackHall, 0, RaunerBackHall, -90, -90, 1, closed, closed, 0.1769122, 9.101254, -160.3456, 0.9744873, 724.538
90, Fairbanks, 0, Fairbanks, -90, -90, 1, open, open, 1.809836, 4.287399, -157.609, 0.9887695, 726.6545
91, Zimmerman, -100, Zimmerman, -190, -90, 1, closed, closed, 1.905056, 6.243557, -257.9134, 0.9052124, 728.7289
92, Hop2, -1, Hop2, 89, 90, 1, open, open, -5.0802, 4.639021, 164.7509, 0.8353882, 730.7755
93, AllenSt, 0, AllenSt, 90, 90, 1, closed, closed, -3.985321, 1.276528, 154.6648, 0.9326782, 732.8635
94, BakerBerry2nd, 94, BakerBerry2nd, 184, 90, 1, open, open, -5.535126, 3.85386, 252.809, 0.9609375, 734.9661
95, neutral, 0, PineEntrance, 90, 90, 0, closed, closed, -3.404449, 1.509034, 159.0246, 0.7937622, 736.9568
96, PineBackHall, 180, PineBackHall, 270, 90, 1, closed, closed, -3.158478, 2.416048, 333.1194, 0.765564, 738.8225
97, Zimmerman, -100, Zimmerman, -190, -90, 1, closed, open, 3.348548, 4.456513, -258.3641, 1.323181, 741.301
98, RollinsChapel3, 177, Maynard, 90, 90, 0, closed, closed, -2.541321, 2.754219, 158.8674, 1.016113, 743.4865
99, MooreLot, 180, MooreLot, 270, 90, 1, open, open, -2.039612, 2.886157, 336.3138, 0.8631592, 745.4634
100, RollinsChapel3, 177, RollinsChapel3, 87, -90, 1, open, open, 2.515121, 4.507292, 23.3703, 0.9465942, 747.5518
101, neutral, 0, RaunerFirst, 90, 90, 0, open, open, -3.812988, 4.674057, 153.271, 1.127869, 749.8769
102, neutral, 0, Fairbanks, 90, 90, 0, closed, closed, -7.179901, 2.469897, 151.2863, 0.9051514, 751.8958
103, neutral, 0, 53Commons, 90, 90, 0, open, open, -4.058167, 5.085981, 159.3791, 1.016541, 754.0397
104, BakerBerryCharter, -90, BakerBerryCharter, 0, 90, 1, closed, closed, -4.457947, 3.64172, 59.22116, 1.044189, 756.2669
105, PineEntrance, 0, PineEntrance, -90, -90, 1, open, open, 4.636201, 2.759938, -160.1639, 1.225098, 758.6063
106, BakerBerryHistoric2, 180, BakerBerryHistoric2, 270, 90, 1, open, closed, -12.02499, 3.146777, 327.8676, 0.7799072, 760.5135
107, neutral, 0, Zimmerman, -10, 90, 0, open, open, -9.280518, 1.35436, 60.71229, 0.8353882, 767.739
108, neutral, 0, BakerBerry2nd, 4, -90, 0, closed, open, 4.139173, 3.006988, -59.4523, 0.8354492, 769.5768
109, McLaughlinCluster, 172, McLaughlinCluster, 82, -90, 1, closed, closed, 3.293838, -0.05828857, 22.09381, 1.378357, 771.9716
110, BakerBerry2nd, 94, PineBackHall, 90, -90, 0, open, closed, 1.421852, 4.853345, 25.48184, 0.8352051, 773.8787
111, neutral, 0, Hop4, -93, -90, 0, open, open, 2.66044, 5.404783, -155.7766, 0.9609375, 775.9951
112, MooreLot, 180, MooreLot, 270, 90, 1, open, open, -5.16864, 6.091032, 337.2625, 0.9051514, 777.9303
113, neutral, 0, PineBackHall, 90, -90, 0, open, open, 2.177627, 7.044862, 23.20465, 0.8911743, 779.963
114, neutral, 0, Maynard, 90, 90, 0, closed, closed, -8.878815, 3.084693, 160.397, 1.00238, 782.093
115, BakerBerryCharter, -90, MooreLot, 90, -90, 0, closed, closed, 2.769104, 4.532534, 27.86334, 0.9190674, 784.0561
116, neutral, 0, RaunerBackHall, 90, 90, 0, open, open, -5.834686, 4.138304, 163.577, 1.044067, 786.2418
117, Fairbanks, 0, BakerBerry2nd, 4, -90, 0, closed, closed, 2.147646, 3.87662, -60.0899, 0.9608765, 788.3721
118, Umplebys, -50, Umplebys, 40, 90, 1, closed, closed, -5.049255, 3.907439, 109.6886, 1.016113, 790.4185
119, neutral, 0, MooreLot, 90, -90, 0, closed, closed, 2.670891, 2.891776, 30.83304, 1.810608, 793.3289
120, Maynard, 0, PineEntrance, 90, 90, 0, closed, closed, -4.646118, 4.754076, 160.6383, 0.8491821, 795.2772
121, neutral, 0, McLaughlinCluster, 262, 90, 0, open, closed, -6.645081, 5.363458, 336.3946, 1.629089, 797.9785
122, RaunerFirst, 0, RaunerFirst, -90, -90, 1, closed, closed, 2.477002, 4.310002, -154.3192, 1.740295, 800.9717
123, RaunerBackHall, 0, RaunerBackHall, -90, -90, 1, closed, closed, 1.340443, 6.670868, -161.4115, 1.100281, 803.1576
124, Hop4, -3, Hop4, 87, 90, 1, closed, closed, -4.878296, 5.985596, 158.7939, 1.00238, 805.2874
125, neutral, 0, Hop2, -91, -90, 0, closed, closed, 2.356575, 4.243224, -159.5377, 0.9328613, 807.3201
126, RaunerFirst, 0, BakerBerryHistoric2, 90, -90, 0, closed, closed, 0.2841845, 5.474719, 28.94653, 0.9192505, 809.3672
127, AllenSt, 0, AllenSt, 90, 90, 1, closed, closed, -3.647369, 3.400574, 158.8748, 1.099792, 811.5942
128, Hop4, -3, Hop4, 87, 90, 1, closed, closed, -4.467621, 4.375012, 153.3559, 0.9328003, 813.5991
129, BakerBerryHistoric2, 180, BakerBerryHistoric2, 270, 90, 1, open, open, -5.754456, 5.022887, 341.8573, 1.029968, 815.7291
130, neutral, 0, AllenSt, -90, -90, 0, open, open, 0.3586538, 3.550138, -156.4886, 0.8492432, 817.6642
131, BakerBerry2nd, 94, BakerBerry2nd, 184, 90, 1, open, open, -3.812866, 4.141955, 253.2056, 0.8909912, 819.7109
132, Maynard, 0, Maynard, -90, -90, 1, open, open, 3.8733, 4.559233, -156.3898, 1.016418, 821.8967
133, McLaughlinCluster, 172, 53Commons, 90, 90, 0, open, open, -6.457275, 4.209982, 159.7662, 1.072021, 823.9296
134, BakerBerryCharter, -90, BakerBerryCharter, 0, 90, 1, closed, closed, -7.374298, 5.048304, 70.52335, 1.016296, 826.0317
135, PineBackHall, 180, PineBackHall, 270, 90, 1, closed, closed, -2.155701, 3.205163, 328.5912, 0.7381592, 827.8557
136, neutral, 0, Umplebys, -140, -90, 0, open, open, 0.1997194, 8.028985, -196.9543, 1.155823, 830.0692
137, 53Commons, 0, 53Commons, -90, -90, 1, closed, closed, 3.798949, 6.175082, -150.796, 1.113708, 832.2967
138, RaunerBackHall, 0, Hop2, -91, -90, 0, closed, closed, 3.060927, 5.437191, -148.9785, 0.9050293, 834.1903
139, RollinsChapel3, 177, RollinsChapel3, 87, -90, 1, open, open, 1.971661, 6.513618, 31.18222, 0.8353271, 836.1254
140, Hop2, -1, Hop2, 89, 90, 1, open, open, -7.145599, 7.160755, 154.5771, 1.099426, 838.3528
141, Fairbanks, 0, Fairbanks, -90, -90, 1, open, open, 3.168581, 2.301948, -155.1943, 1.740051, 841.1375
142, RaunerFirst, 0, RaunerFirst, -90, -90, 1, closed, closed, 2.490115, 4.959706, -154.7983, 0.9746704, 843.2258
143, Umplebys, -50, Umplebys, 40, 90, 1, closed, closed, -3.62088, 1.529868, 108.585, 0.7935791, 845.0916
144, Zimmerman, -100, RaunerBackHall, 90, 90, 0, open, open, -7.820496, 3.434422, 158.4281, 1.057983, 847.277
