trialIdx, primeName, primeAngleYaw, targetName, targetAngleYaw, targetSide, sameScenePrime, correctResponse, response, roll, pitch, yaw, rt, timestamp
1, PineBackHall, 180, MooreLot, 270, 90, 0, open, open, -0.0001218056, -11.09665, 328.633, 1.559509, 779.1809
2, PineEntrance, 0, PineEntrance, 90, 90, 1, closed, open, 2.10692, -7.22464, 147.6206, 1.698547, 782.0212
3, Umplebys, -50, Umplebys, -140, -90, 1, open, open, 8.726586, -7.192505, -217.7058, 1.280701, 784.5827
4, Hop2, -1, Hop2, -91, -90, 1, closed, open, 10.82255, -5.312195, -171.8134, 1.30896, 787.0193
5, neutral, 0, BakerBerryCharter, 0, 90, 0, closed, closed, 2.416847, -7.310333, 54.07547, 1.280945, 789.4694
6, Hop2, -1, Hop2, -91, -90, 1, closed, closed, 9.131259, -4.194794, -171.4626, 1.54541, 792.0587
7, Fairbanks, 0, BakerBerryCharter, 0, 90, 0, closed, closed, 2.157745, -9.567169, 51.15278, 1.545715, 794.7182
8, RaunerFirst, 0, RaunerFirst, 90, 90, 1, open, open, -0.3757629, -5.996338, 147.3977, 2.868042, 798.6723
9, 53Commons, 0, 53Commons, 90, 90, 1, open, open, 2.306804, -8.073212, 143.2411, 1.489624, 801.4565
10, RollinsChapel3, 177, RollinsChapel3, 267, 90, 1, closed, closed, 1.294286, -6.565521, 319.7852, 1.239197, 803.8232
11, neutral, 0, Hop4, 87, 90, 0, closed, closed, 1.274737, -7.163086, 137.8609, 1.558533, 806.4963
12, neutral, 0, RaunerFirst, -90, -90, 0, closed, closed, 10.50551, -5.750427, -162.3584, 1.392639, 808.8217
13, Umplebys, -50, Umplebys, -140, -90, 1, open, open, 8.133304, -5.861328, -204.0301, 1.225464, 811.0212
14, BakerBerry2nd, 94, BakerBerry2nd, 4, -90, 1, closed, closed, 12.06141, -8.532593, -60.38437, 1.267273, 813.1376
15, McLaughlinCluster, 172, Maynard, -90, -90, 0, open, open, 10.84969, -9.528534, -147.0985, 1.114136, 815.3928
16, Hop2, -1, Hop4, 87, 90, 0, closed, closed, 0.6839814, -11.2439, 126.9147, 1.253418, 817.7459
17, neutral, 0, RaunerBackHall, -90, -90, 0, closed, closed, 8.545995, -9.475189, -149.2186, 0.9467773, 819.8478
18, 53Commons, 0, Fairbanks, -90, -90, 0, open, open, 8.640882, -10.67087, -128.6852, 0.9751587, 821.7555
19, Maynard, 0, Maynard, 90, 90, 1, closed, open, 1.064093, -15.88251, 105.437, 1.823914, 824.4979
20, AllenSt, 0, AllenSt, -90, -90, 1, open, open, 13.68896, -10.55713, -157.0145, 1.615173, 827.2406
21, Hop4, -3, BakerBerry2nd, 184, 90, 0, open, open, 1.678089, -4.974243, 221.1976, 1.712585, 830.0807
22, BakerBerry2nd, 94, BakerBerryHistoric2, 270, 90, 0, open, open, -0.0687561, -5.182098, 327.2732, 2.088806, 833.1022
23, Hop4, -3, Hop4, -93, -90, 1, open, open, 8.296798, -7.352295, -146.6577, 1.085754, 835.2735
24, MooreLot, 180, 53Commons, -90, -90, 0, closed, open, 7.675027, -10.46454, -130.3134, 1.767761, 838.1834
25, neutral, 0, Zimmerman, -190, -90, 0, closed, open, 9.821394, -11.59625, -240.2758, 1.03064, 840.2859
26, AllenSt, 0, RaunerFirst, -90, -90, 0, closed, closed, 11.87546, -8.468262, -152.6193, 1.266907, 842.6801
27, RollinsChapel3, 177, Zimmerman, -190, -90, 0, closed, open, 9.344238, -11.5256, -246.8412, 1.420654, 845.0197
28, Maynard, 0, Maynard, 90, 90, 1, closed, open, 1.289661, -11.85727, 128.3385, 1.364197, 847.4557
29, neutral, 0, AllenSt, 90, 90, 0, closed, closed, 0.0802843, -7.998871, 141.5486, 3.898376, 852.3563
30, BakerBerryHistoric2, 180, BakerBerryHistoric2, 90, -90, 1, closed, closed, 6.690723, -7.464874, 30.04291, 1.280457, 854.5838
31, PineBackHall, 180, PineBackHall, 90, -90, 1, open, closed, 9.062518, -8.348022, 30.94678, 1.281067, 856.7282
32, RaunerBackHall, 0, RaunerBackHall, 90, 90, 1, open, open, 0.4674657, -9.945435, 142.2533, 1.698853, 859.304
33, BakerBerryCharter, -90, PineBackHall, 270, 90, 0, closed, closed, -0.5326233, -7.880615, 321.2981, 1.545227, 861.8096
34, neutral, 0, Fairbanks, -90, -90, 0, open, open, 7.401194, -8.767761, -150.2233, 0.8909302, 863.6752
35, neutral, 0, Hop2, 89, 90, 0, open, open, -4.340607, -15.26749, 138.4459, 2.199768, 874.2562
36, Zimmerman, -100, Umplebys, 40, 90, 0, closed, closed, -5.466644, -11.81622, 88.97525, 1.392517, 876.7762
37, AllenSt, 0, AllenSt, -90, -90, 1, open, open, 10.17923, -8.80426, -154.667, 1.266846, 878.9756
38, Umplebys, -50, RaunerBackHall, -90, -90, 0, closed, closed, 9.211884, -3.518005, -155.5859, 1.434875, 882.1229
39, Hop4, -3, Hop4, -93, -90, 1, open, open, 12.2005, -6.894592, -157.9894, 1.058594, 884.2387
40, McLaughlinCluster, 172, McLaughlinCluster, 262, 90, 1, open, closed, 4.13921, -6.446075, 307.4467, 1.127747, 886.4523
41, Zimmerman, -100, Zimmerman, -10, 90, 1, open, open, 1.805796, -8.338715, 27.65021, 2.005005, 889.4454
42, BakerBerryCharter, -90, BakerBerryCharter, -180, -90, 1, open, open, 7.381341, -4.702881, -231.8695, 1.281189, 891.6873
43, neutral, 0, RollinsChapel3, 87, -90, 0, open, open, 5.480417, -7.347198, 67.57211, 0.723999, 893.288
44, BakerBerryHistoric2, 180, BakerBerryHistoric2, 90, -90, 1, closed, closed, 5.039423, -7.969421, 70.86176, 1.169373, 895.3624
45, Fairbanks, 0, Fairbanks, 90, 90, 1, closed, open, 1.519895, -12.05002, 110.3783, 1.197632, 897.9244
46, neutral, 0, McLaughlinCluster, 82, -90, 0, closed, open, 7.586535, -10.89911, 42.25421, 0.7802124, 899.7621
47, RaunerFirst, 0, PineEntrance, -90, -90, 0, open, open, 10.66784, -8.051422, -152.0519, 1.211548, 902.0452
48, Zimmerman, -100, Zimmerman, -10, 90, 1, open, open, -0.2229614, -13.99335, 19.29778, 1.643066, 904.6903
49, MooreLot, 180, MooreLot, 90, -90, 1, closed, closed, 5.509638, -9.245148, 65.59805, 0.9743652, 906.7646
50, RaunerBackHall, 0, RaunerBackHall, 90, 90, 1, open, open, 1.485722, -12.18924, 125.4318, 1.726746, 909.5773
51, McLaughlinCluster, 172, McLaughlinCluster, 262, 90, 1, open, open, 0.3055701, -8.33252, 306.6205, 1.406189, 912.0692
52, PineBackHall, 180, PineBackHall, 90, -90, 1, open, open, 11.99413, -5.536743, 20.1015, 1.252869, 914.2549
53, RollinsChapel3, 177, RollinsChapel3, 267, 90, 1, closed, open, 2.687797, -5.64975, 316.3194, 1.00238, 916.2876
54, Maynard, 0, McLaughlinCluster, 82, -90, 0, closed, open, 8.162363, -10.22089, 19.08508, 0.9747314, 918.1531
55, RaunerFirst, 0, RaunerFirst, 90, 90, 1, open, open, -0.461731, -5.25, 144.7987, 1.252686, 920.4224
56, 53Commons, 0, 53Commons, 90, 90, 1, open, open, 1.866034, -9.18988, 137.6712, 1.879639, 923.3047
57, neutral, 0, Umplebys, 40, 90, 0, closed, closed, 2.110982, -0.6975098, 91.8288, 1.447815, 925.7548
58, neutral, 0, PineEntrance, -90, -90, 0, open, open, 7.091531, -8.018829, -133.8194, 1.00238, 927.6621
59, RaunerBackHall, 0, Hop2, 89, 90, 0, open, open, 0.8412218, -8.827454, 130.6128, 0.9188843, 929.4301
60, MooreLot, 180, MooreLot, 90, -90, 1, closed, open, 4.934924, -9.100311, 59.18301, 0.6685181, 931.0038
61, BakerBerryCharter, -90, BakerBerryCharter, -180, -90, 1, open, open, 6.170773, -7.4758, -237.8825, 1.782227, 933.7183
62, neutral, 0, Maynard, -90, -90, 0, open, open, 9.021772, -10.76437, -150.9192, 0.9328613, 935.5837
63, neutral, 0, PineBackHall, 270, 90, 0, closed, closed, 0.1972403, -8.160187, 310.2077, 1.141479, 937.5886
64, neutral, 0, BakerBerryHistoric2, 270, 90, 0, open, open, -1.165131, -4.502686, 319.197, 1.489624, 939.9139
65, BakerBerry2nd, 94, BakerBerry2nd, 4, -90, 1, closed, closed, 6.821419, -7.315704, -55.5488, 1.030151, 942.2527
66, BakerBerryHistoric2, 180, RollinsChapel3, 87, -90, 0, open, open, 5.182322, -6.036865, 29.95734, 1.308472, 944.4522
67, PineEntrance, 0, PineEntrance, 90, 90, 1, closed, closed, 0.083244, -5.272186, 134.9123, 1.085938, 946.5406
68, neutral, 0, 53Commons, -90, -90, 0, closed, open, 6.580345, -6.215302, -154.7168, 0.9605103, 948.3506
69, neutral, 0, MooreLot, 270, 90, 0, open, open, 0.7689388, -5.718933, 308.3264, 0.8497314, 950.0356
70, Fairbanks, 0, Fairbanks, 90, 90, 1, closed, open, 4.259981, -10.73944, 126.0037, 1.698303, 952.987
71, neutral, 0, BakerBerry2nd, 184, 90, 0, open, open, 13.92602, 2.490232, 206.4841, 4.065674, 1001.116
72, PineEntrance, 0, AllenSt, 90, 90, 0, closed, open, 9.223767, 18.05524, 69.17166, 6.515808, 1009.094
73, PineBackHall, 180, Fairbanks, 90, 90, 0, closed, open, 0.4662222, -3.884247, 154.2641, 1.47583, 1015.54
74, AllenSt, 0, Zimmerman, -10, 90, 0, open, open, 2.417524, -5.966827, 49.39938, 1.197571, 1017.879
75, Hop4, -3, RollinsChapel3, 267, 90, 0, closed, open, 3.227506, -5.125488, 321.2888, 1.114014, 1019.87
76, BakerBerryHistoric2, 180, RaunerFirst, 90, 90, 0, open, open, 0.5240485, -6.309265, 147.6063, 1.434143, 1022.264
77, neutral, 0, BakerBerryCharter, -180, -90, 0, open, open, 2.254805, -2.87735, -245.0707, 1.253235, 1024.492
78, PineEntrance, 0, PineEntrance, -90, -90, 1, open, open, 3.082296, -5.027802, -159.3696, 1.586914, 1027.151
79, McLaughlinCluster, 172, McLaughlinCluster, 82, -90, 1, closed, closed, 2.296829, -7.284119, 16.71005, 1.364502, 1029.643
80, Maynard, 0, Maynard, -90, -90, 1, open, open, 5.800163, -7.290863, -155.7494, 1.238892, 1031.87
81, neutral, 0, RollinsChapel3, 267, 90, 0, closed, closed, 3.06773, -10.57834, 309.9352, 1.364258, 1034.321
82, PineEntrance, 0, BakerBerryCharter, -180, -90, 0, open, open, 8.501837, -7.413879, -248.6007, 1.072144, 1036.507
83, Umplebys, -50, AllenSt, -90, -90, 0, open, open, 7.180053, -6.779968, -151.9881, 1.336304, 1038.957
84, neutral, 0, BakerBerryHistoric2, 90, -90, 0, closed, closed, 5.706228, -7.637146, 59.16238, 0.9467773, 1040.864
85, 53Commons, 0, 53Commons, -90, -90, 1, closed, closed, 6.86956, -9.135101, -140.804, 1.11377, 1043.022
86, MooreLot, 180, Hop4, -93, -90, 0, open, open, 7.095826, -6.66684, -145.5482, 0.8353271, 1044.916
87, Hop2, -1, Umplebys, -140, -90, 0, open, open, 6.37221, -6.183197, -180.432, 0.8078613, 1046.6
88, 53Commons, 0, McLaughlinCluster, 262, 90, 0, open, open, 1.513007, -7.347656, 298.5214, 1.239136, 1048.897
89, RaunerBackHall, 0, RaunerBackHall, -90, -90, 1, closed, closed, 5.104019, -6.474884, -134.7187, 0.9744873, 1050.791
90, Fairbanks, 0, Fairbanks, -90, -90, 1, open, open, 4.834268, -7.085358, -130.2357, 0.848999, 1052.684
91, Zimmerman, -100, Zimmerman, -190, -90, 1, closed, open, 5.222013, -6.891174, -223.5042, 0.7097168, 1054.369
92, Hop2, -1, Hop2, 89, 90, 1, open, open, -0.4156494, -8.207245, 139.5997, 1.266968, 1056.569
93, AllenSt, 0, AllenSt, 90, 90, 1, closed, closed, 0.4061801, -5.490784, 137.7463, 1.768677, 1059.367
94, BakerBerry2nd, 94, BakerBerry2nd, 184, 90, 1, open, open, 0.9401186, -5.636444, 235.7834, 1.6427, 1062.179
95, neutral, 0, PineEntrance, 90, 90, 0, closed, closed, 0.4657573, -2.357605, 144.0444, 1.434204, 1064.713
96, PineBackHall, 180, PineBackHall, 270, 90, 1, closed, closed, 0.3125686, -2.899231, 322.6713, 1.322632, 1067.052
97, Zimmerman, -100, Zimmerman, -190, -90, 1, closed, closed, 6.260065, -3.38147, -244.3342, 2.881836, 1070.867
98, RollinsChapel3, 177, Maynard, 90, 90, 0, closed, open, 1.77629, -5.11322, 141.5009, 1.155396, 1073.317
99, MooreLot, 180, MooreLot, 270, 90, 1, open, open, 2.183949, -2.843903, 321.4211, 1.238892, 1075.684
100, RollinsChapel3, 177, RollinsChapel3, 87, -90, 1, open, open, 1.931368, -7.995728, 18.73358, 0.9604492, 1077.744
101, neutral, 0, RaunerFirst, 90, 90, 0, open, closed, 2.033953, -5.006165, 141.2915, 0.8217773, 1079.68
102, neutral, 0, Fairbanks, 90, 90, 0, closed, open, 1.662469, -6.252502, 138.7323, 1.280884, 1082.088
103, neutral, 0, 53Commons, 90, 90, 0, open, open, 1.303864, -2.93222, 146.1073, 1.113525, 1084.274
104, BakerBerryCharter, -90, BakerBerryCharter, 0, 90, 1, closed, closed, 3.790066, -4.833557, 50.58659, 1.15564, 1086.474
105, PineEntrance, 0, PineEntrance, -90, -90, 1, open, open, 5.091894, -4.78009, -164.941, 1.12793, 1088.618
106, BakerBerryHistoric2, 180, BakerBerryHistoric2, 270, 90, 1, open, open, 3.027622, -2.226196, 321.0059, 1.587036, 1091.208
107, neutral, 0, Zimmerman, -10, 90, 0, open, open, -3.017914, -12.6611, 37.6712, 0.9744873, 1099.909
108, neutral, 0, BakerBerry2nd, 4, -90, 0, closed, open, 7.817639, -11.11075, -60.9014, 0.9051514, 1101.733
109, McLaughlinCluster, 172, McLaughlinCluster, 82, -90, 1, closed, open, 4.80026, -9.34906, 30.26492, 1.197388, 1104.002
110, BakerBerry2nd, 94, PineBackHall, 90, -90, 0, open, closed, 6.971168, -5.595337, 23.88782, 0.9882813, 1105.979
111, neutral, 0, Hop4, -93, -90, 0, open, open, 7.530269, -4.781189, -162.0361, 1.11377, 1108.165
112, MooreLot, 180, MooreLot, 270, 90, 1, open, open, 4.469855, -3.916351, 320.0222, 1.22522, 1110.462
113, neutral, 0, PineBackHall, 90, -90, 0, open, open, 6.475722, -4.118958, 14.04388, 0.9746094, 1112.355
114, neutral, 0, Maynard, 90, 90, 0, closed, open, 3.710172, -3.488861, 142.4457, 1.099487, 1114.443
115, BakerBerryCharter, -90, MooreLot, 90, -90, 0, closed, closed, 3.290483, -4.674591, 22.42578, 1.169556, 1116.56
116, neutral, 0, RaunerBackHall, 90, 90, 0, open, open, 2.56419, -1.568237, 143.3105, 1.155396, 1118.648
117, Fairbanks, 0, BakerBerry2nd, 4, -90, 0, closed, closed, 5.358424, -3.569824, -69.56116, 1.238281, 1120.932
118, Umplebys, -50, Umplebys, 40, 90, 1, closed, closed, 1.871831, -6.442291, 84.83104, 1.225342, 1123.062
119, neutral, 0, MooreLot, 90, -90, 0, closed, closed, 4.757165, -3.14682, 53.17532, 2.283325, 1126.278
120, Maynard, 0, PineEntrance, 90, 90, 0, closed, closed, 1.148651, -3.915955, 141.0903, 1.294922, 1128.672
121, neutral, 0, McLaughlinCluster, 262, 90, 0, open, open, -1.013031, -4.052216, 314.9938, 1.15564, 1130.844
122, RaunerFirst, 0, RaunerFirst, -90, -90, 1, closed, open, 6.500967, -3.835602, -159.9383, 1.28064, 1133.183
123, RaunerBackHall, 0, RaunerBackHall, -90, -90, 1, closed, closed, 9.10715, -2.63913, -163.2871, 1.72644, 1141.718
124, Hop4, -3, Hop4, 87, 90, 1, closed, closed, 1.930664, -7.828888, 132.3241, 1.309692, 1143.988
125, neutral, 0, Hop2, -91, -90, 0, closed, closed, 5.55199, -5.78299, -153.114, 2.074463, 1147.189
126, RaunerFirst, 0, BakerBerryHistoric2, 90, -90, 0, closed, closed, 5.858109, -1.51712, 22.74686, 1.503784, 1150.405
127, AllenSt, 0, AllenSt, 90, 90, 1, closed, closed, 2.824226, -2.977234, 139.7878, 1.601196, 1153.176
128, Hop4, -3, Hop4, 87, 90, 1, closed, closed, 4.916119, -2.317505, 131.3975, 1.781982, 1156.169
129, BakerBerryHistoric2, 180, BakerBerryHistoric2, 270, 90, 1, open, open, 3.259166, -1.838196, 318.5276, 2.032593, 1159.385
130, neutral, 0, AllenSt, -90, -90, 0, open, open, 3.914463, -4.37088, -155.8337, 1.044189, 1161.557
131, BakerBerry2nd, 94, BakerBerry2nd, 184, 90, 1, open, open, 1.068313, -2.746582, 235.0721, 1.030273, 1163.701
132, Maynard, 0, Maynard, -90, -90, 1, open, open, 3.618809, -3.04837, -157.959, 1.030029, 1165.594
133, McLaughlinCluster, 172, 53Commons, 90, 90, 0, open, open, 2.458639, -2.98642, 140.1148, 0.9188232, 1167.363
134, BakerBerryCharter, -90, BakerBerryCharter, 0, 90, 1, closed, closed, 4.43532, -4.008301, 44.01134, 1.42041, 1169.687
135, PineBackHall, 180, PineBackHall, 270, 90, 1, closed, closed, 2.558855, -1.014832, 319.3705, 1.865601, 1172.5
136, neutral, 0, Umplebys, -140, -90, 0, open, open, 4.345841, -3.515381, -203.4393, 1.058228, 1174.588
137, 53Commons, 0, 53Commons, -90, -90, 1, closed, closed, 6.483942, -5.510498, -159.6691, 1.47583, 1177.15
138, RaunerBackHall, 0, Hop2, -91, -90, 0, closed, closed, 5.881094, -2.687378, -156.4304, 1.058472, 1179.21
139, RollinsChapel3, 177, RollinsChapel3, 87, -90, 1, open, open, 5.704315, -5.310852, 20.06989, 1.044067, 1181.201
140, Hop2, -1, Hop2, 89, 90, 1, open, open, 2.886144, -3.258423, 137.0639, 1.183228, 1183.303
141, Fairbanks, 0, Fairbanks, -90, -90, 1, open, open, 4.287234, -6.240845, -154.5042, 0.9874268, 1185.239
142, RaunerFirst, 0, RaunerFirst, -90, -90, 1, closed, closed, 3.19861, -3.662048, -152.0785, 1.043945, 1187.146
143, Umplebys, -50, Umplebys, 40, 90, 1, closed, closed, 3.593876, -2.042084, 89.11095, 1.141846, 1189.22
144, Zimmerman, -100, RaunerBackHall, 90, 90, 0, open, open, 1.001878, -4.710022, 139.3634, 1.545654, 1191.643
