trialIdx, primeName, primeAngleYaw, targetName, targetAngleYaw, targetSide, sameScenePrime, correctResponse, response, roll, pitch, yaw, rt, timestamp
1, PineBackHall, 180, MooreLot, 270, 90, 0, open, open, 0.6105168, 2.293317, 350.1328, 2.46405, 699.4858
2, PineEntrance, 0, PineEntrance, 90, 90, 1, closed, closed, -0.2698975, 14.43944, 181.5696, 1.433716, 705.6811
3, Umplebys, -50, Umplebys, -140, -90, 1, open, closed, -5.180695, 2.082413, -227.7794, 1.322937, 713.269
4, Hop2, -1, Hop2, -91, -90, 1, closed, closed, -2.63562, 4.281591, -173.5678, 1.294922, 716.9305
5, neutral, 0, BakerBerryCharter, 0, 90, 0, closed, closed, -1.315918, 1.953597, 93.09775, 1.19751, 719.9516
6, Hop2, -1, Hop2, -91, -90, 1, closed, closed, -2.3862, 0.2845545, -168.8832, 1.183472, 724.3789
7, Fairbanks, 0, BakerBerryCharter, 0, 90, 0, closed, closed, -0.9888306, 0.1295902, 93.85187, 1.378235, 728.3883
8, RaunerFirst, 0, RaunerFirst, 90, 90, 1, open, open, -2.53598, 2.869438, 174.0674, 2.102234, 733.8321
9, 53Commons, 0, 53Commons, 90, 90, 1, open, open, 0.5087107, 2.745123, 179.6347, 1.127319, 737.4239
10, RollinsChapel3, 177, RollinsChapel3, 267, 90, 1, closed, closed, 0.6462971, 6.587302, 362.6061, 1.322632, 741.0718
11, neutral, 0, Hop4, 87, 90, 0, closed, closed, -1.233398, 4.651152, 184.2778, 1.211548, 744.8308
12, neutral, 0, RaunerFirst, -90, -90, 0, closed, closed, -3.398468, 3.99746, -185.8446, 1.19751, 748.0746
13, Umplebys, -50, Umplebys, -140, -90, 1, open, open, -4.104797, 2.29537, -228.3396, 1.434082, 755.6066
14, BakerBerry2nd, 94, BakerBerry2nd, 4, -90, 1, closed, closed, -3.277283, 0.1161495, -87.35367, 1.754089, 759.2819
15, McLaughlinCluster, 172, Maynard, -90, -90, 0, open, open, -3.090881, 1.931365, -170.9089, 1.752869, 762.7626
16, Hop2, -1, Hop4, 87, 90, 0, closed, closed, -1.29306, 3.082022, 174.4025, 1.392456, 766.0762
17, neutral, 0, RaunerBackHall, -90, -90, 0, closed, closed, -2.766327, 2.103087, -179.2363, 1.05719, 769.0833
18, 53Commons, 0, Fairbanks, -90, -90, 0, open, open, -1.942657, -2.456146, -172.8395, 1.211182, 771.7704
19, Maynard, 0, Maynard, 90, 90, 1, closed, closed, -0.4924011, 1.661858, 179.8975, 1.15564, 774.2346
20, AllenSt, 0, AllenSt, -90, -90, 1, open, open, -4.347992, -0.5683289, -181.2957, 1.448059, 777.1027
21, Hop4, -3, BakerBerry2nd, 184, 90, 0, open, open, -2.247803, 2.209774, 270.9896, 1.461853, 780.4022
22, BakerBerry2nd, 94, BakerBerryHistoric2, 270, 90, 0, open, open, -0.3279724, 10.81694, 369.0984, 1.670471, 783.3257
23, Hop4, -3, Hop4, -93, -90, 1, open, open, -3.298676, 3.283759, -179.3473, 1.462036, 786.4307
24, MooreLot, 180, 53Commons, -90, -90, 0, closed, open, -3.856537, -0.1459351, -163.7615, 1.907104, 789.6464
25, neutral, 0, Zimmerman, -190, -90, 0, closed, open, -2.263458, -0.372467, -273.5825, 1.573181, 792.6399
26, AllenSt, 0, RaunerFirst, -90, -90, 0, closed, closed, -3.096252, 0.2978944, -171.2656, 1.197388, 795.2155
27, RollinsChapel3, 177, Zimmerman, -190, -90, 0, closed, open, -2.312927, -1.425629, -270.1985, 1.224976, 797.9302
28, Maynard, 0, Maynard, 90, 90, 1, closed, closed, -1.114166, 1.771736, 180.6344, 1.378418, 800.9932
29, neutral, 0, AllenSt, 90, 90, 0, closed, closed, -0.6209106, 9.108889, 182.645, 1.253052, 803.6525
30, BakerBerryHistoric2, 180, BakerBerryHistoric2, 90, -90, 1, closed, closed, -2.995575, 4.933519, -3.576599, 1.447327, 807.5645
31, PineBackHall, 180, PineBackHall, 90, -90, 1, open, closed, -1.869904, 7.811738, 17.18585, 1.754395, 810.8224
32, RaunerBackHall, 0, RaunerBackHall, 90, 90, 1, open, open, -2.13327, 4.375779, 179.5449, 1.336792, 813.621
33, BakerBerryCharter, -90, PineBackHall, 270, 90, 0, closed, closed, -2.072388, 2.884552, 358.5833, 1.656982, 816.6977
34, neutral, 0, Fairbanks, -90, -90, 0, open, open, 0.2757506, 0.2445203, -179.8718, 1.016602, 818.9949
35, neutral, 0, Hop2, 89, 90, 0, open, open, -1.80545, 2.61938, 176.7831, 1.295349, 834.1846
36, Zimmerman, -100, Umplebys, 40, 90, 0, closed, closed, 0.06373721, 7.955711, 135.0716, 1.183472, 836.5646
37, AllenSt, 0, AllenSt, -90, -90, 1, open, open, -4.852692, 0.1811446, -172.3447, 0.9188843, 838.5278
38, Umplebys, -50, RaunerBackHall, -90, -90, 0, closed, closed, -4.597931, 5.871545, -174.8733, 0.8353882, 842.0501
39, Hop4, -3, Hop4, -93, -90, 1, open, open, -4.603394, 2.144706, -172.4773, 1.085938, 844.8066
40, McLaughlinCluster, 172, McLaughlinCluster, 262, 90, 1, open, open, 0.6247815, 6.625288, 357.664, 0.9187622, 851.3222
41, Zimmerman, -100, Zimmerman, -10, 90, 1, open, open, -0.3955994, 8.711529, 75.20309, 0.9330444, 853.8423
42, BakerBerryCharter, -90, BakerBerryCharter, -180, -90, 1, open, closed, -5.455597, 1.951638, -257.1842, 1.058411, 856.4459
43, neutral, 0, RollinsChapel3, 87, -90, 0, open, open, -5.738495, 3.491311, 14.57007, 1.336426, 859.1049
44, BakerBerryHistoric2, 180, BakerBerryHistoric2, 90, -90, 1, closed, closed, -5.037323, 2.404377, 18.8898, 1.322693, 861.9034
45, Fairbanks, 0, Fairbanks, 90, 90, 1, closed, open, -3.642609, 1.227191, 166.0772, 1.531128, 864.7853
46, neutral, 0, McLaughlinCluster, 82, -90, 0, closed, open, -5.622833, -3.265015, 6.44223, 1.239136, 867.3886
47, RaunerFirst, 0, PineEntrance, -90, -90, 0, open, closed, -3.945862, 3.125285, -158.6523, 1.47583, 870.3681
48, Zimmerman, -100, Zimmerman, -10, 90, 1, open, open, -2.884857, 4.923436, 62.80389, 1.210999, 872.8322
49, MooreLot, 180, MooreLot, 90, -90, 1, closed, closed, -8.300476, 2.535408, 15.3334, 0.9190063, 875.0879
50, RaunerBackHall, 0, RaunerBackHall, 90, 90, 1, open, open, -3.463593, 6.892721, 165.7924, 1.141724, 877.566
51, McLaughlinCluster, 172, McLaughlinCluster, 262, 90, 1, open, open, -0.7044983, 11.26482, 342.0351, 3.341309, 882.0905
52, PineBackHall, 180, PineBackHall, 90, -90, 1, open, open, -9.968597, 35.59317, -14.41852, 1.893188, 885.6128
53, RollinsChapel3, 177, RollinsChapel3, 267, 90, 1, closed, open, 1.607406, 6.289312, 352.6507, 2.352661, 890.7642
54, Maynard, 0, McLaughlinCluster, 82, -90, 0, closed, open, -6.490784, 1.114958, 4.556152, 1.169739, 893.7159
55, RaunerFirst, 0, RaunerFirst, 90, 90, 1, open, open, -1.208862, 7.894456, 168.6927, 1.030518, 896.4447
56, 53Commons, 0, 53Commons, 90, 90, 1, open, open, -1.516113, 7.501706, 161.4952, 0.8218384, 898.5748
57, neutral, 0, Umplebys, 40, 90, 0, closed, closed, -2.732574, 8.655661, 112.1159, 0.9188232, 900.8717
58, neutral, 0, PineEntrance, -90, -90, 0, open, open, -6.327637, 2.576804, -154.5576, 1.364258, 903.4194
59, RaunerBackHall, 0, Hop2, 89, 90, 0, open, open, -3.565338, 8.219843, 163.9817, 1.503357, 906.2457
60, MooreLot, 180, MooreLot, 90, -90, 1, closed, closed, -6.718506, 0.949827, 21.29117, 1.433899, 909.0024
61, BakerBerryCharter, -90, BakerBerryCharter, -180, -90, 1, open, open, -5.511566, 2.430394, -252.4233, 1.517578, 911.926
62, neutral, 0, Maynard, -90, -90, 0, open, open, -3.004669, -0.01702881, -162.6781, 1.573181, 914.8497
63, neutral, 0, PineBackHall, 270, 90, 0, closed, closed, -2.72876, 6.735084, 344.3312, 1.044495, 917.342
64, neutral, 0, BakerBerryHistoric2, 270, 90, 0, open, open, -4.061646, 7.731993, 350.1393, 1.128174, 919.8481
65, BakerBerry2nd, 94, BakerBerry2nd, 4, -90, 1, closed, closed, -4.598877, 1.284043, -65.13354, 1.183533, 922.7437
66, BakerBerryHistoric2, 180, RollinsChapel3, 87, -90, 0, open, open, -7.01123, 1.282019, 20.80872, 1.392395, 925.3334
67, PineEntrance, 0, PineEntrance, 90, 90, 1, closed, closed, -1.115295, 11.97216, 160.3143, 0.8355103, 929.1064
68, neutral, 0, 53Commons, -90, -90, 0, closed, open, -5.775604, 1.280157, -167.9118, 0.8494263, 931.4035
69, neutral, 0, MooreLot, 270, 90, 0, open, open, -3.498199, 6.375172, 340.0607, 0.8349609, 935.2601
70, Fairbanks, 0, Fairbanks, 90, 90, 1, closed, open, -0.9841614, 0.5429514, 159.6041, 1.266846, 937.8911
71, neutral, 0, BakerBerry2nd, 184, 90, 0, open, open, -0.1784973, 11.92672, 268.2859, 1.350586, 1006.104
72, PineEntrance, 0, AllenSt, 90, 90, 0, closed, closed, -1.768005, 5.248464, 170.3855, 1.68457, 1011.395
73, PineBackHall, 180, Fairbanks, 90, 90, 0, closed, open, -1.001221, 5.17324, 172.6263, 0.9603882, 1013.817
74, AllenSt, 0, Zimmerman, -10, 90, 0, open, open, -1.515259, 5.215645, 72.75153, 1.002258, 1016.699
75, Hop4, -3, RollinsChapel3, 267, 90, 0, closed, open, -3.634552, 10.28522, 333.8073, 0.9886475, 1019.038
76, BakerBerryHistoric2, 180, RaunerFirst, 90, 90, 0, open, open, -2.409119, 8.931217, 154.6961, 0.9883423, 1021.628
77, neutral, 0, BakerBerryCharter, -180, -90, 0, open, open, -6.909668, 3.054954, -248.1369, 1.22522, 1024.231
78, PineEntrance, 0, PineEntrance, -90, -90, 1, open, open, -2.7164, 13.00732, -199.5658, 1.391968, 1027.001
79, McLaughlinCluster, 172, McLaughlinCluster, 82, -90, 1, closed, open, -4.207092, -2.282501, 5.387817, 1.294678, 1029.689
80, Maynard, 0, Maynard, -90, -90, 1, open, open, -6.34259, 0.8968298, -167.9689, 1.141724, 1032.181
81, neutral, 0, RollinsChapel3, 267, 90, 0, closed, closed, -3.081604, 10.75274, 346.6702, 0.8771973, 1034.659
82, PineEntrance, 0, BakerBerryCharter, -180, -90, 0, open, open, -6.262421, 6.936952, -277.4589, 0.9188232, 1037.429
83, Umplebys, -50, AllenSt, -90, -90, 0, open, open, -5.666412, 1.102962, -156.1158, 1.099976, 1039.852
84, neutral, 0, BakerBerryHistoric2, 90, -90, 0, closed, closed, -5.963684, 3.519839, 22.00085, 0.9467773, 1042.219
85, 53Commons, 0, 53Commons, -90, -90, 1, closed, open, -5.73053, 0.8366588, -161.3507, 0.821167, 1044.335
86, MooreLot, 180, Hop4, -93, -90, 0, open, open, -6.00116, 3.873373, -158.3524, 0.8908691, 1046.576
87, Hop2, -1, Umplebys, -140, -90, 0, open, open, -6.537201, 0.9487114, -215.3833, 1.002686, 1048.721
88, 53Commons, 0, McLaughlinCluster, 262, 90, 0, open, open, -4.957184, 12.23736, 321.7688, 1.1698, 1051.213
89, RaunerBackHall, 0, RaunerBackHall, -90, -90, 1, closed, closed, -4.663818, 1.195393, -163.0486, 1.085815, 1053.802
90, Fairbanks, 0, Fairbanks, -90, -90, 1, open, open, -6.010132, -0.6132813, -158.8876, 0.7797852, 1056.03
91, Zimmerman, -100, Zimmerman, -190, -90, 1, closed, open, -4.619019, -1.54422, -263.6086, 0.9049072, 1058.188
92, Hop2, -1, Hop2, 89, 90, 1, open, open, -3.785645, 7.522532, 153.7692, 0.9885254, 1060.582
93, AllenSt, 0, AllenSt, 90, 90, 1, closed, closed, -4.684174, 5.880297, 150.929, 1.072021, 1063.116
94, BakerBerry2nd, 94, BakerBerry2nd, 184, 90, 1, open, open, -5.205414, 5.96713, 248.4875, 1.22522, 1065.622
95, neutral, 0, PineEntrance, 90, 90, 0, closed, closed, -1.165619, 17.75432, 138.7867, 2.770752, 1071.149
96, PineBackHall, 180, PineBackHall, 270, 90, 1, closed, closed, -3.151611, 6.736569, 350.2781, 0.9747314, 1074.003
97, Zimmerman, -100, Zimmerman, -190, -90, 1, closed, open, -4.809479, -2.546692, -257.1256, 0.5986328, 1081.285
98, RollinsChapel3, 177, Maynard, 90, 90, 0, closed, closed, -0.6836548, 5.686865, 161.7357, 1.364624, 1088.009
99, MooreLot, 180, MooreLot, 270, 90, 1, open, open, -1.76828, 3.329519, 344.7012, 1.294922, 1094.051
100, RollinsChapel3, 177, RollinsChapel3, 87, -90, 1, open, open, -10.21533, 2.003464, 18.32977, 0.7241211, 1096.098
101, neutral, 0, RaunerFirst, 90, 90, 0, open, open, -2.216888, 3.392995, 152.4214, 1.099854, 1098.854
102, neutral, 0, Fairbanks, 90, 90, 0, closed, open, -4.919922, 4.385144, 159.164, 1.072266, 1101.194
103, neutral, 0, 53Commons, 90, 90, 0, open, open, -5.10968, 6.98864, 162.3493, 1.044312, 1103.491
104, BakerBerryCharter, -90, BakerBerryCharter, 0, 90, 1, closed, closed, -2.549011, 5.096289, 68.19362, 0.7382813, 1105.663
105, PineEntrance, 0, PineEntrance, -90, -90, 1, open, open, -5.786835, 7.242763, -171.3248, 1.322754, 1108.503
106, BakerBerryHistoric2, 180, BakerBerryHistoric2, 270, 90, 1, open, open, -1.120331, 10.58773, 337.2687, 0.8771973, 1110.689
107, neutral, 0, Zimmerman, -10, 90, 0, open, open, -2.163635, 4.039487, 69.35158, 0.9051514, 1122.453
108, neutral, 0, BakerBerry2nd, 4, -90, 0, closed, closed, -6.421814, 1.384838, -56.48682, 1.434082, 1125.001
109, McLaughlinCluster, 172, McLaughlinCluster, 82, -90, 1, closed, closed, -9.204193, -1.483337, 22.72537, 1.907349, 1128.593
110, BakerBerry2nd, 94, PineBackHall, 90, -90, 0, open, open, -4.594086, 5.479442, -6.576416, 1.656738, 1131.516
111, neutral, 0, Hop4, -93, -90, 0, open, open, -4.607574, 1.283475, -169.3631, 1.37793, 1135.568
112, MooreLot, 180, MooreLot, 270, 90, 1, open, open, 0.5953333, 8.677925, 340.5318, 1.22522, 1137.726
113, neutral, 0, PineBackHall, 90, -90, 0, open, open, -6.384338, 8.914445, 18.49261, 1.044067, 1139.898
114, neutral, 0, Maynard, 90, 90, 0, closed, closed, -3.465546, 7.998471, 160.2343, 1.11377, 1142.181
115, BakerBerryCharter, -90, MooreLot, 90, -90, 0, closed, open, -8.379944, 6.110737, 19.40961, 0.9046631, 1144.227
116, neutral, 0, RaunerBackHall, 90, 90, 0, open, open, -1.147278, 11.13124, 161.3838, 1.099976, 1147.471
117, Fairbanks, 0, BakerBerry2nd, 4, -90, 0, closed, closed, -7.016876, 1.351749, -68.97345, 1.322266, 1150.089
118, Umplebys, -50, Umplebys, 40, 90, 1, closed, closed, -0.9668884, 10.4948, 109.2738, 0.9329834, 1152.288
119, neutral, 0, MooreLot, 90, -90, 0, closed, closed, -6.615295, 7.514679, 14.53638, 1.030029, 1154.516
120, Maynard, 0, PineEntrance, 90, 90, 0, closed, closed, -1.222717, 8.285168, 149.1955, 0.9743652, 1156.744
121, neutral, 0, McLaughlinCluster, 262, 90, 0, open, open, -1.293793, 9.864974, 329.1562, 1.141479, 1159.11
122, RaunerFirst, 0, RaunerFirst, -90, -90, 1, closed, closed, -6.938721, 4.754552, -163.5409, 1.19751, 1161.63
123, RaunerBackHall, 0, RaunerBackHall, -90, -90, 1, closed, closed, -4.592743, 3.421818, -171.6592, 1.531616, 1164.484
124, Hop4, -3, Hop4, 87, 90, 1, closed, closed, 0.1016331, 12.11856, 154.3776, 1.322632, 1167.116
125, neutral, 0, Hop2, -91, -90, 0, closed, closed, -6.229645, 2.431508, -161.9275, 1.782104, 1170.248
126, RaunerFirst, 0, BakerBerryHistoric2, 90, -90, 0, closed, closed, -6.488068, 1.329155, 24.06763, 1.28064, 1172.838
127, AllenSt, 0, AllenSt, 90, 90, 1, closed, closed, -6.975677, 8.274111, 152.8969, 1.489746, 1175.761
128, Hop4, -3, Hop4, 87, 90, 1, closed, closed, -4.24826, 7.416512, 151.3903, 1.11377, 1178.17
129, BakerBerryHistoric2, 180, BakerBerryHistoric2, 270, 90, 1, open, open, -4.01709, 11.50902, 338.8435, 1.322876, 1180.843
130, neutral, 0, AllenSt, -90, -90, 0, open, open, -4.56601, 3.00391, -162.6605, 1.503784, 1183.474
131, BakerBerry2nd, 94, BakerBerry2nd, 184, 90, 1, open, open, -1.356659, 6.747653, 248.8109, 1.002563, 1185.925
132, Maynard, 0, Maynard, -90, -90, 1, open, open, -7.364532, 3.672405, -164.9526, 0.9047852, 1187.957
133, McLaughlinCluster, 172, 53Commons, 90, 90, 0, open, open, -2.024567, 9.353734, 162.6151, 1.127686, 1190.268
134, BakerBerryCharter, -90, BakerBerryCharter, 0, 90, 1, closed, closed, -2.132141, 8.035002, 69.75288, 1.364502, 1192.788
135, PineBackHall, 180, PineBackHall, 270, 90, 1, closed, closed, -5.226013, 9.073983, 339.9443, 1.183228, 1195.169
136, neutral, 0, Umplebys, -140, -90, 0, open, open, -4.672516, 1.638623, -211.0043, 1.030273, 1197.633
137, 53Commons, 0, 53Commons, -90, -90, 1, closed, closed, -4.522217, 3.222456, -153.5608, 1.865845, 1200.808
138, RaunerBackHall, 0, Hop2, -91, -90, 0, closed, closed, -6.110535, 2.754623, -161.5438, 1.211304, 1203.369
139, RollinsChapel3, 177, RollinsChapel3, 87, -90, 1, open, open, -8.995514, 2.753097, 20.50467, 1.684692, 1206.224
140, Hop2, -1, Hop2, 89, 90, 1, open, open, -3.722565, 4.888359, 151.641, 1.44812, 1208.897
141, Fairbanks, 0, Fairbanks, -90, -90, 1, open, open, -4.207703, 1.039316, -168.7307, 1.043945, 1210.859
142, RaunerFirst, 0, RaunerFirst, -90, -90, 1, closed, closed, -4.864044, 0.873919, -161.9063, 1.002808, 1214.995
143, Umplebys, -50, Umplebys, 40, 90, 1, closed, closed, -2.541565, 7.194439, 109.9279, 1.294678, 1217.723
144, Zimmerman, -100, RaunerBackHall, 90, 90, 0, open, open, -4.111664, 3.762643, 160.2177, 1.294556, 1220.271
