trialIdx, primeName, primeAngleYaw, targetName, targetAngleYaw, targetSide, sameScenePrime, correctResponse, response, roll, pitch, yaw, rt, timestamp
1, PineBackHall, 180, MooreLot, 270, 90, 0, open, open, -0.9492188, 10.94361, 340.9417, 1.656677, 622.5523
2, PineEntrance, 0, PineEntrance, 90, 90, 1, closed, closed, -5.419922, 8.396646, 157.0034, 0.9885254, 627.6479
3, Umplebys, -50, Umplebys, -140, -90, 1, open, open, 0.3526202, 3.484691, -209.3996, 1.155396, 630.2375
4, Hop2, -1, Hop2, -91, -90, 1, closed, closed, 2.791713, 1.562176, -164.0659, 1.253174, 632.7437
5, neutral, 0, BakerBerryCharter, 0, 90, 0, closed, closed, -4.680908, 4.988634, 64.99074, 1.141846, 636.5863
6, Hop2, -1, Hop2, -91, -90, 1, closed, closed, 2.067813, 0.3094554, -161.8271, 1.225342, 639.9971
7, Fairbanks, 0, BakerBerryCharter, 0, 90, 0, closed, closed, -3.78894, 4.930397, 65.44506, 1.225098, 642.517
8, RaunerFirst, 0, RaunerFirst, 90, 90, 1, open, open, -3.191345, 4.757843, 154.3705, 1.294617, 645.1901
9, 53Commons, 0, 53Commons, 90, 90, 1, open, open, -3.559082, 2.98242, 153.8836, 1.196777, 647.8074
10, RollinsChapel3, 177, RollinsChapel3, 267, 90, 1, closed, closed, -0.8486938, 4.241498, 325.4274, 1.113708, 650.4944
11, neutral, 0, Hop4, 87, 90, 0, closed, closed, -2.205109, 3.615078, 149.7018, 0.9745483, 652.931
12, neutral, 0, RaunerFirst, -90, -90, 0, closed, closed, 1.478939, 0.6412558, -163.2354, 1.33667, 655.8685
13, Umplebys, -50, Umplebys, -140, -90, 1, open, open, 0.03875742, -1.011597, -208.8064, 1.04425, 660.3655
14, BakerBerry2nd, 94, BakerBerry2nd, 4, -90, 1, closed, closed, -1.074799, -1.453003, -68.36301, 1.016357, 662.5928
15, McLaughlinCluster, 172, Maynard, -90, -90, 0, open, open, 1.05215, -1.75946, -161.7448, 1.712036, 665.767
16, Hop2, -1, Hop4, 87, 90, 0, closed, closed, -1.952972, 7.762041, 150.1597, 2.394409, 671.879
17, neutral, 0, RaunerBackHall, -90, -90, 0, closed, closed, 2.816, 2.559442, -166.0438, 1.239197, 675.8332
18, 53Commons, 0, Fairbanks, -90, -90, 0, open, open, 1.410478, -0.8742676, -163.1758, 1.462097, 678.8682
19, Maynard, 0, Maynard, 90, 90, 1, closed, closed, -2.937622, 2.37759, 153.2509, 1.253113, 681.6111
20, AllenSt, 0, AllenSt, -90, -90, 1, open, open, 1.455387, 1.400692, -165.6324, 0.9608154, 685.6205
21, Hop4, -3, BakerBerry2nd, 184, 90, 0, open, open, -3.142914, 4.779042, 246.0602, 1.322632, 688.8365
22, BakerBerry2nd, 94, BakerBerryHistoric2, 270, 90, 0, open, open, -3.015198, 5.769606, 332.7122, 1.211121, 691.8018
23, Hop4, -3, Hop4, -93, -90, 1, open, open, 0.6245707, 2.86787, -161.494, 1.197327, 694.851
24, MooreLot, 180, 53Commons, -90, -90, 0, closed, closed, 1.396868, 0.9553213, -160.8254, 1.280823, 697.6492
25, neutral, 0, Zimmerman, -190, -90, 0, closed, closed, 1.698094, 0.09005662, -262.4891, 1.447937, 700.3364
26, AllenSt, 0, RaunerFirst, -90, -90, 0, closed, closed, 1.497071, 0.2676234, -163.1038, 1.142151, 702.9264
27, RollinsChapel3, 177, Zimmerman, -190, -90, 0, closed, closed, 0.9680536, 1.373428, -260.3077, 1.308838, 705.9887
28, Maynard, 0, Maynard, 90, 90, 1, closed, closed, -3.696503, 6.058416, 152.3905, 0.9886475, 708.6201
29, neutral, 0, AllenSt, 90, 90, 0, closed, closed, -0.8234863, 7.756104, 148.8135, 0.9468384, 710.9868
30, BakerBerryHistoric2, 180, BakerBerryHistoric2, 90, -90, 1, closed, closed, -0.7382813, 4.254329, 20.31067, 0.9328003, 713.618
31, PineBackHall, 180, PineBackHall, 90, -90, 1, open, open, -0.01586914, 5.08479, 15.7381, 0.9328003, 716.9315
32, RaunerBackHall, 0, RaunerBackHall, 90, 90, 1, open, open, -3.02121, 4.166672, 151.4937, 1.016541, 719.3403
33, BakerBerryCharter, -90, PineBackHall, 270, 90, 0, closed, closed, -2.868469, 6.063767, 330.1188, 1.281067, 722.0273
34, neutral, 0, Fairbanks, -90, -90, 0, open, open, 1.010829, -0.7554016, -160.6471, 1.072083, 725.2435
35, neutral, 0, Hop2, 89, 90, 0, open, open, -5.133911, 5.618094, 154.7826, 1.114319, 739.6115
36, Zimmerman, -100, Umplebys, 40, 90, 0, closed, closed, -1.143616, 9.866797, 106.6861, 1.127808, 742.5904
37, AllenSt, 0, AllenSt, -90, -90, 1, open, open, -0.09680176, -0.4529419, -160.4251, 0.8770752, 744.7763
38, Umplebys, -50, RaunerBackHall, -90, -90, 0, closed, closed, 1.558684, 3.353467, -163.0937, 1.058167, 747.0317
39, Hop4, -3, Hop4, -93, -90, 1, open, open, 1.283613, 2.709831, -160.6774, 1.559265, 750.0529
40, McLaughlinCluster, 172, McLaughlinCluster, 262, 90, 1, open, open, -2.142334, 8.08303, 329.0018, 1.36438, 752.865
41, Zimmerman, -100, Zimmerman, -10, 90, 1, open, open, -2.25885, 2.039391, 56.52701, 0.9747925, 755.1765
42, BakerBerryCharter, -90, BakerBerryCharter, -180, -90, 1, open, open, 1.559685, 1.665752, -252.937, 0.9052124, 757.4875
43, neutral, 0, RollinsChapel3, 87, -90, 0, open, open, -1.98172, 2.263866, 18.07813, 1.336792, 760.3694
44, BakerBerryHistoric2, 180, BakerBerryHistoric2, 90, -90, 1, closed, closed, 0.1059025, 1.835166, 19.2879, 0.8493652, 763.4044
45, Fairbanks, 0, Fairbanks, 90, 90, 1, closed, closed, -2.467407, 4.003268, 155.6041, 1.211426, 766.0079
46, neutral, 0, McLaughlinCluster, 82, -90, 0, closed, closed, -2.711761, -1.049896, 19.34875, 1.155762, 768.4305
47, RaunerFirst, 0, PineEntrance, -90, -90, 0, open, open, 0.3549177, 2.095737, -161.7294, 1.768005, 771.5488
48, Zimmerman, -100, Zimmerman, -10, 90, 1, open, open, -2.058868, 6.430028, 54.20013, 1.183655, 779.443
49, MooreLot, 180, MooreLot, 90, -90, 1, closed, closed, -1.32663, 1.091116, 25.78833, 1.141663, 781.9907
50, RaunerBackHall, 0, RaunerBackHall, 90, 90, 1, open, open, -1.618439, 3.6883, 154.1133, 0.9609985, 784.3992
51, McLaughlinCluster, 172, McLaughlinCluster, 262, 90, 1, open, open, -1.196411, 5.648663, 328.101, 1.392151, 787.1558
52, PineBackHall, 180, PineBackHall, 90, -90, 1, open, open, -0.5192261, -0.2238159, 15.41071, 1.016479, 789.3972
53, RollinsChapel3, 177, RollinsChapel3, 267, 90, 1, closed, closed, -0.3711243, 5.365992, 328.7683, 1.18335, 791.9728
54, Maynard, 0, McLaughlinCluster, 82, -90, 0, closed, closed, -4.147919, -3.700104, 17.12137, 1.865662, 794.9941
55, RaunerFirst, 0, RaunerFirst, 90, 90, 1, open, open, -1.514343, -0.2653809, 151.3735, 1.239075, 797.4584
56, 53Commons, 0, 53Commons, 90, 90, 1, open, open, -1.385651, 1.081132, 153.3584, 1.085999, 799.9783
57, neutral, 0, Umplebys, 40, 90, 0, closed, closed, 0.1306245, 4.975578, 109.1755, 1.100281, 802.6794
58, neutral, 0, PineEntrance, -90, -90, 0, open, open, 0.09884219, -0.0625, -165.8154, 1.308838, 805.3383
59, RaunerBackHall, 0, Hop2, 89, 90, 0, open, open, -3.837189, 1.292537, 154.5339, 1.420105, 807.9279
60, MooreLot, 180, MooreLot, 90, -90, 1, closed, closed, -4.251038, -2.827393, 19.79889, 1.044128, 810.3085
61, BakerBerryCharter, -90, BakerBerryCharter, -180, -90, 1, open, open, 0.05692432, -0.4045715, -250.2817, 1.086121, 812.9261
62, neutral, 0, Maynard, -90, -90, 0, open, open, 0.6070619, -1.259338, -162.0832, 1.127747, 815.5573
63, neutral, 0, PineBackHall, 270, 90, 0, closed, closed, -2.378174, 5.897459, 333.5524, 0.8909302, 817.9658
64, neutral, 0, BakerBerryHistoric2, 270, 90, 0, open, open, -1.906525, 8.915555, 335.0633, 1.23938, 820.5836
65, BakerBerry2nd, 94, BakerBerry2nd, 4, -90, 1, closed, closed, -1.448517, 0.3711276, -68.38553, 1.043945, 823.1586
66, BakerBerryHistoric2, 180, RollinsChapel3, 87, -90, 0, open, open, -2.521332, 3.306398, 21.6651, 1.099487, 826.2773
67, PineEntrance, 0, PineEntrance, 90, 90, 1, closed, closed, -2.658051, 4.769557, 150.7731, 0.862854, 828.5744
68, neutral, 0, 53Commons, -90, -90, 0, closed, closed, -1.186371, -0.5753784, -160.7886, 1.322693, 831.5262
69, neutral, 0, MooreLot, 270, 90, 0, open, open, -0.2018127, 4.196934, 333.5712, 0.9885864, 834.3662
70, Fairbanks, 0, Fairbanks, 90, 90, 1, closed, closed, -1.957397, 3.672721, 155.8127, 1.169189, 837.248
71, neutral, 0, BakerBerry2nd, 184, 90, 0, open, open, -2.928772, 5.573778, 248.3741, 1.044434, 862.4618
72, PineEntrance, 0, AllenSt, 90, 90, 0, closed, closed, -2.656097, 5.095068, 151.4386, 1.057983, 865.1484
73, PineBackHall, 180, Fairbanks, 90, 90, 0, closed, closed, -5.073181, 3.487186, 158.1035, 1.559326, 868.1557
74, AllenSt, 0, Zimmerman, -10, 90, 0, open, open, -3.163239, 2.047503, 58.19716, 1.113831, 870.5226
75, Hop4, -3, RollinsChapel3, 267, 90, 0, closed, closed, -0.4214478, 9.163282, 332.5321, 1.169495, 873.2095
76, BakerBerryHistoric2, 180, RaunerFirst, 90, 90, 0, open, open, -1.395538, 8.781018, 155.2303, 1.114075, 875.7853
77, neutral, 0, BakerBerryCharter, -180, -90, 0, open, open, 0.194527, 2.63182, -250.6393, 1.239319, 878.5557
78, PineEntrance, 0, PineEntrance, -90, -90, 1, open, open, 0.8216975, 4.605672, -163.5266, 1.225769, 881.2848
79, McLaughlinCluster, 172, McLaughlinCluster, 82, -90, 1, closed, closed, -2.12381, -1.843292, 14.013, 1.11377, 884.6537
80, Maynard, 0, Maynard, -90, -90, 1, open, open, -0.05529785, 0.6374646, -158.9573, 1.072205, 887.2432
81, neutral, 0, RollinsChapel3, 267, 90, 0, closed, closed, -0.4120178, 7.346344, 328.7002, 1.517517, 890.1251
82, PineEntrance, 0, BakerBerryCharter, -180, -90, 0, open, open, -1.163666, -0.06158447, -248.8898, 1.155579, 892.659
83, Umplebys, -50, AllenSt, -90, -90, 0, open, open, -1.617279, -2.699677, -157.5496, 1.308594, 895.4432
84, neutral, 0, BakerBerryHistoric2, 90, -90, 0, closed, closed, -1.222961, -0.60495, 20.39713, 0.8909302, 898.0885
85, 53Commons, 0, 53Commons, -90, -90, 1, closed, closed, -0.7582703, -1.415222, -158.1495, 1.211243, 900.873
86, MooreLot, 180, Hop4, -93, -90, 0, open, open, -0.6730652, -0.2563171, -157.0873, 1.08606, 903.1981
87, Hop2, -1, Umplebys, -140, -90, 0, open, open, -1.558014, -0.7206726, -203.692, 1.183655, 905.9688
88, 53Commons, 0, McLaughlinCluster, 262, 90, 0, open, open, -3.123779, 3.637652, 328.4273, 1.378601, 908.7811
89, RaunerBackHall, 0, RaunerBackHall, -90, -90, 1, closed, closed, -0.5580444, -1.945862, -158.6016, 1.141602, 911.3427
90, Fairbanks, 0, Fairbanks, -90, -90, 1, open, open, -0.4296875, -3.105042, -161.5558, 1.461548, 914.3079
91, Zimmerman, -100, Zimmerman, -190, -90, 1, closed, closed, -0.5026245, -3.39212, -261.2997, 1.141907, 916.8142
92, Hop2, -1, Hop2, 89, 90, 1, open, open, -2.572754, 1.55822, 149.4947, 0.8771973, 919.6542
93, AllenSt, 0, AllenSt, 90, 90, 1, closed, closed, -2.100128, 5.285062, 149.3529, 1.32251, 922.5361
94, BakerBerry2nd, 94, BakerBerry2nd, 184, 90, 1, open, open, -2.300171, 3.03664, 245.2801, 1.155457, 925.0979
95, neutral, 0, PineEntrance, 90, 90, 0, closed, closed, -2.975983, 7.603332, 151.6053, 1.15564, 928.0077
96, PineBackHall, 180, PineBackHall, 270, 90, 1, closed, closed, -2.753754, 6.354215, 329.8772, 1.113708, 930.5276
97, Zimmerman, -100, Zimmerman, -190, -90, 1, closed, closed, -0.4007874, -0.1004333, -260.9933, 1.252747, 933.2422
98, RollinsChapel3, 177, Maynard, 90, 90, 0, closed, closed, -2.216919, 2.804768, 152.1387, 1.615112, 936.6536
99, MooreLot, 180, MooreLot, 270, 90, 1, open, open, -1.387787, 4.194222, 332.4716, 1.587585, 939.9114
100, RollinsChapel3, 177, RollinsChapel3, 87, -90, 1, open, open, -4.365936, -0.0496521, 23.65613, 1.127747, 942.5982
101, neutral, 0, RaunerFirst, 90, 90, 0, open, open, -2.697327, 6.969895, 154.6499, 0.9330444, 946.4688
102, neutral, 0, Fairbanks, 90, 90, 0, closed, closed, -2.885193, 4.506899, 156.5928, 1.211426, 948.905
103, neutral, 0, 53Commons, 90, 90, 0, open, open, -2.052429, 6.262949, 156.8575, 1.225159, 951.8703
104, BakerBerryCharter, -90, BakerBerryCharter, 0, 90, 1, closed, closed, -2.893372, 8.018925, 64.47643, 0.9744263, 954.4738
105, PineEntrance, 0, PineEntrance, -90, -90, 1, open, open, 0.6301754, 1.680034, -165.1277, 1.016724, 956.9662
106, BakerBerryHistoric2, 180, BakerBerryHistoric2, 270, 90, 1, open, open, -3.025909, 8.219093, 335.6745, 0.9885254, 959.5278
107, neutral, 0, Zimmerman, -10, 90, 0, open, open, -3.881683, 3.020841, 55.91338, 0.9746094, 972.8793
108, neutral, 0, BakerBerry2nd, 4, -90, 0, closed, closed, 1.38156, 0.8794667, -70.16266, 0.8908081, 975.5939
109, McLaughlinCluster, 172, McLaughlinCluster, 82, -90, 1, closed, closed, -1.50177, -4.208862, 14.25061, 1.308594, 978.8795
110, BakerBerry2nd, 94, PineBackHall, 90, -90, 0, open, open, 1.109852, -1.279388, 16.93439, 1.155518, 981.3441
111, neutral, 0, Hop4, -93, -90, 0, open, open, -0.2151489, -1.159515, -160.5455, 0.9608765, 983.8501
112, MooreLot, 180, MooreLot, 270, 90, 1, open, open, -1.927185, -0.2248535, 325.8751, 0.9888306, 986.2866
113, neutral, 0, PineBackHall, 90, -90, 0, open, open, 0.625249, -2.475464, 21.78204, 1.238892, 988.8759
114, neutral, 0, Maynard, 90, 90, 0, closed, closed, -3.743561, 1.574613, 147.7708, 1.016541, 991.3126
115, BakerBerryCharter, -90, MooreLot, 90, -90, 0, closed, closed, -1.850769, -1.657593, 23.85809, 1.058228, 993.7488
116, neutral, 0, RaunerBackHall, 90, 90, 0, open, open, -3.784515, 3.751834, 148.6002, 0.9606934, 996.5612
117, Fairbanks, 0, BakerBerry2nd, 4, -90, 0, closed, closed, 1.018911, -2.20047, -68.18265, 1.197754, 999.1647
118, Umplebys, -50, Umplebys, 40, 90, 1, closed, closed, -3.064972, 4.342724, 104.1669, 0.9883423, 1001.545
119, neutral, 0, MooreLot, 90, -90, 0, closed, closed, -2.320435, 0.4277286, 22.80667, 1.016235, 1004.093
120, Maynard, 0, PineEntrance, 90, 90, 0, closed, closed, -4.749847, 7.525588, 153.4342, 1.044067, 1006.905
121, neutral, 0, McLaughlinCluster, 262, 90, 0, open, open, -3.252563, 9.343844, 330.637, 1.266968, 1009.411
122, RaunerFirst, 0, RaunerFirst, -90, -90, 1, closed, closed, 0.564999, 1.544404, -161.7147, 0.9915161, 1012.24
123, RaunerBackHall, 0, RaunerBackHall, -90, -90, 1, closed, closed, 1.322277, 2.758004, -162.3376, 1.05835, 1015.161
124, Hop4, -3, Hop4, 87, 90, 1, closed, closed, -5.711243, 6.998927, 150.2985, 0.9609985, 1017.5
125, neutral, 0, Hop2, -91, -90, 0, closed, closed, 0.6509054, 0.9465384, -160.8226, 1.072083, 1019.978
126, RaunerFirst, 0, BakerBerryHistoric2, 90, -90, 0, closed, closed, 1.062917, 2.894888, 16.32684, 1.225708, 1022.652
127, AllenSt, 0, AllenSt, 90, 90, 1, closed, closed, -4.493805, 6.247319, 150.5445, 1.280762, 1025.603
128, Hop4, -3, Hop4, 87, 90, 1, closed, closed, -5.511047, 7.890421, 149.9957, 0.8492432, 1028.039
129, BakerBerryHistoric2, 180, BakerBerryHistoric2, 270, 90, 1, open, open, -5.113861, 10.56279, 334.3135, 0.9050293, 1030.601
130, neutral, 0, AllenSt, -90, -90, 0, open, open, 0.6877892, 2.053892, -166.5424, 1.114258, 1033.219
131, BakerBerry2nd, 94, BakerBerry2nd, 184, 90, 1, open, open, -4.637787, 7.269603, 245.3844, 0.9051514, 1035.683
132, Maynard, 0, Maynard, -90, -90, 1, open, open, 0.4869138, 2.120512, -163.0716, 0.9191895, 1038.063
133, McLaughlinCluster, 172, 53Commons, 90, 90, 0, open, open, -2.00827, 9.490898, 154.4726, 1.099976, 1041.015
134, BakerBerryCharter, -90, BakerBerryCharter, 0, 90, 1, closed, closed, -4.219482, 10.74251, 60.13406, 1.099609, 1043.563
135, PineBackHall, 180, PineBackHall, 270, 90, 1, closed, closed, -4.360138, 9.183247, 325.2991, 1.740723, 1046.751
136, neutral, 0, Umplebys, -140, -90, 0, open, open, -1.548401, 4.139373, -207.8246, 1.197144, 1049.48
137, 53Commons, 0, 53Commons, -90, -90, 1, closed, closed, 0.7865769, 1.615684, -162.1404, 1.36438, 1052.515
138, RaunerBackHall, 0, Hop2, -91, -90, 0, closed, closed, 0.4524686, 0.5577059, -161.5695, 1.740112, 1055.759
139, RollinsChapel3, 177, RollinsChapel3, 87, -90, 1, open, open, -3.342377, -0.1075745, 22.30362, 0.9888916, 1058.028
140, Hop2, -1, Hop2, 89, 90, 1, open, open, -3.747162, 4.877228, 145.9743, 0.8353271, 1060.631
141, Fairbanks, 0, Fairbanks, -90, -90, 1, open, open, -0.9450378, -2.06192, -156.7442, 1.002563, 1063.04
142, RaunerFirst, 0, RaunerFirst, -90, -90, 1, closed, closed, 0.1533543, 0.8458185, -161.7673, 1.002686, 1065.686
143, Umplebys, -50, Umplebys, 40, 90, 1, closed, closed, -4.414307, 6.867841, 104.7328, 1.016724, 1068.373
144, Zimmerman, -100, RaunerBackHall, 90, 90, 0, open, open, -3.42807, 8.398222, 151.6322, 1.211426, 1071.004
