trialIdx, primeName, primeAngleYaw, targetName, targetAngleYaw, targetSide, sameScenePrime, correctResponse, response, roll, pitch, yaw, rt, timestamp
1, PineBackHall, 180, MooreLot, 270, 90, 0, open, open, 0.7743613, 7.598265, 348.0897, 1.944519, 728.0981
2, PineEntrance, 0, PineEntrance, 90, 90, 1, closed, closed, 0.1663354, 8.405043, 181.6332, 0.9866333, 734.8066
3, Umplebys, -50, Umplebys, -140, -90, 1, open, open, -1.337433, 6.68966, -228.7389, 1.15271, 740.7646
4, Hop2, -1, Hop2, -91, -90, 1, closed, closed, -3.274902, 8.207998, -177.3086, 1.041748, 745.6677
5, neutral, 0, BakerBerryCharter, 0, 90, 0, closed, open, 1.870204, 6.893983, 86.99019, 1.194885, 750.5567
6, Hop2, -1, Hop2, -91, -90, 1, closed, open, -0.769043, 7.960572, -184.9583, 0.930603, 758.2509
7, Fairbanks, 0, BakerBerryCharter, 0, 90, 0, closed, closed, -1.52713, 6.763773, 97.33664, 1.34668, 763.1818
8, RaunerFirst, 0, RaunerFirst, 90, 90, 1, open, open, 0.3983255, 8.679014, 183.526, 1.333679, 769.182
9, 53Commons, 0, 53Commons, 90, 90, 1, open, open, 0.3174109, 6.342432, 191.2661, 1.069519, 776.0709
10, RollinsChapel3, 177, RollinsChapel3, 267, 90, 1, closed, open, 1.599184, 10.30476, 360.8135, 1.653137, 780.4323
11, neutral, 0, Hop4, 87, 90, 0, closed, closed, -0.6099854, 8.826038, 185.3726, 1.028259, 783.4461
12, neutral, 0, RaunerFirst, -90, -90, 0, closed, closed, -0.5596008, 9.055147, -187.4998, 1.069458, 786.6265
13, Umplebys, -50, Umplebys, -140, -90, 1, open, open, -3.281708, 8.120364, -229.058, 1.500488, 792.2659
14, BakerBerry2nd, 94, BakerBerry2nd, 4, -90, 1, closed, closed, -1.295319, 9.335958, -98.14984, 1.194763, 795.0851
15, McLaughlinCluster, 172, Maynard, -90, -90, 0, open, open, -2.525604, 8.896853, -183.8564, 1.569397, 799.3628
16, Hop2, -1, Hop4, 87, 90, 0, closed, closed, 1.605176, 9.096933, 177.6966, 0.749939, 801.7935
17, neutral, 0, RaunerBackHall, -90, -90, 0, closed, closed, -2.273987, 9.55489, -188.6607, 0.9584961, 805.6546
18, 53Commons, 0, Fairbanks, -90, -90, 0, open, open, -1.677338, 7.238569, -180.4504, 0.805603, 808.2656
19, Maynard, 0, Maynard, 90, 90, 1, closed, closed, 0.2708917, 6.411361, 174.035, 1.750122, 812.1132
20, AllenSt, 0, AllenSt, -90, -90, 1, open, open, -2.227814, 8.766782, -179.373, 0.9864502, 814.6548
21, Hop4, -3, BakerBerry2nd, 184, 90, 0, open, open, 1.261473, 8.548138, 273.7476, 1.222351, 817.3771
22, BakerBerry2nd, 94, BakerBerryHistoric2, 270, 90, 0, open, open, 1.100891, 10.32145, 364.3836, 1.236511, 820.3772
23, Hop4, -3, Hop4, -93, -90, 1, open, open, -0.6385803, 7.900227, -172.6288, 1.542114, 823.7661
24, MooreLot, 180, 53Commons, -90, -90, 0, closed, closed, -1.733276, 8.935329, -179.6646, 1.555786, 827.0159
25, neutral, 0, Zimmerman, -190, -90, 0, closed, closed, -2.45343, 9.251153, -279.8833, 1.388977, 830.1548
26, AllenSt, 0, RaunerFirst, -90, -90, 0, closed, closed, -2.403809, 9.775979, -186.0943, 1.097534, 833.0857
27, RollinsChapel3, 177, Zimmerman, -190, -90, 0, closed, closed, -2.046936, 9.710007, -283.5224, 1.388977, 836.3495
28, Maynard, 0, Maynard, 90, 90, 1, closed, closed, 1.365991, 7.750477, 179.259, 1.291687, 839.3495
29, neutral, 0, AllenSt, 90, 90, 0, closed, closed, 2.497169, 8.300381, 174.7851, 1.278015, 842.1274
30, BakerBerryHistoric2, 180, BakerBerryHistoric2, 90, -90, 1, closed, closed, -1.645325, 12.30973, -8.467529, 1.09729, 844.6691
31, PineBackHall, 180, PineBackHall, 90, -90, 1, open, closed, -4.303375, 19.31533, -16.55386, 1.875, 848.4052
32, RaunerBackHall, 0, RaunerBackHall, 90, 90, 1, open, open, -0.7475281, 8.254655, 182.5352, 1.013672, 853.3635
33, BakerBerryCharter, -90, PineBackHall, 270, 90, 0, closed, closed, 0.5648603, 12.63954, 370.7536, 0.8057861, 861.0999
34, neutral, 0, Fairbanks, -90, -90, 0, open, open, -0.2850647, 5.828877, -174.4516, 1.402954, 1122.381
35, neutral, 0, Hop2, 89, 90, 0, open, open, 0.4067752, 8.239837, 173.4001, 1.541992, 1138.451
36, Zimmerman, -100, Umplebys, 40, 90, 0, closed, closed, 2.569281, 8.304789, 144.7088, 1.083618, 1143.368
37, AllenSt, 0, AllenSt, -90, -90, 1, open, open, -1.77948, 8.19563, -182.939, 1.180664, 1147.159
38, Umplebys, -50, RaunerBackHall, -90, -90, 0, closed, closed, -4.026794, 9.99711, -187.8416, 0.84729, 1149.813
39, Hop4, -3, Hop4, -93, -90, 1, open, open, -2.461517, 9.923376, -188.9274, 1.000366, 1152.938
40, McLaughlinCluster, 172, McLaughlinCluster, 262, 90, 1, open, open, 1.317999, 11.42164, 350.8374, 1.111084, 1155.521
41, Zimmerman, -100, Zimmerman, -10, 90, 1, open, open, 0.5871684, 6.695896, 80.14329, 1.430542, 1158.382
42, BakerBerryCharter, -90, BakerBerryCharter, -180, -90, 1, open, open, -1.389374, 14.13802, -276.9877, 1.43042, 1162.813
43, neutral, 0, RollinsChapel3, 87, -90, 0, open, open, -2.665771, 8.554238, -3.33902, 0.9863281, 1165.743
44, BakerBerryHistoric2, 180, BakerBerryHistoric2, 90, -90, 1, closed, closed, -1.662567, 13.34328, -13.44952, 1.041382, 1168.298
45, Fairbanks, 0, Fairbanks, 90, 90, 1, closed, open, -1.080688, 7.702347, 178.7907, 1.847534, 1171.688
46, neutral, 0, McLaughlinCluster, 82, -90, 0, closed, closed, -2.550232, 6.334991, -5.970673, 1.263672, 1174.34
47, RaunerFirst, 0, PineEntrance, -90, -90, 0, open, open, -1.988159, 7.634096, -186.156, 1.166992, 1176.744
48, Zimmerman, -100, Zimmerman, -10, 90, 1, open, open, -0.4867554, 7.091355, 77.50362, 1.944092, 1180.035
49, MooreLot, 180, MooreLot, 90, -90, 1, closed, closed, -3.517609, 8.764268, -0.6079712, 1.04187, 1182.591
50, RaunerBackHall, 0, RaunerBackHall, 90, 90, 1, open, open, 0.4427507, 8.675117, 181.4362, 1.097534, 1184.827
51, McLaughlinCluster, 172, McLaughlinCluster, 262, 90, 1, open, open, 2.781528, 13.12674, 347.0515, 1.54187, 1187.66
52, PineBackHall, 180, PineBackHall, 90, -90, 1, open, closed, 0.2885164, 11.50834, -3.619385, 1.958374, 1191.216
53, RollinsChapel3, 177, RollinsChapel3, 267, 90, 1, closed, closed, 3.477163, 14.50194, 357.3992, 1.26355, 1193.48
54, Maynard, 0, McLaughlinCluster, 82, -90, 0, closed, closed, -3.110138, 8.875149, -1.933685, 1.041748, 1195.938
55, RaunerFirst, 0, RaunerFirst, 90, 90, 1, open, open, 0.5574417, 10.16728, 176.9846, 1.069336, 1198.271
56, 53Commons, 0, 53Commons, 90, 90, 1, open, open, 1.264899, 8.372624, 182.1149, 1.111206, 1200.91
57, neutral, 0, Umplebys, 40, 90, 0, closed, closed, 0.6786512, 9.219519, 138.153, 1.13855, 1203.452
58, neutral, 0, PineEntrance, -90, -90, 0, open, open, -1.064545, 9.526785, -183.0502, 1.110718, 1205.757
59, RaunerBackHall, 0, Hop2, 89, 90, 0, open, open, 2.499766, 5.488565, 172.6193, 1.041992, 1208.063
60, MooreLot, 180, MooreLot, 90, -90, 1, closed, closed, -2.199005, 9.41056, -0.5645752, 1.013794, 1210.341
61, BakerBerryCharter, -90, BakerBerryCharter, -180, -90, 1, open, open, -1.852875, 13.64667, -271.0422, 1.680542, 1213.355
62, neutral, 0, Maynard, -90, -90, 0, open, open, -1.252899, 10.29233, -180.3444, 1.569336, 1216.202
63, neutral, 0, PineBackHall, 270, 90, 0, closed, closed, 1.115974, 10.17345, 354.9441, 1.388916, 1219.383
64, neutral, 0, BakerBerryHistoric2, 270, 90, 0, open, open, 2.827962, 13.6223, 360.9023, 1.319336, 1221.883
65, BakerBerry2nd, 94, BakerBerry2nd, 4, -90, 1, closed, closed, 0.0881742, 10.81038, -90.7894, 1.166504, 1224.355
66, BakerBerryHistoric2, 180, RollinsChapel3, 87, -90, 0, open, open, -1.636932, 10.34718, 0.2543945, 1.056152, 1226.647
67, PineEntrance, 0, PineEntrance, 90, 90, 1, closed, closed, 0.9248597, 11.374, 182.3086, 0.9859619, 1228.966
68, neutral, 0, 53Commons, -90, -90, 0, closed, open, -1.560486, 9.236325, -175.506, 1.486328, 1231.98
69, neutral, 0, MooreLot, 270, 90, 0, open, open, 2.091372, 8.914414, 356.312, 1.638672, 1235.869
70, Fairbanks, 0, Fairbanks, 90, 90, 1, closed, open, 0.5375749, 8.531592, 178.7259, 1.417236, 1238.592
71, neutral, 0, BakerBerry2nd, 184, 90, 0, open, open, -1.391754, 10.6816, 268.9576, 1.152954, 1253.689
72, PineEntrance, 0, AllenSt, 90, 90, 0, closed, closed, 0.5619325, 9.673102, 169.9275, 1.222534, 1256.356
73, PineBackHall, 180, Fairbanks, 90, 90, 0, closed, open, -0.4983521, 8.567097, 180.5827, 1.26416, 1258.897
74, AllenSt, 0, Zimmerman, -10, 90, 0, open, open, -0.20401, 7.044511, 73.61077, 1.652466, 1261.842
75, Hop4, -3, RollinsChapel3, 267, 90, 0, closed, closed, 0.799212, 13.21685, 357.9321, 1.194336, 1264.425
76, BakerBerryHistoric2, 180, RaunerFirst, 90, 90, 0, open, open, -1.024963, 9.679334, 180.9976, 0.9720459, 1266.953
77, neutral, 0, BakerBerryCharter, -180, -90, 0, open, open, 0.8179243, 11.88557, -273.4977, 1.305786, 1269.578
78, PineEntrance, 0, PineEntrance, -90, -90, 1, open, open, -0.8747253, 12.60091, -180.4469, 1.638916, 1272.689
79, McLaughlinCluster, 172, McLaughlinCluster, 82, -90, 1, closed, closed, 0.1450962, 10.41832, -12.48929, 0.8752441, 1274.759
80, Maynard, 0, Maynard, -90, -90, 1, open, open, -0.8999939, 10.33549, -180.4434, 1.138672, 1277.522
81, neutral, 0, RollinsChapel3, 267, 90, 0, closed, closed, 3.661995, 11.78246, 357.461, 1.375366, 1280.384
82, PineEntrance, 0, BakerBerryCharter, -180, -90, 0, open, open, -0.235199, 14.6982, -275.4151, 1.055664, 1282.648
83, Umplebys, -50, AllenSt, -90, -90, 0, open, open, -0.5123901, 12.12991, -182.7006, 1.180542, 1285.203
84, neutral, 0, BakerBerryHistoric2, 90, -90, 0, closed, closed, 0.1437902, 13.87986, -3.956512, 1.180664, 1287.703
85, 53Commons, 0, 53Commons, -90, -90, 1, closed, open, 1.155769, 10.79109, -184.422, 1.389038, 1290.731
86, MooreLot, 180, Hop4, -93, -90, 0, open, open, 0.3920497, 8.555039, -182.3135, 1.041748, 1293.12
87, Hop2, -1, Umplebys, -140, -90, 0, open, open, -1.24826, 9.153608, -232.9505, 1.083618, 1295.495
88, 53Commons, 0, McLaughlinCluster, 262, 90, 0, open, closed, 0.8794047, 11.7022, 346.3743, 1.555786, 1298.245
89, RaunerBackHall, 0, RaunerBackHall, -90, -90, 1, closed, closed, 0.4958649, 10.9902, -184.3121, 1.097168, 1300.856
90, Fairbanks, 0, Fairbanks, -90, -90, 1, open, open, 1.585446, 8.913482, -179.6699, 1.222412, 1303.578
91, Zimmerman, -100, Zimmerman, -190, -90, 1, closed, open, -0.2366943, 10.81009, -282.7063, 1.499634, 1306.3
92, Hop2, -1, Hop2, 89, 90, 1, open, open, 0.3851749, 6.631269, 174.2456, 1.208618, 1309.343
93, AllenSt, 0, AllenSt, 90, 90, 1, closed, closed, 0.8055942, 8.495974, 170.6732, 1.083374, 1311.606
94, BakerBerry2nd, 94, BakerBerry2nd, 184, 90, 1, open, open, 1.188704, 8.862722, 267.0625, 1.02771, 1314.023
95, neutral, 0, PineEntrance, 90, 90, 0, closed, closed, 1.519859, 9.437093, 185.7136, 1.638672, 1316.94
96, PineBackHall, 180, PineBackHall, 270, 90, 1, closed, closed, 0.6859047, 11.02537, 363.8373, 1.13855, 1319.245
97, Zimmerman, -100, Zimmerman, -190, -90, 1, closed, open, 0.2820974, 9.411534, -278.7427, 1.250244, 1322.232
98, RollinsChapel3, 177, Maynard, 90, 90, 0, closed, closed, 0.90638, 10.85454, 170.7246, 1.33374, 1324.815
99, MooreLot, 180, MooreLot, 270, 90, 1, open, open, 1.632113, 9.789107, 358.8647, 1.471924, 1327.606
100, RollinsChapel3, 177, RollinsChapel3, 87, -90, 1, open, open, -0.8885803, 8.854102, 5.966339, 1.069336, 1329.995
101, neutral, 0, RaunerFirst, 90, 90, 0, open, open, 0.1540974, 8.795582, 177.495, 1.027832, 1332.44
102, neutral, 0, Fairbanks, 90, 90, 0, closed, open, 0.5694123, 6.2624, 174.9865, 1.347534, 1335.065
103, neutral, 0, 53Commons, 90, 90, 0, open, open, -0.9743652, 6.441063, 185.3958, 1.180664, 1337.565
104, BakerBerryCharter, -90, BakerBerryCharter, 0, 90, 1, closed, closed, -2.232483, 7.845747, 89.45264, 0.9586182, 1339.94
105, PineEntrance, 0, PineEntrance, -90, -90, 1, open, open, 0.02536526, 7.162454, -181.797, 1.166504, 1342.551
106, BakerBerryHistoric2, 180, BakerBerryHistoric2, 270, 90, 1, open, open, -1.275665, 10.58128, 355.9619, 1.444336, 1345.232
107, neutral, 0, Zimmerman, -10, 90, 0, open, open, -1.098663, 6.080098, 68.82259, 1.72229, 1365.607
108, neutral, 0, BakerBerry2nd, 4, -90, 0, closed, closed, -0.9708252, 6.988672, -77.401, 0.97229, 1368.093
109, McLaughlinCluster, 172, McLaughlinCluster, 82, -90, 1, closed, closed, -1.409088, 8.398944, 8.010437, 0.916748, 1370.427
110, BakerBerry2nd, 94, PineBackHall, 90, -90, 0, open, closed, -1.358063, 13.77696, -7.264435, 2.16687, 1374.816
111, neutral, 0, Hop4, -93, -90, 0, open, open, -1.095551, 9.488691, -177.5823, 0.9443359, 1377.093
112, MooreLot, 180, MooreLot, 270, 90, 1, open, open, 0.4201446, 9.624335, 357.2921, 1.041992, 1379.302
113, neutral, 0, PineBackHall, 90, -90, 0, open, closed, -0.5670471, 11.58267, -3.400299, 1.319336, 1381.885
114, neutral, 0, Maynard, 90, 90, 0, closed, closed, -0.6108398, 7.59605, 171.7354, 0.930542, 1384.08
115, BakerBerryCharter, -90, MooreLot, 90, -90, 0, closed, closed, -2.610962, 11.3841, -2.616089, 1.236328, 1386.608
116, neutral, 0, RaunerBackHall, 90, 90, 0, open, open, 0.3033299, 9.246407, 177.0259, 0.9445801, 1388.719
117, Fairbanks, 0, BakerBerry2nd, 4, -90, 0, closed, closed, -1.797363, 8.786233, -77.18628, 1.125, 1391.038
118, Umplebys, -50, Umplebys, 40, 90, 1, closed, closed, 3.052964, 9.809542, 131.9333, 0.9859619, 1393.607
119, neutral, 0, MooreLot, 90, -90, 0, closed, closed, -1.374512, 10.79949, 0.4765015, 1.23584, 1396.01
120, Maynard, 0, PineEntrance, 90, 90, 0, closed, closed, 0.6160491, 9.36983, 176.9988, 0.9725342, 1398.247
121, neutral, 0, McLaughlinCluster, 262, 90, 0, open, open, 0.779031, 11.98064, 352.3106, 1.333618, 1400.913
122, RaunerFirst, 0, RaunerFirst, -90, -90, 1, closed, closed, -1.029602, 9.532062, -184.6205, 1.236206, 1403.552
123, RaunerBackHall, 0, RaunerBackHall, -90, -90, 1, closed, closed, -1.12973, 12.67475, -175.3061, 1.361328, 1405.983
124, Hop4, -3, Hop4, 87, 90, 1, closed, closed, -0.3112183, 10.89017, 169.4577, 0.9731445, 1408.122
125, neutral, 0, Hop2, -91, -90, 0, closed, closed, -1.123047, 12.21698, -183.3015, 1.361328, 1410.733
126, RaunerFirst, 0, BakerBerryHistoric2, 90, -90, 0, closed, closed, -1.234741, 13.6467, -1.037994, 1.027588, 1412.885
127, AllenSt, 0, AllenSt, 90, 90, 1, closed, closed, 0.1227283, 8.959518, 166.7922, 1.06958, 1415.108
128, Hop4, -3, Hop4, 87, 90, 1, closed, closed, 2.161444, 9.558055, 142.2642, 1.028564, 1417.317
129, BakerBerryHistoric2, 180, BakerBerryHistoric2, 270, 90, 1, open, open, -0.4401245, 13.02226, 355.7468, 1.02771, 1420.025
130, neutral, 0, AllenSt, -90, -90, 0, open, open, 0.4898959, 7.893551, -172.9624, 1.374878, 1422.83
131, BakerBerry2nd, 94, BakerBerry2nd, 184, 90, 1, open, open, 0.4716328, 6.576469, 267.7861, 0.9165039, 1425.122
132, Maynard, 0, Maynard, -90, -90, 1, open, open, 0.5215958, 7.62567, -174.5057, 1.000244, 1427.58
133, McLaughlinCluster, 172, 53Commons, 90, 90, 0, open, open, 0.2763036, 6.756226, 178.209, 1.000244, 1429.789
134, BakerBerryCharter, -90, BakerBerryCharter, 0, 90, 1, closed, closed, -1.225952, 11.94463, 91.61783, 1.000244, 1431.969
135, PineBackHall, 180, PineBackHall, 270, 90, 1, closed, closed, -0.6134949, 9.585835, 354.2144, 0.9724121, 1434.358
136, neutral, 0, Umplebys, -140, -90, 0, open, open, -1.224945, 8.588264, -228.8763, 0.9724121, 1436.553
137, 53Commons, 0, 53Commons, -90, -90, 1, closed, open, -1.405426, 7.929524, -176.2878, 1.583374, 1439.344
138, RaunerBackHall, 0, Hop2, -91, -90, 0, closed, closed, 0.06604739, 9.413971, -180.3262, 1.43042, 1442.094
139, RollinsChapel3, 177, RollinsChapel3, 87, -90, 1, open, open, -2.072632, 7.39197, 3.114655, 1, 1444.275
140, Hop2, -1, Hop2, 89, 90, 1, open, open, -0.7245789, 6.580036, 168.8598, 1.09729, 1446.636
141, Fairbanks, 0, Fairbanks, -90, -90, 1, open, open, -0.322876, 5.419155, -179.6027, 1.097168, 1449.206
142, RaunerFirst, 0, RaunerFirst, -90, -90, 1, closed, closed, 1.446865, 6.781071, -175.0586, 1.403198, 1451.706
143, Umplebys, -50, Umplebys, 40, 90, 1, closed, closed, -0.2389526, 5.754619, 127.3658, 1.152954, 1454.011
144, Zimmerman, -100, RaunerBackHall, 90, 90, 0, open, open, 0.1159236, 10.03884, 179.5778, 1.236206, 1456.608
