trialIdx, primeName, primeAngleYaw, targetName, targetAngleYaw, targetSide, sameScenePrime, correctResponse, response, roll, pitch, yaw, rt, timestamp
1, PineBackHall, 180, MooreLot, 270, 90, 0, open, open, -9.113007, -2.10611, 340.9462, 2.394958, 626.5357
2, PineEntrance, 0, PineEntrance, 90, 90, 1, closed, closed, -11.16046, 1.548602, 160.3967, 1.350586, 629.6263
3, Umplebys, -50, Umplebys, -140, -90, 1, open, open, 14.17141, 2.496738, -212.3432, 1.781799, 632.2852
4, Hop2, -1, Hop2, -91, -90, 1, closed, closed, 19.40095, 6.76018, -164.0691, 1.531372, 635.4039
5, neutral, 0, BakerBerryCharter, 0, 90, 0, closed, closed, -9.933594, 3.690122, 69.62167, 1.336609, 637.9239
6, Hop2, -1, Hop2, -91, -90, 1, closed, closed, 17.6045, 8.638421, -163.2265, 1.434326, 640.3048
7, Fairbanks, 0, BakerBerryCharter, 0, 90, 0, closed, closed, -13.87234, 0.906728, 74.56548, 1.796143, 643.2839
8, RaunerFirst, 0, RaunerFirst, 90, 90, 1, open, open, -14.09286, 4.462064, 162.1837, 1.447815, 645.8734
9, 53Commons, 0, 53Commons, 90, 90, 1, open, open, -12.22421, -0.5421143, 161.8109, 1.448608, 648.4498
10, RollinsChapel3, 177, RollinsChapel3, 267, 90, 1, closed, closed, -10.45142, 4.676947, 335.074, 1.141785, 650.7881
11, neutral, 0, Hop4, 87, 90, 0, closed, closed, -11.94852, 9.385337, 158.9333, 1.128052, 653.0995
12, neutral, 0, RaunerFirst, -90, -90, 0, closed, closed, 15.6777, 6.278077, -163.2637, 1.754272, 656.1066
13, Umplebys, -50, Umplebys, -140, -90, 1, open, open, 14.55028, 8.165936, -208.6406, 1.517639, 659.0302
14, BakerBerry2nd, 94, BakerBerry2nd, 4, -90, 1, closed, closed, 13.4991, 6.522342, -66.75504, 1.489807, 661.6895
15, McLaughlinCluster, 172, Maynard, -90, -90, 0, open, open, 14.62894, -0.7232971, -159.9912, 1.615051, 664.6966
16, Hop2, -1, Hop4, 87, 90, 0, closed, closed, -14.14838, 3.42056, 159.8785, 1.21167, 667.1333
17, neutral, 0, RaunerBackHall, -90, -90, 0, closed, closed, 16.65711, 8.626077, -161.9597, 0.9191895, 669.2213
18, 53Commons, 0, Fairbanks, -90, -90, 0, open, open, 17.03299, 2.527547, -162.9914, 1.476135, 672.1033
19, Maynard, 0, Maynard, 90, 90, 1, closed, closed, -10.85864, -0.7606812, 161.2353, 1.155701, 674.4005
20, AllenSt, 0, AllenSt, -90, -90, 1, open, open, 15.23731, 3.390981, -161.3285, 1.00238, 676.5304
21, Hop4, -3, BakerBerry2nd, 184, 90, 0, open, open, -18.5448, 2.717141, 253.3468, 1.795898, 679.4681
22, BakerBerry2nd, 94, BakerBerryHistoric2, 270, 90, 0, open, open, -19.62268, 6.017595, 341.6478, 1.378357, 681.9602
23, Hop4, -3, Hop4, -93, -90, 1, open, open, 12.24704, 3.09843, -158.1888, 1.030212, 684.1179
24, MooreLot, 180, 53Commons, -90, -90, 0, closed, closed, 12.46273, 4.243189, -151.5732, 1.907288, 687.181
25, neutral, 0, Zimmerman, -190, -90, 0, closed, open, 15.62474, 3.352956, -258.6539, 2.227783, 690.62
26, AllenSt, 0, RaunerFirst, -90, -90, 0, closed, closed, 13.64857, 2.53078, -159.3045, 1.197449, 693.1399
27, RollinsChapel3, 177, Zimmerman, -190, -90, 0, closed, open, 14.93681, 2.943688, -258.8307, 1.5177, 695.7711
28, Maynard, 0, Maynard, 90, 90, 1, closed, open, -15.23535, 3.237038, 159.368, 2.394592, 699.3074
29, neutral, 0, AllenSt, 90, 90, 0, closed, closed, -15.15921, 10.53622, 156.8478, 2.3526, 702.7738
30, BakerBerryHistoric2, 180, BakerBerryHistoric2, 90, -90, 1, closed, closed, 8.685104, 2.105105, 24.67624, 1.086365, 704.9877
31, PineBackHall, 180, PineBackHall, 90, -90, 1, open, open, 17.95577, 7.86982, 16.93253, 1.477051, 707.5924
32, RaunerBackHall, 0, RaunerBackHall, 90, 90, 1, open, closed, -18.11453, 4.22267, 162.593, 1.239136, 709.9439
33, BakerBerryCharter, -90, PineBackHall, 270, 90, 0, closed, open, -15.96191, 6.415346, 342.2041, 1.489929, 712.4918
34, neutral, 0, Fairbanks, -90, -90, 0, open, open, 15.90782, 6.133978, -159.0526, 2.603394, 716.7659
35, neutral, 0, Hop2, 89, 90, 0, open, open, 3.021583, -2.389984, 110.6383, 3.800659, 734.3358
36, Zimmerman, -100, Umplebys, 40, 90, 0, closed, closed, -14.25211, -3.368774, 116.3139, 1.489685, 743.608
37, AllenSt, 0, AllenSt, -90, -90, 1, open, open, 9.340911, 1.837108, -156.1556, 1.280457, 745.975
38, Umplebys, -50, RaunerBackHall, -90, -90, 0, closed, closed, 12.85171, 7.233554, -157.3212, 1.099854, 748.244
39, Hop4, -3, Hop4, -93, -90, 1, open, open, 16.97145, 3.358643, -161.3965, 1.266907, 750.9729
40, McLaughlinCluster, 172, McLaughlinCluster, 262, 90, 1, open, open, -19.49701, 1.591874, 338.0584, 2.770691, 754.885
41, Zimmerman, -100, Zimmerman, -10, 90, 1, open, open, -13.08813, -0.9659424, 62.14135, 1.587158, 757.8924
42, BakerBerryCharter, -90, BakerBerryCharter, -180, -90, 1, open, open, 10.34729, 2.840748, -239.3678, 1.559448, 760.4682
43, neutral, 0, RollinsChapel3, 87, -90, 0, open, open, 13.7719, 5.559441, 20.33109, 1.058105, 762.6537
44, BakerBerryHistoric2, 180, BakerBerryHistoric2, 90, -90, 1, closed, closed, 7.939514, 3.478083, 30.86615, 1.392639, 765.1043
45, Fairbanks, 0, Fairbanks, 90, 90, 1, closed, open, -12.88733, -1.15332, 160.9605, 1.378662, 767.5966
46, neutral, 0, McLaughlinCluster, 82, -90, 0, closed, open, 9.277354, -2.261383, 21.89774, 2.352783, 770.9795
47, RaunerFirst, 0, PineEntrance, -90, -90, 0, open, open, 20.24973, 1.010613, -160.1532, 1.615295, 773.764
48, Zimmerman, -100, Zimmerman, -10, 90, 1, open, closed, -17.94177, -5.682495, 66.09219, 2.464417, 777.7177
49, MooreLot, 180, MooreLot, 90, -90, 1, closed, closed, 11.35192, 0.9934, 25.07822, 1.225647, 780.5303
50, RaunerBackHall, 0, RaunerBackHall, 90, 90, 1, open, open, -19.07166, -1.897827, 166.2095, 1.434082, 783.2864
51, McLaughlinCluster, 172, McLaughlinCluster, 262, 90, 1, open, open, -9.538239, 2.82557, 326.929, 4.385437, 788.7023
52, PineBackHall, 180, PineBackHall, 90, -90, 1, open, open, 21.23496, 6.832801, 17.07254, 1.517517, 791.8349
53, RollinsChapel3, 177, RollinsChapel3, 267, 90, 1, closed, closed, -13.62711, 2.410393, 336.6237, 1.600891, 794.6054
54, Maynard, 0, McLaughlinCluster, 82, -90, 0, closed, open, 2.901811, -0.944397, 40.88647, 4.984314, 800.759
55, RaunerFirst, 0, RaunerFirst, 90, 90, 1, open, closed, -12.73633, -3.121063, 162.2437, 1.043152, 802.8615
56, 53Commons, 0, 53Commons, 90, 90, 1, open, open, -14.11234, -3.469482, 159.5603, 1.615234, 806.1888
57, neutral, 0, Umplebys, 40, 90, 0, closed, closed, -15.56287, -2.205292, 112.3326, 3.898254, 811.0476
58, neutral, 0, PineEntrance, -90, -90, 0, open, open, 19.14513, 3.283796, -160.287, 1.267029, 813.2891
59, RaunerBackHall, 0, Hop2, 89, 90, 0, open, open, -14.33847, -4.321198, 158.96, 1.392151, 815.9064
60, MooreLot, 180, MooreLot, 90, -90, 1, closed, closed, 25.1115, 3.696378, 19.2041, 3.954163, 821.0856
61, BakerBerryCharter, -90, BakerBerryCharter, -180, -90, 1, open, open, 23.03078, 5.624971, -252.5179, 1.155273, 823.3549
62, neutral, 0, Maynard, -90, -90, 0, open, open, 20.58452, 0.753413, -163.1122, 1.128113, 825.6664
63, neutral, 0, PineBackHall, 270, 90, 0, closed, closed, -16.14154, 0.4075412, 344.5436, 1.225281, 827.9493
64, neutral, 0, BakerBerryHistoric2, 270, 90, 0, open, open, -14.28525, 3.921624, 343.2584, 1.392456, 830.4971
65, BakerBerry2nd, 94, BakerBerry2nd, 4, -90, 1, closed, closed, 16.98055, 5.423226, -62.28085, 2.937927, 834.4095
66, BakerBerryHistoric2, 180, RollinsChapel3, 87, -90, 0, open, open, 11.63225, 3.339519, 22.85083, 1.016357, 836.5256
67, PineEntrance, 0, PineEntrance, 90, 90, 1, closed, closed, -15.13034, 3.657427, 159.1319, 3.062683, 840.5907
68, neutral, 0, 53Commons, -90, -90, 0, closed, open, 16.51329, -1.708618, -147.3389, 2.784241, 844.4611
69, neutral, 0, MooreLot, 270, 90, 0, open, open, -14.58392, 3.011018, 340.9184, 1.628906, 846.981
70, Fairbanks, 0, Fairbanks, 90, 90, 1, closed, open, -17.37473, -3.225677, 162.0434, 2.701355, 850.9355
71, neutral, 0, BakerBerry2nd, 184, 90, 0, open, open, -18.43201, 3.092303, 255.6251, 1.280945, 862.4627
72, PineEntrance, 0, AllenSt, 90, 90, 0, closed, closed, -13.22128, 4.672302, 157.1639, 1.809937, 865.6093
73, PineBackHall, 180, Fairbanks, 90, 90, 0, closed, open, -15.66666, -3.981323, 159.9562, 1.476013, 868.0457
74, AllenSt, 0, Zimmerman, -10, 90, 0, open, open, -17.78107, 0.8526986, 59.76589, 2.297119, 871.2615
75, Hop4, -3, RollinsChapel3, 267, 90, 0, closed, open, -18.08228, 3.898183, 338.2401, 3.981995, 876.3016
76, BakerBerryHistoric2, 180, RaunerFirst, 90, 90, 0, open, open, -12.81555, 2.24539, 158.3777, 1.726196, 879.1832
77, neutral, 0, BakerBerryCharter, -180, -90, 0, open, open, 22.52799, 6.951907, -250.0829, 1.33667, 881.3553
78, PineEntrance, 0, PineEntrance, -90, -90, 1, open, open, 16.17292, 1.9988, -160.6259, 1.767822, 884.1675
79, McLaughlinCluster, 172, McLaughlinCluster, 82, -90, 1, closed, open, 17.71706, -1.402039, 18.72427, 2.24176, 887.5928
80, Maynard, 0, Maynard, -90, -90, 1, open, open, 16.38883, 5.678677, -156.7101, 1.810059, 890.6973
81, neutral, 0, RollinsChapel3, 267, 90, 0, closed, open, -14.01266, 3.283397, 338.8528, 1.68512, 893.3148
82, PineEntrance, 0, BakerBerryCharter, -180, -90, 0, open, open, 13.04514, 6.26152, -244.6163, 1.963196, 896.3218
83, Umplebys, -50, AllenSt, -90, -90, 0, open, open, 12.13943, 1.866691, -154.3595, 1.447571, 898.8833
84, neutral, 0, BakerBerryHistoric2, 90, -90, 0, closed, closed, 17.11468, 7.848025, 22.95648, 0.9467163, 900.8046
85, 53Commons, 0, 53Commons, -90, -90, 1, closed, open, 14.7211, 5.099897, -156.5332, 1.601257, 903.7007
86, MooreLot, 180, Hop4, -93, -90, 0, open, open, 10.54897, 4.136436, -154.8341, 1.113525, 905.7331
87, Hop2, -1, Umplebys, -140, -90, 0, open, open, 13.03471, 2.933059, -204.2603, 1.100037, 907.9885
88, 53Commons, 0, McLaughlinCluster, 262, 90, 0, open, open, -17.77466, 2.833991, 337.2052, 1.796143, 911.1491
89, RaunerBackHall, 0, RaunerBackHall, -90, -90, 1, closed, closed, 8.308126, 2.749563, -150.6642, 1.085938, 913.4323
90, Fairbanks, 0, Fairbanks, -90, -90, 1, open, open, 18.87755, 3.698198, -157.9568, 1.141602, 915.8549
91, Zimmerman, -100, Zimmerman, -190, -90, 1, closed, open, 15.71576, -3.332214, -259.1276, 1.099854, 918.1519
92, Hop2, -1, Hop2, 89, 90, 1, open, open, -14.68747, -1.620911, 164.3982, 0.9889526, 920.3799
93, AllenSt, 0, AllenSt, 90, 90, 1, closed, closed, -8.160919, -1.040741, 158.9004, 1.002441, 922.5377
94, BakerBerry2nd, 94, BakerBerry2nd, 184, 90, 1, open, open, -11.74731, -0.2138977, 257.9037, 1.22522, 924.946
95, neutral, 0, PineEntrance, 90, 90, 0, closed, closed, -15.47299, 4.921751, 161.8704, 1.266724, 927.424
96, PineBackHall, 180, PineBackHall, 270, 90, 1, closed, closed, -20.35553, 4.601249, 345.3876, 1.141785, 929.7353
97, Zimmerman, -100, Zimmerman, -190, -90, 1, closed, open, 9.104756, -4.47644, -250.8847, 1.573547, 932.6451
98, RollinsChapel3, 177, Maynard, 90, 90, 0, closed, closed, -9.70285, -2.167267, 159.6671, 1.462036, 935.4575
99, MooreLot, 180, MooreLot, 270, 90, 1, open, open, -11.45193, -0.1493835, 342.4543, 1.364502, 938.0887
100, RollinsChapel3, 177, RollinsChapel3, 87, -90, 1, open, open, 13.67772, -2.109314, 25.97327, 1.725891, 940.8732
101, neutral, 0, RaunerFirst, 90, 90, 0, open, open, -21.00757, 1.504621, 156.4882, 1.406494, 943.4352
102, neutral, 0, Fairbanks, 90, 90, 0, closed, open, -19.09473, -1.181335, 159.7051, 1.601196, 946.233
103, neutral, 0, 53Commons, 90, 90, 0, open, open, -14.45679, -2.992706, 164.1326, 1.058167, 948.5024
104, BakerBerryCharter, -90, BakerBerryCharter, 0, 90, 1, closed, closed, -15.84814, 0.7186692, 73.97694, 1.280701, 950.9806
105, PineEntrance, 0, PineEntrance, -90, -90, 1, open, open, 16.55518, -2.78894, -158.296, 1.016541, 953.2084
106, BakerBerryHistoric2, 180, BakerBerryHistoric2, 270, 90, 1, open, open, -14.58435, 0.08701195, 338.9718, 1.42041, 955.84
107, neutral, 0, Zimmerman, -10, 90, 0, open, open, -19.41833, -1.078064, 65.94677, 1.113525, 967.047
108, neutral, 0, BakerBerry2nd, 4, -90, 0, closed, closed, 14.55179, -1.129089, -62.57611, 1.183472, 969.1633
109, McLaughlinCluster, 172, McLaughlinCluster, 82, -90, 1, closed, open, 14.6806, -2.666016, 20.97208, 2.380798, 972.6714
110, BakerBerry2nd, 94, PineBackHall, 90, -90, 0, open, open, 31.56254, 2.462626, 15.95825, 3.508606, 977.28
111, neutral, 0, Hop4, -93, -90, 0, open, open, 5.167055, 5.238969, -149.9129, 1.308899, 979.7998
112, MooreLot, 180, MooreLot, 270, 90, 1, open, closed, -12.41248, 2.886896, 341.0528, 1.865723, 982.7792
113, neutral, 0, PineBackHall, 90, -90, 0, open, open, 18.39092, 3.861382, 21.89484, 1.767883, 985.6748
114, neutral, 0, Maynard, 90, 90, 0, closed, closed, -14.0672, 2.054147, 160.5153, 1.489685, 988.2229
115, BakerBerryCharter, -90, MooreLot, 90, -90, 0, closed, closed, 8.002133, -2.16806, 29.70984, 1.113647, 990.4922
116, neutral, 0, RaunerBackHall, 90, 90, 0, open, open, -16.55334, 1.404724, 164.548, 1.169373, 992.7892
117, Fairbanks, 0, BakerBerry2nd, 4, -90, 0, closed, closed, 14.7011, 2.546404, -59.245, 1.183167, 994.9611
118, Umplebys, -50, Umplebys, 40, 90, 1, closed, closed, -13.45477, 1.812191, 110.7576, 1.587036, 997.6899
119, neutral, 0, MooreLot, 90, -90, 0, closed, closed, 23.53403, 9.192618, 27.7738, 3.355225, 1002.103
120, Maynard, 0, PineEntrance, 90, 90, 0, closed, closed, -7.165375, 2.753396, 157.3522, 0.9747925, 1006.921
121, neutral, 0, McLaughlinCluster, 262, 90, 0, open, closed, -10.77176, 2.584486, 329.1061, 1.503723, 1009.552
122, RaunerFirst, 0, RaunerFirst, -90, -90, 1, closed, closed, 15.43806, 1.340442, -150.8387, 1.545227, 1012.476
123, RaunerBackHall, 0, RaunerBackHall, -90, -90, 1, closed, open, 8.225178, 6.146354, -144.7846, 1.239319, 1015.135
124, Hop4, -3, Hop4, 87, 90, 1, closed, closed, -10.67911, 1.065181, 155.3119, 1.085999, 1017.655
125, neutral, 0, Hop2, -91, -90, 0, closed, closed, 19.76997, 1.144051, -152.3563, 4.594727, 1023.46
126, RaunerFirst, 0, BakerBerryHistoric2, 90, -90, 0, closed, closed, 4.635478, 3.077111, 40.12805, 1.183594, 1025.66
127, AllenSt, 0, AllenSt, 90, 90, 1, closed, closed, -6.668854, 6.147272, 147.2313, 0.9327393, 1027.776
128, Hop4, -3, Hop4, 87, 90, 1, closed, closed, -10.59039, 2.940042, 145.4458, 1.016235, 1029.892
129, BakerBerryHistoric2, 180, BakerBerryHistoric2, 270, 90, 1, open, open, -12.71576, 5.755215, 336.5367, 1.238892, 1032.426
130, neutral, 0, AllenSt, -90, -90, 0, open, open, 14.78796, 1.242191, -151.9367, 1.448364, 1034.96
131, BakerBerry2nd, 94, BakerBerry2nd, 184, 90, 1, open, open, -14.86807, -0.9013062, 255.7442, 1.141602, 1037.271
132, Maynard, 0, Maynard, -90, -90, 1, open, open, 13.17574, -1.115936, -156.3383, 0.9049072, 1039.346
133, McLaughlinCluster, 172, 53Commons, 90, 90, 0, open, open, -13.13785, -0.848999, 163.7729, 1.044189, 1041.364
134, BakerBerryCharter, -90, BakerBerryCharter, 0, 90, 1, closed, closed, -10.1311, 1.169075, 68.42941, 1.322754, 1043.801
135, PineBackHall, 180, PineBackHall, 270, 90, 1, closed, closed, -14.47989, 3.583227, 339.2928, 1.447876, 1046.446
136, neutral, 0, Umplebys, -140, -90, 0, open, open, 13.76693, 4.918236, -206.0845, 1.336426, 1048.952
137, 53Commons, 0, 53Commons, -90, -90, 1, closed, open, 14.81268, 5.116954, -152.3947, 2.046631, 1052.085
138, RaunerBackHall, 0, Hop2, -91, -90, 0, closed, closed, 8.149595, 6.555415, -150.1282, 1.294556, 1054.507
139, RollinsChapel3, 177, RollinsChapel3, 87, -90, 1, open, open, 9.800762, 3.752474, 26.25717, 1.002563, 1056.623
140, Hop2, -1, Hop2, 89, 90, 1, open, open, -13.80981, 0.4143972, 150.979, 2.575684, 1060.354
141, Fairbanks, 0, Fairbanks, -90, -90, 1, open, open, 8.079766, 1.178932, -146.1945, 1.768555, 1063.446
142, RaunerFirst, 0, RaunerFirst, -90, -90, 1, closed, closed, 13.32784, 2.841265, -152.59, 1.336548, 1065.867
143, Umplebys, -50, Umplebys, 40, 90, 1, closed, closed, -10.02661, 1.233116, 111.2344, 1.113159, 1068.123
144, Zimmerman, -100, RaunerBackHall, 90, 90, 0, open, open, -11.74823, 1.307164, 158.4308, 2.464111, 1071.826
