trialIdx, primeName, primeAngleYaw, targetName, targetAngleYaw, targetSide, sameScenePrime, correctResponse, response, roll, pitch, yaw, rt, timestamp
1, PineBackHall, 180, MooreLot, 270, 90, 0, open, open, -2.505585, 2.834635, 341.0022, 1.824219, 656.0417
2, PineEntrance, 0, PineEntrance, 90, 90, 1, closed, closed, -2.85202, 4.927466, 163.3649, 1.085999, 660.622
3, Umplebys, -50, Umplebys, -140, -90, 1, open, open, 1.657253, 1.510708, -212.4993, 1.044006, 663.7822
4, Hop2, -1, Hop2, -91, -90, 1, closed, closed, 3.111945, 1.521124, -160.5638, 0.8214722, 666.0518
5, neutral, 0, BakerBerryCharter, 0, 90, 0, closed, closed, -5.313354, 4.16795, 67.94357, 0.696167, 668.2513
6, Hop2, -1, Hop2, -91, -90, 1, closed, closed, 2.841203, 0.08527495, -161.8326, 0.9328613, 670.6182
7, Fairbanks, 0, BakerBerryCharter, 0, 90, 0, closed, closed, -5.891724, 3.305423, 66.69678, 0.793457, 672.9151
8, RaunerFirst, 0, RaunerFirst, 90, 90, 1, open, open, -6.092682, 3.528896, 154.226, 0.8497925, 675.5889
9, 53Commons, 0, 53Commons, 90, 90, 1, open, closed, -7.494904, 2.207256, 152.5842, 0.9048462, 678.1362
10, RollinsChapel3, 177, RollinsChapel3, 267, 90, 1, closed, open, -7.633087, 6.20289, 328.313, 1.099854, 681.2825
11, neutral, 0, Hop4, 87, 90, 0, closed, closed, -8.454102, 5.340895, 149.8982, 0.7521973, 684.1647
12, neutral, 0, RaunerFirst, -90, -90, 0, closed, closed, 7.99635, 0.6737701, -157.2785, 1.26709, 686.8656
13, Umplebys, -50, Umplebys, -140, -90, 1, open, open, 8.236443, 2.290152, -203.0314, 1.044189, 689.4968
14, BakerBerry2nd, 94, BakerBerry2nd, 4, -90, 1, closed, closed, 1.962286, 1.697205, -58.41379, 1.475952, 692.5041
15, McLaughlinCluster, 172, Maynard, -90, -90, 0, open, open, 4.928637, 0.7291309, -155.8463, 2.589783, 696.9454
16, Hop2, -1, Hop4, 87, 90, 0, closed, closed, -13.14877, 4.744446, 141.622, 0.9052124, 699.8272
17, neutral, 0, RaunerBackHall, -90, -90, 0, closed, closed, 5.434507, 2.881764, -157.7253, 1.002563, 702.7646
18, 53Commons, 0, Fairbanks, -90, -90, 0, open, open, 6.715581, -1.661072, -159.7229, 1.183594, 705.6049
19, Maynard, 0, Maynard, 90, 90, 1, closed, closed, -7.44635, 4.76759, 148.111, 0.7935791, 707.8323
20, AllenSt, 0, AllenSt, -90, -90, 1, open, open, 6.348694, -0.2870789, -155.4566, 1.04425, 710.4499
21, Hop4, -3, BakerBerry2nd, 184, 90, 0, open, open, -10.53851, 4.935584, 243.1684, 1.155518, 713.3457
22, BakerBerry2nd, 94, BakerBerryHistoric2, 270, 90, 0, open, open, -9.269684, 10.27461, 335.4447, 1.447815, 716.9514
23, Hop4, -3, Hop4, -93, -90, 1, open, open, 4.102854, 2.687558, -163.2721, 0.9471436, 719.778
24, MooreLot, 180, 53Commons, -90, -90, 0, closed, open, 10.00863, -0.8459473, -151.583, 1.587036, 723.2028
25, neutral, 0, Zimmerman, -190, -90, 0, closed, closed, 2.806518, -2.352264, -260.8261, 2.325317, 728.2845
26, AllenSt, 0, RaunerFirst, -90, -90, 0, closed, closed, 6.499566, 1.817765, -156.8988, 1.211365, 731.598
27, RollinsChapel3, 177, Zimmerman, -190, -90, 0, closed, open, 8.601608, -1.634888, -254.7631, 0.9746704, 734.4519
28, Maynard, 0, Maynard, 90, 90, 1, closed, closed, -18.97003, 1.794194, 140.7568, 1.322815, 737.3757
29, neutral, 0, AllenSt, 90, 90, 0, closed, closed, -13.78439, 3.492871, 144.5947, 1.295166, 740.2854
30, BakerBerryHistoric2, 180, BakerBerryHistoric2, 90, -90, 1, closed, closed, 9.560671, -3.397797, 22.68768, 1.503662, 743.3204
31, PineBackHall, 180, PineBackHall, 90, -90, 1, open, open, 11.18139, -0.4888, 21.95169, 1.225342, 745.9518
32, RaunerBackHall, 0, RaunerBackHall, 90, 90, 1, open, open, -13.67999, 1.73588, 146.3011, 1.197327, 748.9033
33, BakerBerryCharter, -90, PineBackHall, 270, 90, 0, closed, closed, -11.85699, 4.365783, 329.135, 1.267029, 751.827
34, neutral, 0, Fairbanks, -90, -90, 0, open, open, 11.14586, -3.357635, -157.4133, 1.002441, 754.472
35, neutral, 0, Hop2, 89, 90, 0, open, open, -7.480652, 5.607995, 156.44, 0.9885254, 763.1179
36, Zimmerman, -100, Umplebys, 40, 90, 0, closed, closed, -7.408173, 1.073027, 100.7176, 1.016724, 767.7123
37, AllenSt, 0, AllenSt, -90, -90, 1, open, open, 8.754879, -0.7833557, -162.8439, 1.225342, 770.5247
38, Umplebys, -50, RaunerBackHall, -90, -90, 0, closed, closed, 8.582377, 0.1895257, -157.5085, 0.9471436, 775.2026
39, Hop4, -3, Hop4, -93, -90, 1, open, open, 8.30238, -1.64267, -159.3572, 0.9885864, 777.9175
40, McLaughlinCluster, 172, McLaughlinCluster, 262, 90, 1, open, open, -10.57703, -0.03994751, 315.2015, 1.294922, 780.7297
41, Zimmerman, -100, Zimmerman, -10, 90, 1, open, open, -4.583374, 9.312699, 66.69551, 1.754211, 783.8621
42, BakerBerryCharter, -90, BakerBerryCharter, -180, -90, 1, open, open, 3.537251, 4.144888, -248.4548, 1.057922, 786.9668
43, neutral, 0, RollinsChapel3, 87, -90, 0, open, open, 3.08436, 1.49064, 18.6929, 0.9747314, 789.5146
44, BakerBerryHistoric2, 180, BakerBerryHistoric2, 90, -90, 1, closed, closed, 3.406157, 3.441387, 20.92194, 0.8635254, 792.0345
45, Fairbanks, 0, Fairbanks, 90, 90, 1, closed, open, -7.641937, 4.362858, 150.122, 1.239136, 794.7773
46, neutral, 0, McLaughlinCluster, 82, -90, 0, closed, closed, 5.444226, -2.7453, 17.01373, 1.072327, 797.3669
47, RaunerFirst, 0, PineEntrance, -90, -90, 0, open, open, 4.757715, 0.2076922, -157.4743, 1.058228, 799.9285
48, Zimmerman, -100, Zimmerman, -10, 90, 1, open, open, -16.75519, 11.17329, 60.46108, 0.8494873, 802.3373
49, MooreLot, 180, MooreLot, 90, -90, 1, closed, closed, 5.185036, 5.667145, 18.51404, 0.8770142, 804.9683
50, RaunerBackHall, 0, RaunerBackHall, 90, 90, 1, open, open, -5.938721, 4.871679, 153.104, 0.9885254, 807.5162
51, McLaughlinCluster, 172, McLaughlinCluster, 262, 90, 1, open, open, -10.37329, 6.232, 324.2978, 1.392273, 810.4119
52, PineBackHall, 180, PineBackHall, 90, -90, 1, open, open, 3.314733, -6.557861, 22.99445, 1.086121, 812.8624
53, RollinsChapel3, 177, RollinsChapel3, 267, 90, 1, closed, open, -12.35327, 8.014462, 327.7867, 1.252808, 815.6048
54, Maynard, 0, McLaughlinCluster, 82, -90, 0, closed, open, 0.4417684, -6.209015, 23.72522, 1.364685, 818.696
55, RaunerFirst, 0, RaunerFirst, 90, 90, 1, open, open, -10.54843, 6.229072, 149.7262, 1.016357, 821.8004
56, 53Commons, 0, 53Commons, 90, 90, 1, open, open, -4.750061, 9.890768, 153.6412, 0.8631592, 824.9745
57, neutral, 0, Umplebys, 40, 90, 0, closed, closed, -5.815613, 9.871868, 101.9367, 1.057983, 827.5083
58, neutral, 0, PineEntrance, -90, -90, 0, open, open, 2.815824, 1.609444, -152.4318, 1.141724, 829.9729
59, RaunerBackHall, 0, Hop2, 89, 90, 0, open, open, -8.054169, 7.27842, 147.1221, 1.308838, 832.5486
60, MooreLot, 180, MooreLot, 90, -90, 1, closed, closed, -3.384735, 8.139855, 29.55377, 1.531433, 836.0428
61, BakerBerryCharter, -90, BakerBerryCharter, -180, -90, 1, open, open, 1.723086, 1.630165, -242.0578, 1.058044, 838.507
62, neutral, 0, Maynard, -90, -90, 0, open, open, 2.951852, -0.9543457, -157.3487, 0.9470825, 840.8741
63, neutral, 0, PineBackHall, 270, 90, 0, closed, closed, -6.816345, 6.958479, 335.8035, 1.350403, 844.2571
64, neutral, 0, BakerBerryHistoric2, 270, 90, 0, open, open, -4.337799, 11.9849, 334.9602, 0.9887085, 846.5683
65, BakerBerry2nd, 94, BakerBerry2nd, 4, -90, 1, closed, closed, 4.45159, 3.415844, -66.51736, 1.072144, 849.1857
66, BakerBerryHistoric2, 180, RollinsChapel3, 87, -90, 0, open, open, 4.449236, 4.072427, 20.93637, 1.002747, 851.6083
67, PineEntrance, 0, PineEntrance, 90, 90, 1, closed, closed, -11.58365, 11.39194, 141.5328, 1.19751, 854.0864
68, neutral, 0, 53Commons, -90, -90, 0, closed, closed, 0.9235565, 6.326149, -159.6666, 0.9605103, 856.8428
69, neutral, 0, MooreLot, 270, 90, 0, open, open, -5.764191, 7.648209, 333.5557, 1.503906, 859.739
70, Fairbanks, 0, Fairbanks, 90, 90, 1, closed, closed, -7.424438, 4.741977, 153.4272, 1.406372, 863.0802
71, neutral, 0, BakerBerry2nd, 184, 90, 0, open, open, -0.6635742, 5.535831, 254.5986, 0.8076782, 876.3202
72, PineEntrance, 0, AllenSt, 90, 90, 0, closed, closed, -3.725342, 7.453931, 153.859, 0.8914795, 879.1328
73, PineBackHall, 180, Fairbanks, 90, 90, 0, closed, closed, 1.288865, 11.3306, 147.8978, 0.9466553, 881.6107
74, AllenSt, 0, Zimmerman, -10, 90, 0, open, open, -6.576172, 6.992013, 49.65254, 1.267273, 884.5483
75, Hop4, -3, RollinsChapel3, 267, 90, 0, closed, closed, 0.9804172, 14.30582, 326.7, 1.183533, 887.4581
76, BakerBerryHistoric2, 180, RaunerFirst, 90, 90, 0, open, open, -5.272491, 7.569976, 148.3913, 1.183228, 890.0197
77, neutral, 0, BakerBerryCharter, -180, -90, 0, open, open, 1.032435, 15.40784, -250.4598, 1.016724, 892.5258
78, PineEntrance, 0, PineEntrance, -90, -90, 1, open, open, -3.250031, 8.541183, -162.5649, 1.211365, 895.0179
79, McLaughlinCluster, 172, McLaughlinCluster, 82, -90, 1, closed, closed, -4.775726, 8.499498, 14.42111, 1.058228, 897.3566
80, Maynard, 0, Maynard, -90, -90, 1, open, open, -2.7995, 9.909424, -159.3972, 0.9192505, 899.9185
81, neutral, 0, RollinsChapel3, 267, 90, 0, closed, closed, 0.8272644, 7.757889, 336.1336, 1.072449, 902.5499
82, PineEntrance, 0, BakerBerryCharter, -180, -90, 0, open, open, -1.121582, 8.673446, -253.4034, 0.9887085, 905.1811
83, Umplebys, -50, AllenSt, -90, -90, 0, open, open, -1.234741, 6.551346, -162.4272, 0.8770752, 907.7287
84, neutral, 0, BakerBerryHistoric2, 90, -90, 0, closed, closed, -5.619598, 16.41627, 21.27408, 0.8634033, 910.1652
85, 53Commons, 0, 53Commons, -90, -90, 1, closed, closed, -1.77536, 9.069513, -152.7861, 1.002075, 912.6711
86, MooreLot, 180, Hop4, -93, -90, 0, open, open, -2.601746, 9.05623, -161.1559, 0.8768921, 914.9545
87, Hop2, -1, Umplebys, -140, -90, 0, open, open, -3.392517, 10.5346, -204.3741, 0.9330444, 917.6553
88, 53Commons, 0, McLaughlinCluster, 262, 90, 0, open, open, 0.126422, 13.05762, 332.4968, 1.740234, 920.8436
89, RaunerBackHall, 0, RaunerBackHall, -90, -90, 1, closed, closed, 1.762903, 8.932221, -153.1139, 0.8494873, 923.1689
90, Fairbanks, 0, Fairbanks, -90, -90, 1, open, open, 0.1303026, 3.956994, -152.3651, 1.05835, 925.6887
91, Zimmerman, -100, Zimmerman, -190, -90, 1, closed, open, -2.789795, 5.078237, -254.8936, 1.00238, 928.1388
92, Hop2, -1, Hop2, 89, 90, 1, open, open, -0.5302124, 10.53194, 153.536, 0.8635254, 932.0929
93, AllenSt, 0, AllenSt, 90, 90, 1, closed, closed, -1.270447, 9.295908, 152.8927, 1.072327, 934.961
94, BakerBerry2nd, 94, BakerBerry2nd, 184, 90, 1, open, open, -0.2651978, 8.067062, 250.1949, 1.225342, 937.9682
95, neutral, 0, PineEntrance, 90, 90, 0, closed, closed, 1.434167, 10.50931, 159.5234, 0.7384033, 940.3492
96, PineBackHall, 180, PineBackHall, 270, 90, 1, closed, closed, 0.9012599, 10.25281, 335.2284, 0.9190063, 942.6736
97, Zimmerman, -100, Zimmerman, -190, -90, 1, closed, closed, 3.724269, 6.0561, -259.9944, 1.266785, 945.3747
98, RollinsChapel3, 177, Maynard, 90, 90, 0, closed, closed, 1.75672, 8.63878, 157.3172, 1.002686, 947.9782
99, MooreLot, 180, MooreLot, 270, 90, 1, open, open, 0.8038574, 12.01745, 331.7859, 1.294495, 950.7485
100, RollinsChapel3, 177, RollinsChapel3, 87, -90, 1, open, open, -4.857605, 9.546012, 28.91833, 0.9602051, 953.2684
101, neutral, 0, RaunerFirst, 90, 90, 0, open, open, -1.947845, 9.495604, 152.059, 0.8912354, 955.9976
102, neutral, 0, Fairbanks, 90, 90, 0, closed, closed, 2.252533, 11.34479, 154.1641, 1.072693, 958.5598
103, neutral, 0, 53Commons, 90, 90, 0, open, open, -1.786804, 8.782965, 155.2005, 0.7937012, 960.8982
104, BakerBerryCharter, -90, BakerBerryCharter, 0, 90, 1, closed, closed, -0.3936462, 7.973927, 59.98132, 0.9328613, 963.0839
105, PineEntrance, 0, PineEntrance, -90, -90, 1, open, open, -1.130157, 4.731786, -161.6205, 0.9191284, 965.4646
106, BakerBerryHistoric2, 180, BakerBerryHistoric2, 270, 90, 1, open, open, -3.687164, 15.48435, 334.9741, 0.8074951, 968.2072
107, neutral, 0, Zimmerman, -10, 90, 0, open, open, -3.544525, 5.956726, 59.77184, 1.210999, 976.7136
108, neutral, 0, BakerBerry2nd, 4, -90, 0, closed, closed, -1.030914, 7.122363, -66.46393, 1.016357, 979.8185
109, McLaughlinCluster, 172, McLaughlinCluster, 82, -90, 1, closed, closed, -0.4956055, 6.490034, 18.11038, 1.392517, 982.9511
110, BakerBerry2nd, 94, PineBackHall, 90, -90, 0, open, open, 4.502934, 6.588437, 20.40253, 0.9469604, 985.3595
111, neutral, 0, Hop4, -93, -90, 0, open, open, 4.305716, 5.816451, -160.782, 0.821228, 987.9489
112, MooreLot, 180, MooreLot, 270, 90, 1, open, open, -1.115356, 8.304316, 330.0753, 1.489807, 990.887
113, neutral, 0, PineBackHall, 90, -90, 0, open, open, -0.1464233, 8.114201, 14.42285, 1.141785, 993.9497
114, neutral, 0, Maynard, 90, 90, 0, closed, closed, -1.770996, 4.227946, 150.7001, 1.113708, 996.5111
115, BakerBerryCharter, -90, MooreLot, 90, -90, 0, closed, closed, 4.830019, 4.277655, 20.64856, 1.058167, 1000.228
116, neutral, 0, RaunerBackHall, 90, 90, 0, open, open, -1.76593, 7.068892, 153.6821, 1.587463, 1003.487
117, Fairbanks, 0, BakerBerry2nd, 4, -90, 0, closed, closed, 1.665772, 7.024449, -67.17316, 0.9884033, 1006.006
118, Umplebys, -50, Umplebys, 40, 90, 1, closed, closed, -1.90799, 7.14175, 100.9361, 1.001953, 1008.443
119, neutral, 0, MooreLot, 90, -90, 0, closed, open, -0.3522644, 4.446559, 29.35263, 1.183472, 1011.032
120, Maynard, 0, PineEntrance, 90, 90, 0, closed, closed, -2.441193, 7.477824, 147.7042, 0.8632813, 1013.232
121, neutral, 0, McLaughlinCluster, 262, 90, 0, open, closed, -0.6371765, 9.729202, 319.664, 1.169373, 1015.794
122, RaunerFirst, 0, RaunerFirst, -90, -90, 1, closed, closed, 3.575878, 6.728383, -156.1793, 0.8076782, 1018.119
123, RaunerBackHall, 0, RaunerBackHall, -90, -90, 1, closed, closed, 4.268947, 7.559844, -153.9784, 0.9191895, 1020.305
124, Hop4, -3, Hop4, 87, 90, 1, closed, closed, -6.837982, 6.755211, 140.8467, 1.085876, 1022.95
125, neutral, 0, Hop2, -91, -90, 0, closed, open, 6.031114, 3.558253, -153.5959, 1.21167, 1025.581
126, RaunerFirst, 0, BakerBerryHistoric2, 90, -90, 0, closed, closed, 6.747449, 5.293565, 29.87653, 1.127563, 1028.226
127, AllenSt, 0, AllenSt, 90, 90, 1, closed, closed, -5.581787, 4.629666, 142.5641, 0.9326172, 1030.468
128, Hop4, -3, Hop4, 87, 90, 1, closed, open, -7.745636, 5.444756, 139.988, 1.197266, 1033.099
129, BakerBerryHistoric2, 180, BakerBerryHistoric2, 270, 90, 1, open, open, -7.894562, 12.34646, 323.0462, 0.9050293, 1035.536
130, neutral, 0, AllenSt, -90, -90, 0, open, open, 6.610943, 4.027841, -155.9826, 1.253052, 1038.209
131, BakerBerry2nd, 94, BakerBerry2nd, 184, 90, 1, open, open, -5.514648, 5.65729, 241.1248, 0.9887695, 1040.617
132, Maynard, 0, Maynard, -90, -90, 1, open, open, 7.467248, 2.388719, -154.614, 0.8909912, 1042.914
133, McLaughlinCluster, 172, 53Commons, 90, 90, 0, open, open, -6.322784, 4.972136, 146.7089, 1.2948, 1045.518
134, BakerBerryCharter, -90, BakerBerryCharter, 0, 90, 1, closed, closed, -7.189178, 5.630068, 55.36404, 1.169556, 1048.163
135, PineBackHall, 180, PineBackHall, 270, 90, 1, closed, closed, -6.474854, 3.300561, 321.25, 0.9890137, 1050.614
136, neutral, 0, Umplebys, -140, -90, 0, open, open, 5.950749, 2.688833, -205.0559, 0.8635254, 1052.925
137, 53Commons, 0, 53Commons, -90, -90, 1, closed, closed, 4.801389, 2.433414, -152.1025, 0.9189453, 1055.584
138, RaunerBackHall, 0, Hop2, -91, -90, 0, closed, closed, 5.413742, 4.333331, -152.035, 1.113892, 1058.104
139, RollinsChapel3, 177, RollinsChapel3, 87, -90, 1, open, open, 3.778899, 2.292471, 24.0022, 0.8496094, 1060.415
140, Hop2, -1, Hop2, 89, 90, 1, open, open, -4.353546, 5.695625, 148.4842, 1.057983, 1062.823
141, Fairbanks, 0, Fairbanks, -90, -90, 1, open, open, 4.408927, 0.4930106, -154.7507, 0.8913574, 1065.051
142, RaunerFirst, 0, RaunerFirst, -90, -90, 1, closed, closed, 6.162716, 3.183612, -153.4459, 0.8355713, 1067.265
143, Umplebys, -50, Umplebys, 40, 90, 1, closed, closed, -4.419922, 7.285751, 95.15175, 1.05835, 1069.604
144, Zimmerman, -100, RaunerBackHall, 90, 90, 0, open, closed, -6.838013, 4.546077, 144.7873, 0.8491211, 1071.873
