trialIdx, primeName, primeAngleYaw, targetName, targetAngleYaw, targetSide, sameScenePrime, correctResponse, response, roll, pitch, yaw, rt, timestamp
1, PineBackHall, 180, MooreLot, 270, 90, 0, open, open, -3.41687, 8.533259, 349.8984, 1.447815, 611.6832
2, PineEntrance, 0, PineEntrance, 90, 90, 1, closed, open, -1.05722, -0.3491516, 83.53177, 0.5709839, 617.1547
3, Umplebys, -50, Umplebys, -140, -90, 1, open, open, -0.9386902, -0.1380615, -145.1374, 0.4179688, 618.4775
4, Hop2, -1, Hop2, -91, -90, 1, closed, open, -1.234772, -0.1679077, -96.19617, 0.3061523, 619.8696
5, neutral, 0, BakerBerryCharter, 0, 90, 0, closed, closed, -1.489716, 0.3637464, -5.071167, 0.4313354, 621.2477
6, Hop2, -1, Hop2, -91, -90, 1, closed, open, -1.515839, -0.4088745, -96.01822, 0.7515259, 623.2668
7, Fairbanks, 0, BakerBerryCharter, 0, 90, 0, closed, closed, -1.559174, -0.3901062, -5.123871, 1.002441, 625.4942
8, RaunerFirst, 0, RaunerFirst, 90, 90, 1, open, open, -1.622772, -0.105072, 84.38266, 0.9607544, 627.6383
9, 53Commons, 0, 53Commons, 90, 90, 1, open, closed, -1.62439, -0.6382141, 84.8345, 1.183777, 630.1724
10, RollinsChapel3, 177, RollinsChapel3, 267, 90, 1, closed, open, -1.882996, -0.5519409, 261.865, 1.099731, 632.8311
11, neutral, 0, Hop4, 87, 90, 0, closed, closed, -1.603943, -0.4864197, 81.67459, 1.044312, 635.1284
12, neutral, 0, RaunerFirst, -90, -90, 0, closed, open, -1.485474, -0.5324707, -95.75647, 0.9049072, 637.328
13, Umplebys, -50, Umplebys, -140, -90, 1, open, closed, -2.035004, -0.6459656, -144.9619, 1.00238, 639.5839
14, BakerBerry2nd, 94, BakerBerry2nd, 4, -90, 1, closed, open, -1.779266, -0.1737061, -1.27536, 0.9188232, 641.8805
15, McLaughlinCluster, 172, Maynard, -90, -90, 0, open, closed, -2.129517, -0.7590942, -94.97736, 1.016418, 644.2615
16, Hop2, -1, Hop4, 87, 90, 0, closed, open, -2.18512, -0.8035889, 82.06946, 0.9883423, 646.6699
17, neutral, 0, RaunerBackHall, -90, -90, 0, closed, closed, -2.055603, -0.3418884, -94.9476, 0.9749756, 649.0372
18, 53Commons, 0, Fairbanks, -90, -90, 0, open, open, -1.774323, -0.3595886, -95.48657, 1.044006, 651.4592
19, Maynard, 0, Maynard, 90, 90, 1, closed, closed, -1.791962, -0.6195984, 84.44214, 0.8773193, 653.6871
20, AllenSt, 0, AllenSt, -90, -90, 1, open, open, -1.921997, -0.3959045, -95.68958, 1.086182, 656.1651
21, Hop4, -3, BakerBerry2nd, 184, 90, 0, open, closed, -1.833313, -0.4676208, 178.3898, 0.9049072, 658.3648
22, BakerBerry2nd, 94, BakerBerryHistoric2, 270, 90, 0, open, closed, -1.856659, -0.7695923, 264.4606, 1.057922, 660.7036
23, Hop4, -3, Hop4, -93, -90, 1, open, open, -2.176331, -0.5597229, -98.54346, 0.8632813, 662.9871
24, MooreLot, 180, 53Commons, -90, -90, 0, closed, open, -1.708984, -0.6375122, -95.67685, 0.8769531, 665.284
25, neutral, 0, Zimmerman, -190, -90, 0, closed, closed, -2.007782, -0.5517883, -195.2082, 0.8212891, 667.3028
26, AllenSt, 0, RaunerFirst, -90, -90, 0, closed, open, -1.589478, -0.4788513, -94.59534, 1.141357, 669.8643
27, RollinsChapel3, 177, Zimmerman, -190, -90, 0, closed, closed, -2.424988, -0.9029236, -194.269, 1.127625, 672.2733
28, Maynard, 0, Maynard, 90, 90, 1, closed, open, -2.245422, -1.054626, 85.41968, 1.211121, 674.7651
29, neutral, 0, AllenSt, 90, 90, 0, closed, closed, -1.951324, 0.1287694, 84.64752, 1.141479, 677.1179
30, BakerBerryHistoric2, 180, BakerBerryHistoric2, 90, -90, 1, closed, open, -1.844269, -0.5471497, 85.25919, 1.058228, 679.5269
31, PineBackHall, 180, PineBackHall, 90, -90, 1, open, open, -1.957092, 0.1041252, 84.98206, 0.9327393, 681.7265
32, RaunerBackHall, 0, RaunerBackHall, 90, 90, 1, open, closed, -2.062958, -0.1384277, 84.75824, 0.9468384, 683.912
33, BakerBerryCharter, -90, PineBackHall, 270, 90, 0, closed, open, -1.997559, -0.08596802, 264.6597, 0.9467163, 686.0424
34, neutral, 0, Fairbanks, -90, -90, 0, open, closed, -1.999817, -0.5010681, -95.26328, 0.8769531, 688.1584
35, neutral, 0, Hop2, 89, 90, 0, open, closed, -2.222107, 0.241794, 84.52585, 1.169556, 697.5422
36, Zimmerman, -100, Umplebys, 40, 90, 0, closed, open, -2.342133, 0.2235576, 35.46765, 0.9884644, 699.8809
37, AllenSt, 0, AllenSt, -90, -90, 1, open, open, -1.421997, -1.219635, -90.85684, 1.155701, 717.0057
38, Umplebys, -50, RaunerBackHall, -90, -90, 0, closed, closed, -1.305267, -0.5197449, -90.4639, 1.127991, 719.3723
39, Hop4, -3, Hop4, -93, -90, 1, open, open, -2.197449, -1.299683, -93.01111, 1.156128, 721.7814
40, McLaughlinCluster, 172, McLaughlinCluster, 262, 90, 1, open, open, 6.190595, 23.42487, 241.8855, 1.545654, 724.8995
41, Zimmerman, -100, Zimmerman, -10, 90, 1, open, open, -8.320831, 10.22238, 72.9474, 1.253235, 740.9659
42, BakerBerryCharter, -90, BakerBerryCharter, -180, -90, 1, open, closed, -1.867004, 0.7063377, -183.5748, 0.9608765, 743.1935
43, neutral, 0, RollinsChapel3, 87, -90, 0, open, open, -1.334503, 0.7277959, 83.75534, 0.9606323, 745.3651
44, BakerBerryHistoric2, 180, BakerBerryHistoric2, 90, -90, 1, closed, open, -1.106873, 1.407211, 87.46396, 0.8215332, 747.3978
45, Fairbanks, 0, Fairbanks, 90, 90, 1, closed, open, -4.387421, 3.391779, 91.8152, 1.002441, 749.7368
46, neutral, 0, McLaughlinCluster, 82, -90, 0, closed, open, -0.4843445, 3.087553, 78.00903, 0.7796631, 751.6581
47, RaunerFirst, 0, PineEntrance, -90, -90, 0, open, closed, -1.260529, 2.332527, -92.02887, 0.737915, 753.5514
48, Zimmerman, -100, Zimmerman, -10, 90, 1, open, closed, -1.261871, 2.582719, -12.90204, 0.876709, 756.1547
49, MooreLot, 180, MooreLot, 90, -90, 1, closed, closed, -1.889832, 1.627493, 87.25369, 0.9053345, 758.3409
50, RaunerBackHall, 0, RaunerBackHall, 90, 90, 1, open, open, 1.713659, 7.594244, 81.53299, 0.4598389, 761.1254
51, McLaughlinCluster, 172, McLaughlinCluster, 262, 90, 1, open, closed, -3.089447, 0.4543774, 256.6022, 0.6407471, 762.9075
52, PineBackHall, 180, PineBackHall, 90, -90, 1, open, open, -3.166473, 0.5092021, 84.4982, 0.4734497, 764.5363
53, RollinsChapel3, 177, RollinsChapel3, 267, 90, 1, closed, closed, -3.139404, 0.7942492, 261.8454, 0.5153809, 766.2627
54, Maynard, 0, McLaughlinCluster, 82, -90, 0, closed, open, -3.511261, 0.5934824, 76.8783, 0.6265259, 768.1422
55, RaunerFirst, 0, RaunerFirst, 90, 90, 1, open, closed, -3.666504, 0.5169206, 84.79514, 0.9049683, 770.2026
56, 53Commons, 0, 53Commons, 90, 90, 1, open, open, -3.387756, 0.3507802, 84.69357, 0.9743652, 772.3326
57, neutral, 0, Umplebys, 40, 90, 0, closed, closed, -6.573944, 11.78155, 125.9682, 1.615112, 775.1033
58, neutral, 0, PineEntrance, -90, -90, 0, open, open, 17.17073, 9.549572, -153.0449, 1.22522, 777.6648
59, RaunerBackHall, 0, Hop2, 89, 90, 0, open, open, -15.24969, 10.72205, 168.9613, 1.016174, 779.962
60, MooreLot, 180, MooreLot, 90, -90, 1, closed, closed, -5.667023, 17.90105, 21.24084, 1.044556, 782.1063
61, BakerBerryCharter, -90, BakerBerryCharter, -180, -90, 1, open, open, 1.997113, 17.56727, -244.1374, 1.294556, 784.4868
62, neutral, 0, Maynard, -90, -90, 0, open, open, 2.546678, 13.40759, -95.58768, 0.6542969, 788.399
63, neutral, 0, PineBackHall, 270, 90, 0, closed, closed, 0.5992656, 10.70908, 357.8619, 1.39209, 791.4341
64, neutral, 0, BakerBerryHistoric2, 270, 90, 0, open, closed, 5.259491, -9.759247, 259.8019, 0.9326782, 793.3275
65, BakerBerry2nd, 94, BakerBerry2nd, 4, -90, 1, closed, open, 14.32139, -2.72818, -4.01178, 1.113525, 795.5967
66, BakerBerryHistoric2, 180, RollinsChapel3, 87, -90, 0, open, closed, 11.28672, -1.863434, 79.67538, 0.2366333, 797.0029
67, PineEntrance, 0, PineEntrance, 90, 90, 1, closed, open, 8.665736, -1.62677, 84.47906, 0.5155029, 798.6878
68, neutral, 0, 53Commons, -90, -90, 0, closed, closed, 8.750216, -2.857605, -95.80118, 0.7102661, 800.5951
69, neutral, 0, MooreLot, 270, 90, 0, open, open, 7.824202, -2.89743, 264.385, 1.11377, 803.0312
70, Fairbanks, 0, Fairbanks, 90, 90, 1, closed, closed, 7.924923, -2.833282, 84.40491, 1.447571, 805.6348
71, neutral, 0, BakerBerry2nd, 184, 90, 0, open, closed, 5.366137, -1.527557, 179.8068, 0.6821289, 812.8744
72, PineEntrance, 0, AllenSt, 90, 90, 0, closed, open, 6.448596, -2.230408, 85.76102, 0.9326172, 815.1018
73, PineBackHall, 180, Fairbanks, 90, 90, 0, closed, closed, 6.113797, 0.08646147, 88.15317, 0.5151978, 816.8702
74, AllenSt, 0, Zimmerman, -10, 90, 0, open, open, -49.44589, -5.404816, -3.715167, 1.183289, 819.2506
75, Hop4, -3, RollinsChapel3, 267, 90, 0, closed, closed, 2.201821, -1.174133, 249.1344, 0.9192505, 822.5366
76, BakerBerryHistoric2, 180, RaunerFirst, 90, 90, 0, open, open, -15.37726, -9.43396, 87.84006, 1.545898, 825.3074
77, neutral, 0, BakerBerryCharter, -180, -90, 0, open, closed, -23.5162, -6.510956, -179.8924, 1.322327, 827.7711
78, PineEntrance, 0, PineEntrance, -90, -90, 1, open, open, -27.98331, -7.469116, -83.76316, 1.155701, 830.1799
79, McLaughlinCluster, 172, McLaughlinCluster, 82, -90, 1, closed, closed, 13.79288, -5.450073, 63.0415, 1.002441, 832.4352
80, Maynard, 0, Maynard, -90, -90, 1, open, open, -5.201508, -2.728821, -97.44901, 1.044373, 834.7047
81, neutral, 0, RollinsChapel3, 267, 90, 0, closed, closed, 7.739636, 20.45162, 242.4864, 1.072266, 837.2107
82, PineEntrance, 0, BakerBerryCharter, -180, -90, 0, open, open, 3.002851, 0.4055337, -188.1158, 0.8632813, 839.3687
83, Umplebys, -50, AllenSt, -90, -90, 0, open, closed, -1.546753, -5.720825, -91.54074, 1.253052, 842.3619
84, neutral, 0, BakerBerryHistoric2, 90, -90, 0, closed, open, 0.9088945, -5.688843, 87.05731, 0.9330444, 844.4781
85, 53Commons, 0, 53Commons, -90, -90, 1, closed, closed, 0.5661286, -8.091309, -95.46295, 0.6821289, 846.3575
86, MooreLot, 180, Hop4, -93, -90, 0, open, open, 0.9376345, -4.840332, -99.92102, 1.044128, 848.6963
87, Hop2, -1, Umplebys, -140, -90, 0, open, closed, -1.616516, -5.087341, -144.2754, 0.9749146, 851.0219
88, 53Commons, 0, McLaughlinCluster, 262, 90, 0, open, open, -1.720062, -5.077972, 257.0653, 1.099915, 853.3607
89, RaunerBackHall, 0, RaunerBackHall, -90, -90, 1, closed, closed, 1.320042, -4.461975, -93.4729, 1.141663, 855.8804
90, Fairbanks, 0, Fairbanks, -90, -90, 1, open, open, 1.210654, -4.017944, -100.2708, 1.002686, 858.1087
91, Zimmerman, -100, Zimmerman, -190, -90, 1, closed, closed, 2.994831, -7.573242, -197.8354, 0.9050293, 860.4471
92, Hop2, -1, Hop2, 89, 90, 1, open, open, -0.1765137, -5.735016, 82.50351, 1.308716, 862.967
93, AllenSt, 0, AllenSt, 90, 90, 1, closed, closed, -0.9343262, -5.878754, 83.00034, 0.9188843, 864.9993
94, BakerBerry2nd, 94, BakerBerry2nd, 184, 90, 1, open, open, -0.6584473, -5.368958, 177.7029, 0.5849609, 866.7258
95, neutral, 0, PineEntrance, 90, 90, 0, closed, closed, -0.6539307, -5.69223, 83.09296, 1.085754, 868.9813
96, PineBackHall, 180, PineBackHall, 270, 90, 1, closed, open, -1.122772, -6.009125, 263.4391, 1.113708, 871.334
97, Zimmerman, -100, Zimmerman, -190, -90, 1, closed, closed, -1.92392, -6.996948, -195.8961, 1.336426, 874.4666
98, RollinsChapel3, 177, Maynard, 90, 90, 0, closed, open, -8.581055, -7.750458, 77.74353, 1.921326, 877.5018
99, MooreLot, 180, MooreLot, 270, 90, 1, open, closed, -4.710663, 2.08836, 263.979, 1.824158, 880.5927
100, RollinsChapel3, 177, RollinsChapel3, 87, -90, 1, open, open, 0.7500337, 6.532689, 82.87625, 1.517517, 884.6159
101, neutral, 0, RaunerFirst, 90, 90, 0, open, closed, -1.101349, -2.325775, 84.7312, 2.283447, 888.236
102, neutral, 0, Fairbanks, 90, 90, 0, closed, open, -2.459259, -2.406036, 85.31512, 2.074951, 891.5636
103, neutral, 0, 53Commons, 90, 90, 0, open, closed, -2.434296, -2.844635, 85.58615, 1.698853, 894.4871
104, BakerBerryCharter, -90, BakerBerryCharter, 0, 90, 1, closed, open, -3.377808, -0.960083, -3.365601, 1.962952, 897.7029
105, PineEntrance, 0, PineEntrance, -90, -90, 1, open, closed, -2.151184, 5.918098, -95.6503, 2.01886, 901.0445
106, BakerBerryHistoric2, 180, BakerBerryHistoric2, 270, 90, 1, open, open, 8.038739, 11.85033, 265.5691, 1.712524, 904.1629
107, neutral, 0, Zimmerman, -10, 90, 0, open, closed, -0.2934265, 2.31053, -15.02884, 0.723938, 911.7505
108, neutral, 0, BakerBerry2nd, 4, -90, 0, closed, open, -1.989075, 1.114032, -1.940186, 1.169434, 914.1313
109, McLaughlinCluster, 172, McLaughlinCluster, 82, -90, 1, closed, closed, -3.467499, 0.5960125, 78.38626, 0.9745483, 916.4562
110, BakerBerry2nd, 94, PineBackHall, 90, -90, 0, open, open, -5.554169, -1.503418, 89.78488, 1.809937, 919.561
111, neutral, 0, Hop4, -93, -90, 0, open, open, -3.922546, -1.750397, -96.08286, 2.366821, 923.0695
112, MooreLot, 180, MooreLot, 270, 90, 1, open, closed, -4.025574, -2.120911, 267.4721, 2.255432, 926.4387
113, neutral, 0, PineBackHall, 90, -90, 0, open, open, -5.0849, -1.32843, 88.23914, 1.461853, 929.0559
114, neutral, 0, Maynard, 90, 90, 0, closed, closed, -4.308502, -2.963928, 87.81894, 0.626709, 930.8103
115, BakerBerryCharter, -90, MooreLot, 90, -90, 0, closed, open, -3.591705, -2.780701, 87.87872, 1.100159, 933.0518
116, neutral, 0, RaunerBackHall, 90, 90, 0, open, open, -4.278961, -3.997803, 89.09177, 1.294739, 935.5158
117, Fairbanks, 0, BakerBerry2nd, 4, -90, 0, closed, closed, -6.055511, -2.130554, 2.711395, 1.28064, 937.9382
118, Umplebys, -50, Umplebys, 40, 90, 1, closed, closed, -5.346375, -3.521179, 39.19434, 0.5289307, 939.609
119, neutral, 0, MooreLot, 90, -90, 0, closed, open, -5.158295, -3.251648, 88.58838, 0.3065186, 941.0293
120, Maynard, 0, PineEntrance, 90, 90, 0, closed, closed, -4.940979, -4.286438, 88.96451, 0.1942139, 942.505
121, neutral, 0, McLaughlinCluster, 262, 90, 0, open, open, -5.036743, -3.461182, 260.5749, 0.3895874, 944.5097
122, RaunerFirst, 0, RaunerFirst, -90, -90, 1, closed, closed, -4.485382, -5.527313, -86.22389, 2.005249, 947.7261
123, RaunerBackHall, 0, RaunerBackHall, -90, -90, 1, closed, open, -0.7993774, -9.203522, -101.2804, 1.433899, 950.3153
124, Hop4, -3, Hop4, 87, 90, 1, closed, closed, -2.500366, 5.811186, 82.30252, 0.1390991, 959.518
125, neutral, 0, Hop2, -91, -90, 0, closed, closed, 9.065723, 9.863479, -121.6575, 1.587036, 962.3024
126, RaunerFirst, 0, BakerBerryHistoric2, 90, -90, 0, closed, closed, -5.059998, 16.03381, 13.08633, 0.9883423, 964.4744
127, AllenSt, 0, AllenSt, 90, 90, 1, closed, closed, -0.6029053, 17.98203, 151.8924, 1.336487, 966.9246
128, Hop4, -3, Hop4, 87, 90, 1, closed, closed, 5.26004, 20.42436, 172.2007, 1.071899, 969.0687
129, BakerBerryHistoric2, 180, BakerBerryHistoric2, 270, 90, 1, open, open, 1.670303, 22.07071, 344.827, 1.391968, 971.5745
130, neutral, 0, AllenSt, -90, -90, 0, open, open, -2.881531, 20.29107, -165.9691, 1.072083, 973.9694
131, BakerBerry2nd, 94, BakerBerry2nd, 184, 90, 1, open, open, 8.983499, 23.43968, 262.7588, 0.9882813, 976.1411
132, Maynard, 0, Maynard, -90, -90, 1, open, open, -9.136627, 20.97579, -162.7686, 1.225098, 978.4385
133, McLaughlinCluster, 172, 53Commons, 90, 90, 0, open, open, 9.590669, 22.84028, 161.8163, 1.029968, 980.5544
134, BakerBerryCharter, -90, BakerBerryCharter, 0, 90, 1, closed, closed, -6.070496, 13.99933, 18.65228, 1.475464, 982.9213
135, PineBackHall, 180, PineBackHall, 270, 90, 1, closed, closed, -5.208191, 6.518035, 270.9896, 1.211487, 985.2604
136, neutral, 0, Umplebys, -140, -90, 0, open, open, 0.7650191, 12.81029, -196.6685, 0.9052734, 987.3348
137, 53Commons, 0, 53Commons, -90, -90, 1, closed, closed, 5.18363, 4.890366, -97.98633, 1.434387, 989.6043
138, RaunerBackHall, 0, Hop2, -91, -90, 0, closed, closed, 7.703159, 10.66966, -131.5269, 1.002197, 991.4696
139, RollinsChapel3, 177, RollinsChapel3, 87, -90, 1, open, open, 2.133585, 10.82707, 26.3009, 0.8492432, 993.5023
140, Hop2, -1, Hop2, 89, 90, 1, open, open, -5.486542, 11.73648, 145.6247, 0.9049683, 995.5211
141, Fairbanks, 0, Fairbanks, -90, -90, 1, open, open, 2.255553, 12.13591, -148.0718, 0.8493042, 997.498
142, RaunerFirst, 0, RaunerFirst, -90, -90, 1, closed, closed, -0.7692566, 10.15007, -163.4338, 0.8911743, 999.6005
143, Umplebys, -50, Umplebys, 40, 90, 1, closed, closed, -2.22934, 13.33809, 103.4802, 0.9606934, 1001.758
144, Zimmerman, -100, RaunerBackHall, 90, 90, 0, open, closed, -3.435272, 10.77267, 158.0178, 0.8490601, 1003.707
