trialIdx, primeName, primeAngleYaw, targetName, targetAngleYaw, targetSide, sameScenePrime, correctResponse, response, roll, pitch, yaw, rt, timestamp
1, PineBackHall, 180, MooreLot, 270, 90, 0, open, open, -18.96713, -0.855896, 336.9139, 1.016235, 596.5021
2, PineEntrance, 0, PineEntrance, 90, 90, 1, closed, closed, -20.6076, -1.527802, 150.7882, 0.9190063, 598.6463
3, Umplebys, -50, Umplebys, -140, -90, 1, open, closed, 14.32388, -1.548767, -207.2512, 1.113647, 600.7347
4, Hop2, -1, Hop2, -91, -90, 1, closed, closed, 18.10644, 5.268337, -164.7064, 1.238953, 602.8509
5, neutral, 0, BakerBerryCharter, 0, 90, 0, closed, open, -17.15564, 4.569802, 62.78628, 0.9883423, 605.1897
6, Hop2, -1, Hop2, -91, -90, 1, closed, closed, 16.49057, -3.588684, -162.9881, 1.670654, 607.7517
7, Fairbanks, 0, BakerBerryCharter, 0, 90, 0, closed, closed, -14.21378, 2.893345, 60.10329, 1.100281, 609.687
8, RaunerFirst, 0, RaunerFirst, 90, 90, 1, open, open, -12.25146, 8.939408, 152.9223, 1.169556, 611.761
9, 53Commons, 0, 53Commons, 90, 90, 1, open, open, -13.35281, 7.545586, 152.25, 1.085754, 613.9328
10, RollinsChapel3, 177, RollinsChapel3, 267, 90, 1, closed, closed, -10.38043, 6.184786, 331.7148, 1.016174, 616.0768
11, neutral, 0, Hop4, 87, 90, 0, closed, closed, -13.88202, 10.88134, 150.7127, 1.058472, 618.2352
12, neutral, 0, RaunerFirst, -90, -90, 0, closed, closed, 18.54317, 4.814103, -161.9022, 0.9605103, 620.2814
13, Umplebys, -50, Umplebys, -140, -90, 1, open, open, 18.07086, 4.130565, -212.8409, 1.266235, 622.6484
14, BakerBerry2nd, 94, BakerBerry2nd, 4, -90, 1, closed, closed, 11.60435, 4.903985, -56.36923, 1.322632, 624.8483
15, McLaughlinCluster, 172, Maynard, -90, -90, 0, open, closed, 17.95057, 9.805124, -165.9859, 1.099976, 627.0338
16, Hop2, -1, Hop4, 87, 90, 0, closed, closed, -14.62839, 9.201408, 151.3157, 1.002197, 629.1085
17, neutral, 0, RaunerBackHall, -90, -90, 0, closed, closed, 16.53845, 8.680634, -165.9319, 0.8909912, 631.0574
18, 53Commons, 0, Fairbanks, -90, -90, 0, open, open, 14.16747, 14.7951, -172.4266, 0.9049072, 633.0483
19, Maynard, 0, Maynard, 90, 90, 1, closed, closed, -9.732178, 12.28699, 155.8983, 1.058289, 635.0948
20, AllenSt, 0, AllenSt, -90, -90, 1, open, open, 15.55308, 8.03028, -170.7261, 0.8491821, 636.8491
21, Hop4, -3, BakerBerry2nd, 184, 90, 0, open, open, -7.795441, 11.82425, 248.3491, 1.044006, 638.7562
22, BakerBerry2nd, 94, BakerBerryHistoric2, 270, 90, 0, open, open, -7.104431, 13.67138, 336.1801, 1.475586, 641.2622
23, Hop4, -3, Hop4, -93, -90, 1, open, open, 14.59719, 7.016573, -171.0221, 0.9603271, 643.309
24, MooreLot, 180, 53Commons, -90, -90, 0, closed, open, 9.890768, 10.04766, -164.154, 1.447998, 645.648
25, neutral, 0, Zimmerman, -190, -90, 0, closed, open, 18.64094, 14.27128, -268.1052, 1.044556, 647.7784
26, AllenSt, 0, RaunerFirst, -90, -90, 0, closed, closed, 11.03804, 13.11614, -165.2047, 0.9745483, 649.741
27, RollinsChapel3, 177, Zimmerman, -190, -90, 0, closed, open, 14.02478, 12.01762, -269.4679, 1.016235, 651.7458
28, Maynard, 0, Maynard, 90, 90, 1, closed, closed, -12.44595, 7.258495, 153.032, 0.9884033, 653.7646
29, neutral, 0, AllenSt, 90, 90, 0, closed, closed, -12.61017, 11.73224, 152.6424, 1.085876, 655.9226
30, BakerBerryHistoric2, 180, BakerBerryHistoric2, 90, -90, 1, closed, closed, 14.49195, 4.981044, 25.43921, 0.9466553, 657.9273
31, PineBackHall, 180, PineBackHall, 90, -90, 1, open, open, 0.689297, -5.79599, 75.42029, 1.336731, 660.2108
32, RaunerBackHall, 0, RaunerBackHall, 90, 90, 1, open, open, -13.98846, 5.838071, 146.4629, 1.071777, 662.2015
33, BakerBerryCharter, -90, PineBackHall, 270, 90, 0, closed, closed, -9.360809, 13.8856, 333.4884, 1.016479, 664.1369
34, neutral, 0, Fairbanks, -90, -90, 0, open, open, 14.94388, 10.51135, -163.2944, 0.9188843, 666.1277
35, neutral, 0, Hop2, 89, 90, 0, open, open, -15.46527, 4.498681, 146.942, 1.086182, 673.9523
36, Zimmerman, -100, Umplebys, 40, 90, 0, closed, closed, -15.30396, 3.590336, 95.09201, 1.086121, 675.9014
37, AllenSt, 0, AllenSt, -90, -90, 1, open, open, 13.88818, 1.362553, -167.6994, 1.072144, 677.8643
38, Umplebys, -50, RaunerBackHall, -90, -90, 0, closed, closed, -15.5722, 2.358321, -109.0794, 2.951599, 683.9899
39, Hop4, -3, Hop4, -93, -90, 1, open, open, 13.87925, -5.134308, -159.4883, 0.7520752, 694.5432
40, McLaughlinCluster, 172, McLaughlinCluster, 262, 90, 1, open, open, -10.50519, -7.261414, 306.4295, 1.253235, 696.9658
41, Zimmerman, -100, Zimmerman, -10, 90, 1, open, open, -10.00912, 2.473962, 59.33338, 0.9328613, 698.7476
42, BakerBerryCharter, -90, BakerBerryCharter, -180, -90, 1, open, open, 13.43581, 3.248259, -258.5421, 0.7390747, 700.5725
43, neutral, 0, RollinsChapel3, 87, -90, 0, open, open, 9.247847, 7.852215, 15.34363, 0.9330444, 702.5905
44, BakerBerryHistoric2, 180, BakerBerryHistoric2, 90, -90, 1, closed, closed, 12.19813, 1.488432, 21.81787, 1.030029, 704.567
45, Fairbanks, 0, Fairbanks, 90, 90, 1, closed, open, -6.671722, 8.062319, 158.3371, 1.044128, 706.6
46, neutral, 0, McLaughlinCluster, 82, -90, 0, closed, closed, 3.273097, -8.554535, 50.41351, 1.643188, 709.301
47, RaunerFirst, 0, PineEntrance, -90, -90, 0, open, open, 10.36387, 9.661266, -170.0355, 1.169739, 711.779
48, Zimmerman, -100, Zimmerman, -10, 90, 1, open, open, -5.98288, 11.76644, 58.82172, 1.016479, 713.7977
49, MooreLot, 180, MooreLot, 90, -90, 1, closed, closed, 8.716066, 8.415881, 11.89041, 1.183472, 716.0672
50, RaunerBackHall, 0, RaunerBackHall, 90, 90, 1, open, open, -6.057556, 9.101621, 153.8321, 0.9192505, 717.8911
51, McLaughlinCluster, 172, McLaughlinCluster, 262, 90, 1, open, open, -6.190704, 10.02126, 324.4659, 1.336853, 720.2577
52, PineBackHall, 180, PineBackHall, 90, -90, 1, open, open, 14.02551, 12.19832, 16.17264, 0.9468994, 722.0956
53, RollinsChapel3, 177, RollinsChapel3, 267, 90, 1, closed, open, -7.221802, 7.019935, 320.6448, 1.503601, 724.6014
54, Maynard, 0, McLaughlinCluster, 82, -90, 0, closed, closed, 5.658472, -8.265808, 39.35703, 1.267029, 726.7734
55, RaunerFirst, 0, RaunerFirst, 90, 90, 1, open, open, -9.823029, 7.706398, 154.5461, 0.9746704, 728.959
56, 53Commons, 0, 53Commons, 90, 90, 1, open, open, -7.212982, 10.61635, 155.9849, 0.9465942, 730.8245
57, neutral, 0, Umplebys, 40, 90, 0, closed, closed, -8.814819, 8.849831, 106.1503, 1.030334, 732.9268
58, neutral, 0, PineEntrance, -90, -90, 0, open, open, 4.601663, 12.60992, -171.9788, 0.9329834, 735.0989
59, RaunerBackHall, 0, Hop2, 89, 90, 0, open, open, -8.196777, 6.459625, 151.292, 0.7935181, 736.9784
60, MooreLot, 180, MooreLot, 90, -90, 1, closed, closed, 3.058334, -3.605072, 40.35849, 1.782043, 739.8741
61, BakerBerryCharter, -90, BakerBerryCharter, -180, -90, 1, open, open, 9.658502, 14.95351, -252.9659, 0.9051514, 741.9904
62, neutral, 0, Maynard, -90, -90, 0, open, open, 15.73777, 3.23823, -162.9122, 1.11377, 744.1342
63, neutral, 0, PineBackHall, 270, 90, 0, closed, closed, -11.33307, 16.87102, 335.3588, 1.155701, 746.2228
64, neutral, 0, BakerBerryHistoric2, 270, 90, 0, open, open, -9.048889, 13.56716, 331.9934, 1.002502, 748.1856
65, BakerBerry2nd, 94, BakerBerry2nd, 4, -90, 1, closed, open, 13.58937, -3.431885, -36.41287, 1.113708, 750.3854
66, BakerBerryHistoric2, 180, RollinsChapel3, 87, -90, 0, open, open, 10.61836, 15.8716, 7.225311, 1.058167, 752.4737
67, PineEntrance, 0, PineEntrance, 90, 90, 1, closed, closed, -9.895386, 7.708909, 140.2509, 0.723938, 754.4368
68, neutral, 0, 53Commons, -90, -90, 0, closed, open, 13.00573, 5.49413, -158.0425, 0.8913574, 756.3721
69, neutral, 0, MooreLot, 270, 90, 0, open, open, -8.985535, 2.233389, 323.2762, 1.393616, 758.7122
70, Fairbanks, 0, Fairbanks, 90, 90, 1, closed, open, -8.627747, 9.801572, 154.4861, 1.016602, 760.6462
71, neutral, 0, BakerBerry2nd, 184, 90, 0, open, open, -11.61307, 5.569888, 244.8848, 0.8493652, 768.6238
72, PineEntrance, 0, AllenSt, 90, 90, 0, closed, closed, -3.52594, -15.74872, 108.2202, 1.93512, 771.8953
73, PineBackHall, 180, Fairbanks, 90, 90, 0, closed, open, -12.0195, -9.684082, 123.5868, 1.726318, 774.5266
74, AllenSt, 0, Zimmerman, -10, 90, 0, open, open, -6.366791, 15.93048, 63.8184, 4.915222, 780.7646
75, Hop4, -3, RollinsChapel3, 267, 90, 0, closed, closed, -7.440125, 13.98016, 333.839, 1.225037, 782.8245
76, BakerBerryHistoric2, 180, RaunerFirst, 90, 90, 0, open, open, -10.75171, 9.799407, 150.804, 1.113892, 785.0104
77, neutral, 0, BakerBerryCharter, -180, -90, 0, open, closed, 15.38131, 5.121911, -246.7356, 1.489807, 787.6277
78, PineEntrance, 0, PineEntrance, -90, -90, 1, open, open, 15.42584, 13.66483, -166.115, 1.155701, 789.7298
79, McLaughlinCluster, 172, McLaughlinCluster, 82, -90, 1, closed, closed, 11.92083, 10.40511, 10.81116, 0.9892578, 791.7911
80, Maynard, 0, Maynard, -90, -90, 1, open, open, 15.67404, 1.59401, -158.3971, 1.336853, 794.1015
81, neutral, 0, RollinsChapel3, 267, 90, 0, closed, closed, -7.276245, -2.570709, 317.2418, 1.629028, 796.8442
82, PineEntrance, 0, BakerBerryCharter, -180, -90, 0, open, open, 11.34995, -1.471222, -240.7222, 1.405518, 799.211
83, Umplebys, -50, AllenSt, -90, -90, 0, open, open, 15.70362, 10.54657, -166.6804, 1.058105, 801.2855
84, neutral, 0, BakerBerryHistoric2, 90, -90, 0, closed, closed, 14.74291, 9.253917, 18.9863, 1.016541, 803.3879
85, 53Commons, 0, 53Commons, -90, -90, 1, closed, open, 12.60856, 13.1174, -164.7885, 0.9606934, 805.3784
86, MooreLot, 180, Hop4, -93, -90, 0, open, open, 11.91293, 8.893485, -161.4464, 1.085999, 807.6062
87, Hop2, -1, Umplebys, -140, -90, 0, open, open, 12.69409, 9.378566, -207.8887, 0.9885864, 809.5693
88, 53Commons, 0, McLaughlinCluster, 262, 90, 0, open, open, -6.624786, 12.85858, 327.7738, 1.392334, 811.9916
89, RaunerBackHall, 0, RaunerBackHall, -90, -90, 1, closed, closed, 11.14341, 7.529681, -153.8918, 1.127625, 814.1774
90, Fairbanks, 0, Fairbanks, -90, -90, 1, open, open, 12.54691, 6.3021, -159.817, 0.9885864, 816.1265
91, Zimmerman, -100, Zimmerman, -190, -90, 1, closed, closed, 12.10039, 4.467171, -256.7517, 1.058289, 818.2427
92, Hop2, -1, Hop2, 89, 90, 1, open, open, -7.384674, 11.6356, 149.4954, 0.807312, 820.0247
93, AllenSt, 0, AllenSt, 90, 90, 1, closed, closed, -11.70023, 4.691386, 140.6916, 1.030334, 822.1133
94, BakerBerry2nd, 94, BakerBerry2nd, 184, 90, 1, open, open, -6.935364, 8.899786, 241.9702, 1.04425, 824.2154
95, neutral, 0, PineEntrance, 90, 90, 0, closed, closed, -9.725891, 7.101349, 149.0091, 0.9886475, 826.2758
96, PineBackHall, 180, PineBackHall, 270, 90, 1, closed, closed, -9.174561, 13.23423, 329.7114, 1.113647, 828.4615
97, Zimmerman, -100, Zimmerman, -190, -90, 1, closed, open, 9.872627, 8.003635, -262.7986, 1.336609, 830.9539
98, RollinsChapel3, 177, Maynard, 90, 90, 0, closed, closed, -6.993683, 7.71115, 126.5866, 2.47821, 887.1864
99, MooreLot, 180, MooreLot, 270, 90, 1, open, closed, -2.613251, 4.078336, 319.7082, 1.837952, 893.3817
100, RollinsChapel3, 177, RollinsChapel3, 87, -90, 1, open, open, -2.013336, 2.860284, 99.68087, 2.673157, 900.677
101, neutral, 0, RaunerFirst, 90, 90, 0, open, open, -6.327667, -3.414154, 131.207, 1.085938, 912.5665
102, neutral, 0, Fairbanks, 90, 90, 0, closed, open, -7.347351, -5.124268, 139.984, 1.253113, 919.1658
103, neutral, 0, 53Commons, 90, 90, 0, open, open, -9.780792, -0.1324768, 152.2885, 0.9605713, 921.3099
104, BakerBerryCharter, -90, BakerBerryCharter, 0, 90, 1, closed, closed, -8.788971, 5.515705, 57.87525, 0.9885864, 923.3286
105, PineEntrance, 0, PineEntrance, -90, -90, 1, open, open, 7.154096, 6.47498, -161.3703, 0.9747314, 925.236
106, BakerBerryHistoric2, 180, BakerBerryHistoric2, 270, 90, 1, open, closed, -9.98938, 6.138659, 321.9789, 1.169495, 927.3102
107, neutral, 0, Zimmerman, -10, 90, 0, open, open, -5.886139, 3.117283, 61.17175, 0.8214111, 934.3966
108, neutral, 0, BakerBerry2nd, 4, -90, 0, closed, closed, 8.367957, -3.561981, -39.16019, 1.058533, 936.4296
109, McLaughlinCluster, 172, McLaughlinCluster, 82, -90, 1, closed, closed, 0.2969567, -8.312256, 77.8851, 1.336548, 938.6292
110, BakerBerry2nd, 94, PineBackHall, 90, -90, 0, open, open, 10.8132, -2.045837, 39.89362, 1.016235, 942.0681
111, neutral, 0, Hop4, -93, -90, 0, open, closed, 11.66651, 7.552289, -163.8356, 0.8912354, 943.9196
112, MooreLot, 180, MooreLot, 270, 90, 1, open, closed, -8.349152, -9.863007, 301.024, 1.294983, 946.1473
113, neutral, 0, PineBackHall, 90, -90, 0, open, open, 8.407825, -2.551331, 62.28033, 1.183594, 948.1938
114, neutral, 0, Maynard, 90, 90, 0, closed, closed, -3.517609, 8.388055, 152.5186, 0.9469604, 950.0873
115, BakerBerryCharter, -90, MooreLot, 90, -90, 0, closed, closed, 7.589043, -10.14166, 68.96567, 1.322815, 952.4262
116, neutral, 0, RaunerBackHall, 90, 90, 0, open, open, -7.798737, 1.952444, 137.5462, 1.100037, 954.3615
117, Fairbanks, 0, BakerBerry2nd, 4, -90, 0, closed, closed, 10.57179, -4.079193, -23.60416, 1.280823, 956.5333
118, Umplebys, -50, Umplebys, 40, 90, 1, closed, open, -8.0896, 9.115067, 101.9397, 1.071594, 958.7886
119, neutral, 0, MooreLot, 90, -90, 0, closed, closed, 2.653298, -7.6875, 78.70291, 1.406128, 961.1277
120, Maynard, 0, PineEntrance, 90, 90, 0, closed, closed, -8.654572, 5.645376, 141.7667, 1.058167, 963.1186
121, neutral, 0, McLaughlinCluster, 262, 90, 0, open, open, -8.477478, 1.494413, 315.4207, 1.336853, 965.36
122, RaunerFirst, 0, RaunerFirst, -90, -90, 1, closed, closed, 10.90543, 7.328105, -144.1035, 0.9619751, 967.2545
123, RaunerBackHall, 0, RaunerBackHall, -90, -90, 1, closed, closed, 10.64818, 5.568278, -144.5459, 0.9608154, 969.1608
124, Hop4, -3, Hop4, 87, 90, 1, closed, closed, -9.704895, 5.001594, 141.9436, 0.9608154, 971.0543
125, neutral, 0, Hop2, -91, -90, 0, closed, open, 11.27113, 5.510305, -154.4954, 1.044006, 973.0589
126, RaunerFirst, 0, BakerBerryHistoric2, 90, -90, 0, closed, closed, 10.04324, 7.761012, 28.34967, 1.114197, 975.0641
127, AllenSt, 0, AllenSt, 90, 90, 1, closed, closed, -8.60968, 7.24271, 147.061, 1.044678, 977.041
128, Hop4, -3, Hop4, 87, 90, 1, closed, closed, -6.139008, 4.045176, 141.2337, 0.7654419, 978.7531
129, BakerBerryHistoric2, 180, BakerBerryHistoric2, 270, 90, 1, open, open, -6.170776, 5.36119, 320.6873, 1.071838, 980.9944
130, neutral, 0, AllenSt, -90, -90, 0, open, open, 10.38532, 2.948343, -160.4785, 1.016113, 982.888
131, BakerBerry2nd, 94, BakerBerry2nd, 184, 90, 1, open, open, -6.322327, -3.909546, 215.2705, 1.099792, 984.8929
132, Maynard, 0, Maynard, -90, -90, 1, open, open, 10.19887, 3.676183, -156.7968, 0.9327393, 986.8279
133, McLaughlinCluster, 172, 53Commons, 90, 90, 0, open, open, -6.478241, 1.456695, 138.6064, 1.127808, 988.9445
134, BakerBerryCharter, -90, BakerBerryCharter, 0, 90, 1, closed, closed, -7.906219, 1.200807, 54.93997, 0.8768311, 990.7819
135, PineBackHall, 180, PineBackHall, 270, 90, 1, closed, closed, -8.284668, 1.171351, 324.9847, 0.9189453, 992.773
136, neutral, 0, Umplebys, -140, -90, 0, open, open, 9.19311, 3.029501, -205.2639, 0.9743652, 994.7219
137, 53Commons, 0, 53Commons, -90, -90, 1, closed, closed, 9.347007, -2.399658, -140.4579, 1.211426, 996.8104
138, RaunerBackHall, 0, Hop2, -91, -90, 0, closed, open, 9.95591, -6.671417, -131.1026, 1.141663, 999.1633
139, RollinsChapel3, 177, RollinsChapel3, 87, -90, 1, open, open, 7.040593, -6.715271, 30.16879, 2.770691, 1003.076
140, Hop2, -1, Hop2, 89, 90, 1, open, open, -5.491699, -5.234009, 120.2139, 0.9887695, 1005.164
141, Fairbanks, 0, Fairbanks, -90, -90, 1, open, open, 12.0326, 5.514491, -163.5107, 0.9744263, 1007.029
142, RaunerFirst, 0, RaunerFirst, -90, -90, 1, closed, closed, 9.753834, -0.4412537, -149.9221, 0.8771362, 1008.811
143, Umplebys, -50, Umplebys, 40, 90, 1, closed, closed, -7.643616, 3.436498, 96.92783, 0.9605103, 1010.705
144, Zimmerman, -100, RaunerBackHall, 90, 90, 0, open, open, -10.54868, -2.19632, 132.4057, 1.072083, 1013.086
